{"version": 0.6, "generator": "Overpass API 0.7.62.1 084b4234", "osm3s": {"timestamp_osm_base": "2024-09-03T04:44:25Z", "copyright": "The data included in this document is from www.openstreetmap.org. The data is made available under ODbL."}, "elements": [{"type": "node", "id": 3725846756, "lat": -34.6373621, "lon": 143.5637516}, {"type": "node", "id": 5585624636, "lat": -34.6339949, "lon": 143.5657802}, {"type": "node", "id": 5698442706, "lat": -34.6364785, "lon": 143.5630462}, {"type": "node", "id": 5698442707, "lat": -34.6370656, "lon": 143.563832}, {"type": "node", "id": 5698442708, "lat": -34.6357282, "lon": 143.5652992}, {"type": "node", "id": 5698442709, "lat": -34.6356841, "lon": 143.5652482}, {"type": "node", "id": 5698442710, "lat": -34.6345431, "lon": 143.5665089}, {"type": "node", "id": 10708247551, "lat": -34.6376521, "lon": 143.5641581}, {"type": "node", "id": 10708247552, "lat": -34.6366846, "lon": 143.5628458}, {"type": "node", "id": 10708247553, "lat": -34.6373791, "lon": 143.5621019}, {"type": "node", "id": 10708247554, "lat": -34.6383435, "lon": 143.5634274}, {"type": "way", "id": 598725481, "nodes": [5585624636, 5698442710, 5698442709, 5698442708, 5698442707, 5698442706, 5585624636], "tags": {"addr:city": "Balranald", "addr:postcode": "2715", "amenity": "school", "contact:email": "balranald-c.school@det.nsw.edu.au", "contact:fax": "+61 3 5020 2269", "contact:phone": "+61 3 5020 2222", "fee": "no", "grades": "0-12", "isced:level": "1;2;3", "name": "Balranald Central School", "operator": "NSW Department of Education", "operator:type": "public", "operator:wikidata": "Q5260271", "school:enrolment": "157", "school:gender": "mixed", "school:selective": "no", "school:specialty": "comprehensive", "school:type": "community", "source:boundary": "LPI Base Map June 2018", "start_date": "1865-09-01", "website": "https://www.balranald-c.schools.nsw.edu.au/"}}, {"type": "way", "id": 1151110409, "nodes": [10708247551, 3725846756, 10708247552, 10708247553, 10708247554, 10708247551], "tags": {"amenity": "school", "fixme": "really rough guess at boundary/shape. town needs a full workover starting with street alignment", "name": "St Josephs School"}}]}