{"version": 0.6, "generator": "Overpass API 0.7.62.1 084b4234", "osm3s": {"timestamp_osm_base": "2024-09-03T04:45:28Z", "copyright": "The data included in this document is from www.openstreetmap.org. The data is made available under ODbL."}, "elements": [{"type": "node", "id": 2324203308, "lat": -34.5900048, "lon": 142.7796746}, {"type": "node", "id": 2324203317, "lat": -34.5863631, "lon": 142.7796611}, {"type": "node", "id": 2324203319, "lat": -34.5863454, "lon": 142.782354}, {"type": "node", "id": 2324203322, "lat": -34.5878153, "lon": 142.7776162}, {"type": "node", "id": 2324203325, "lat": -34.590016, "lon": 142.7822936}, {"type": "node", "id": 2460046619, "lat": -34.585171, "lon": 142.7787495}, {"type": "node", "id": 2460046620, "lat": -34.5842435, "lon": 142.7778214}, {"type": "node", "id": 2460046621, "lat": -34.5841684, "lon": 142.7778214}, {"type": "node", "id": 2460046622, "lat": -34.5841419, "lon": 142.7778804}, {"type": "node", "id": 2460046623, "lat": -34.584111, "lon": 142.7792108}, {"type": "node", "id": 2460046624, "lat": -34.5841375, "lon": 142.7799404}, {"type": "node", "id": 2460046625, "lat": -34.5851842, "lon": 142.7799457}, {"type": "node", "id": 2757803300, "lat": -34.5760757, "lon": 142.7448282}, {"type": "node", "id": 2757803301, "lat": -34.5752939, "lon": 142.744914}, {"type": "node", "id": 2757803302, "lat": -34.5759432, "lon": 142.7435407}, {"type": "node", "id": 2757803303, "lat": -34.5751192, "lon": 142.744726}, {"type": "node", "id": 2757803305, "lat": -34.5750256, "lon": 142.7436601}, {"type": "node", "id": 9339202912, "lat": -34.5874088, "lon": 142.7781886}, {"type": "way", "id": 223530712, "nodes": [2324203317, 2324203319, 2324203325, 2324203308, 2324203322, 9339202912, 2324203317], "tags": {"addr:housenumber": "186", "addr:street": "Latje Road", "amenity": "school", "grades": "0-12", "isced:level": "1-3", "name": "Robinvale College", "operator": "Victorian Department of Education", "operator:type": "public", "operator:wikidata": "Q5260272", "phone": "+61 3 5026 3704", "website": "https://www.robinvale.vic.edu.au/"}}, {"type": "way", "id": 238149031, "nodes": [2460046619, 2460046620, 2460046621, 2460046622, 2460046623, 2460046624, 2460046625, 2460046619], "tags": {"addr:housenumber": "12", "addr:street": "Watkin Street", "amenity": "school", "denomination": "catholic", "grades": "0-8", "isced:level": "1-2", "name": "St Mary's School", "operator": "Diocese of Ballarat Catholic Education Limited", "operator:short": "DOBCEL", "operator:type": "religious", "operator:wikidata": "Q113059804", "phone": "+61 3 5026 3483", "religion": "christian", "website": "http://www.smrobinvale.catholic.edu.au"}}, {"type": "way", "id": 270794389, "nodes": [2757803305, 2757803302, 2757803300, 2757803301, 2757803303, 2757803305], "tags": {"addr:city": "Euston", "addr:postcode": "2737", "amenity": "school", "contact:email": "euston-p.school@det.nsw.edu.au", "contact:fax": "+61 3 5026 3040", "contact:phone": "+61 3 5026 3766", "fee": "no", "grades": "0-6", "isced:level": "1", "name": "Euston Public School", "operator": "NSW Department of Education", "operator:type": "public", "operator:wikidata": "Q5260271", "school:enrolment": "82", "school:gender": "mixed", "school:selective": "no", "school:specialty": "comprehensive", "school:type": "primary", "source": "survey", "start_date": "1865-12-01", "website": "https://www.euston-p.schools.nsw.edu.au/"}}]}