{"version": 0.6, "generator": "Overpass API 0.7.62.1 084b4234", "osm3s": {"timestamp_osm_base": "2024-09-03T04:43:23Z", "copyright": "The data included in this document is from www.openstreetmap.org. The data is made available under ODbL."}, "elements": [{"type": "node", "id": 3600106678, "lat": -35.6400716, "lon": 145.5734377}, {"type": "node", "id": 3600106690, "lat": -35.6383313, "lon": 145.5749395}, {"type": "node", "id": 3600113696, "lat": -35.6388864, "lon": 145.5704925}, {"type": "node", "id": 3600113705, "lat": -35.6399585, "lon": 145.5739306}, {"type": "node", "id": 3600113708, "lat": -35.6420108, "lon": 145.5722648}, {"type": "node", "id": 3600113711, "lat": -35.6407841, "lon": 145.5693362}, {"type": "node", "id": 3600113716, "lat": -35.6403867, "lon": 145.5749762}, {"type": "node", "id": 3600113721, "lat": -35.6387594, "lon": 145.575985}, {"type": "node", "id": 4315176678, "lat": -35.637456, "lon": 145.5785303}, {"type": "node", "id": 4315177789, "lat": -35.638211, "lon": 145.5766983}, {"type": "node", "id": 4315177792, "lat": -35.6412271, "lon": 145.5703602}, {"type": "node", "id": 4315177827, "lat": -35.6382706, "lon": 145.5772512}, {"type": "node", "id": 4315177835, "lat": -35.6383988, "lon": 145.5771746}, {"type": "node", "id": 4315177848, "lat": -35.6385181, "lon": 145.5778788}, {"type": "node", "id": 4315177861, "lat": -35.637005, "lon": 145.5774312}, {"type": "node", "id": 5586061194, "lat": -35.5796577, "lon": 145.3488428}, {"type": "node", "id": 5586061196, "lat": -35.4650117, "lon": 145.3083662}, {"type": "node", "id": 5698461545, "lat": -35.5803894, "lon": 145.3487134}, {"type": "node", "id": 5698461546, "lat": -35.5804985, "lon": 145.3497326}, {"type": "node", "id": 5698461547, "lat": -35.5797786, "lon": 145.3498775}, {"type": "node", "id": 5698461548, "lat": -35.4635581, "lon": 145.3086305}, {"type": "node", "id": 5698461549, "lat": -35.4636717, "lon": 145.3095263}, {"type": "node", "id": 5698461550, "lat": -35.4643795, "lon": 145.3094137}, {"type": "node", "id": 5698461551, "lat": -35.4643489, "lon": 145.3090811}, {"type": "node", "id": 5698461552, "lat": -35.4650829, "lon": 145.3089309}, {"type": "way", "id": 354261030, "nodes": [3600106690, 3600113721, 3600113716, 3600113705, 3600106690], "tags": {"addr:city": "Finley", "addr:postcode": "2713", "amenity": "school", "contact:email": "finley-p.school@det.nsw.edu.au", "contact:fax": "+61 3 5883 2397", "contact:phone": "+61 3 5883 1135", "fee": "no", "grades": "0-6", "isced:level": "1", "name": "Finley Public School", "operator": "NSW Department of Education", "operator:type": "public", "operator:wikidata": "Q5260271", "school:enrolment": "195", "school:gender": "mixed", "school:selective": "no", "school:specialty": "comprehensive", "school:type": "primary", "start_date": "1895-04-01", "website": "https://www.finley-p.schools.nsw.edu.au/"}}, {"type": "way", "id": 354261061, "nodes": [3600113708, 4315177792, 3600113711, 3600113696, 3600106678, 3600113708], "tags": {"addr:city": "Finley", "addr:postcode": "2713", "addr:street": "Tocumwal Street", "amenity": "school", "contact:email": "finley-h.school@det.nsw.edu.au", "contact:fax": "+61 3 5883 2396", "contact:phone": "+61 3 5883 1344", "fee": "no", "grades": "7-12", "isced:level": "2-3", "name": "Finley High School", "operator": "NSW Department of Education", "operator:type": "public", "operator:wikidata": "Q5260271", "school:enrolment": "372", "school:gender": "mixed", "school:selective": "no", "school:specialty": "comprehensive", "school:type": "secondary", "start_date": "1961-01-01", "website": "https://www.finley-h.schools.nsw.edu.au/"}}, {"type": "way", "id": 432504286, "nodes": [4315177861, 4315176678, 4315177848, 4315177827, 4315177835, 4315177789, 4315177861], "tags": {"amenity": "school", "name": "St Joseph's Primary School"}}, {"type": "way", "id": 598728902, "nodes": [5586061194, 5698461547, 5698461546, 5698461545, 5586061194], "tags": {"addr:city": "Blighty", "addr:postcode": "2713", "amenity": "school", "contact:email": "blighty-p.school@det.nsw.edu.au", "contact:fax": "+61 3 5882 6248", "contact:phone": "+61 3 5882 6238", "fee": "no", "grades": "0-6", "isced:level": "1", "name": "Blighty Public School", "operator": "NSW Department of Education", "operator:type": "public", "operator:wikidata": "Q5260271", "school:enrolment": "39", "school:gender": "mixed", "school:selective": "no", "school:specialty": "comprehensive", "school:type": "primary", "source:boundary": "LPI Base Map June 2018", "start_date": "1929-08-01", "website": "https://www.blighty-p.schools.nsw.edu.au/"}}, {"type": "way", "id": 598728909, "nodes": [5586061196, 5698461552, 5698461551, 5698461550, 5698461549, 5698461548, 5586061196], "tags": {"addr:city": "Deniliquin", "addr:postcode": "2710", "amenity": "school", "contact:email": "mayrung-p.school@det.nsw.edu.au", "contact:fax": "+61 3 5882 4326", "contact:phone": "+61 3 5882 4243", "fee": "no", "grades": "0-6", "isced:level": "1", "name": "Mayrung Public School", "operator": "NSW Department of Education", "operator:type": "public", "operator:wikidata": "Q5260271", "school:enrolment": "26", "school:gender": "mixed", "school:selective": "no", "school:specialty": "comprehensive", "school:type": "primary", "source:boundary": "LPI Base Map June 2018", "start_date": "1884-06-01", "website": "https://www.mayrung-p.schools.nsw.edu.au/"}}]}