id,promoType,price,hasVideo,agentNames,brandName,addressStreet,addressSuburb,addressState,addressPostcode,addressLat,addressLng,num_bath,type,formatted,isRural,landSize,Retirement,min_distance_to_university,min_distance_to_shopping_mall,min_distance_to_secondary_school,min_distance_to_primary_school,min_distance_to_park
15230553,premiumplus,500,FALSE,Ismaeel Hussain,Samma Real Estate,322/23 Batman Street,WEST MELBOURNE,VIC,3003,-37.810738,144.95226,1,ApartmentUnitFlat,Apartment / Unit / Flat,FALSE,0,FALSE,1.86,2.61,0.43,0.71,0.46
15760997,premiumplus,540,TRUE,Conny Yang,Waterdale Property Agent Pty Ltd,2601/65 Dudley Street,WEST MELBOURNE,VIC,3003,-37.810135,144.9504,1,ApartmentUnitFlat,Apartment / Unit / Flat,FALSE,0,FALSE,1.89,2.59,0.51,0.71,0.22
15975970,standardpp,650,FALSE,Ismaeel Hussain,Samma Real Estate,1212/15-31 Batman Street,WEST MELBOURNE,VIC,3003,-37.810757,144.95224,2,ApartmentUnitFlat,Apartment / Unit / Flat,FALSE,0,FALSE,1.86,2.6,0.42,0.71,0.46
16668342,premiumplus,560,FALSE,Ismaeel Hussain,Samma Real Estate,307/33 Batman Street,WEST MELBOURNE,VIC,3003,-37.81086,144.95183,1,ApartmentUnitFlat,Apartment / Unit / Flat,FALSE,0,FALSE,1.89,2.57,0.46,0.75,0.42
16803052,standardpp,600,FALSE,Caroline Hardeman,Ray White Williamstown,2/18 Ireland Street,WEST MELBOURNE,VIC,3003,-37.807606,144.94562,1,ApartmentUnitFlat,Apartment / Unit / Flat,FALSE,0,FALSE,2.18,2.94,0.92,0.88,0.58
17081791,standardpp,500,FALSE,Stephanie Allen,Dingle Partners,18/44 Chetwynd Street,WEST MELBOURNE,VIC,3003,-37.807064,144.95253,1,ApartmentUnitFlat,Apartment / Unit / Flat,FALSE,0,FALSE,1.6,3.09,0.43,0.48,0.28
17156216,standardpp,990,FALSE,Prudence Walton-Pearce,Nelson Alexander Brunswick,179 Roden Street,WEST MELBOURNE,VIC,3003,-37.809,144.94658,2,House,House,FALSE,0,FALSE,2.37,2.75,0.98,0.98,0.45
17181706,premiumplus,1150,FALSE,Nina Mehegan,Home AU Real Estate,1 Walsh Street,WEST MELBOURNE,VIC,3003,-37.80802,144.95451,3,Townhouse,Townhouse,FALSE,0,FALSE,1.52,3.11,0.35,0.66,0.47
17185927,elitepp,630,FALSE,Brandon Antrim,Jellis Craig - Brunswick,5/51 Stawell Street,WEST MELBOURNE,VIC,3003,-37.80476,144.94238,2,ApartmentUnitFlat,Apartment / Unit / Flat,FALSE,0,FALSE,2.17,3.63,0.91,1.06,0.81
17192159,premiumplus,690,FALSE,"Jayde Cashion, Jo McKeown, Jellis Craig Inner North",Jellis Craig Fitzroy,199 Adderley Street,WEST MELBOURNE,VIC,3003,-37.808903,144.94556,1,House,House,FALSE,0,FALSE,2.3,2.82,1.04,1.07,0.52
17198726,elite,650,FALSE,Tristian Jack,W. B. Simpson & Son,459 Victoria Street,WEST MELBOURNE,VIC,3003,-37.804886,144.94469,1,Townhouse,Townhouse,FALSE,0,FALSE,1.97,3.47,0.71,0.86,0.61
17199701,elite,680,FALSE,"Alex Chan, Leane Shea",Fletchers Projects Rental,2803/420 Spencer Street,WEST MELBOURNE,VIC,3003,-37.81032,144.9504,2,ApartmentUnitFlat,Apartment / Unit / Flat,FALSE,0,FALSE,2.02,2.53,0.46,0.73,0.24
17200741,elite,950,FALSE,Mario Setiawan,Casa Real Estate,11/28 Ireland Street,WEST MELBOURNE,VIC,3003,-37.807446,144.94533,2,Townhouse,Townhouse,FALSE,0,FALSE,2.24,3,0.98,0.94,0.64
17200782,elite,650,FALSE,Mania Sidhu,MICM Real Estate,7/39-47 Peel Street,WEST MELBOURNE,VIC,3003,-37.80717,144.95543,1,ApartmentUnitFlat,Apartment / Unit / Flat,FALSE,0,FALSE,1.21,3.34,0.43,0.74,0.52
17201321,elite,600,FALSE,Abie Riady,MICM Real Estate,1408/408 Spencer Street,WEST MELBOURNE,VIC,3003,-37.810585,144.95053,1,ApartmentUnitFlat,Apartment / Unit / Flat,FALSE,0,FALSE,2.01,2.53,0.45,0.86,0.38
17201355,premiumplus,670,FALSE,Conny Yang,Waterdale Property Agent Pty Ltd,U303/65 Dudley Street,WEST MELBOURNE,VIC,3003,-37.810135,144.9504,2,ApartmentUnitFlat,Apartment / Unit / Flat,FALSE,0,FALSE,1.89,2.59,0.51,0.71,0.22
17201583,elitepp,750,FALSE,"Zac Keltie, Gary Lewis",Belle Property South Melbourne,1903/65 Dudley Street,WEST MELBOURNE,VIC,3003,-37.810135,144.9504,2,ApartmentUnitFlat,Apartment / Unit / Flat,FALSE,0,FALSE,1.89,2.59,0.51,0.71,0.22
17203311,elite,720,FALSE,"Leasing Team, Romina Alessi",Melcorp Real Estate,312/288 Adderley Street,WEST MELBOURNE,VIC,3003,-37.8072,144.94318,2,ApartmentUnitFlat,Apartment / Unit / Flat,FALSE,0,FALSE,2.46,3.07,1.2,1.16,0.77
9522409,elite,520,FALSE,Cooper Modica,LITTLE Real Estate Victoria,204/33-43 Batman Street,WEST MELBOURNE,VIC,3003,-37.81086,144.95183,1,ApartmentUnitFlat,Apartment / Unit / Flat,FALSE,0,FALSE,1.89,2.57,0.46,0.75,0.42
17064004,elite,540,TRUE,Abie Riady,MICM Real Estate,210/55 Jeffcott Street,WEST MELBOURNE,VIC,3003,-37.81205,144.95174,1,ApartmentUnitFlat,Apartment / Unit / Flat,FALSE,0,FALSE,2.05,2.39,0.32,0.90,0.49
17088188,elite,600,FALSE,Property Now,Property Now,112 Adderley Street,WEST MELBOURNE,VIC,3003,-37.810665,144.94797,1,ApartmentUnitFlat,Apartment / Unit / Flat,FALSE,0,FALSE,2.01,2.76,0.69,0.84,0.35
17097886,elite,520,FALSE,Azhar Bhatti,Barry Plant Essendon,311/23 Batman St,WEST MELBOURNE,VIC,3003,-37.810738,144.95226,1,ApartmentUnitFlat,Apartment / Unit / Flat,FALSE,0,FALSE,1.86,2.61,0.43,0.71,0.46
17104104,elite,690,TRUE,Mania Sidhu,MICM Real Estate,1907/408 Spencer Street,WEST MELBOURNE,VIC,3003,-37.8106,144.95053,1,ApartmentUnitFlat,Apartment / Unit / Flat,FALSE,0,FALSE,2.01,2.53,0.45,0.86,0.38
17104126,elite,760,FALSE,Michael Zhang,Areal Property - Box Hill,503/10 Wominjeka Walk,WEST MELBOURNE,VIC,3003,-37.81019,144.94905,2,ApartmentUnitFlat,Apartment / Unit / Flat,FALSE,0,FALSE,1.91,2.66,0.58,0.73,0.24
17120819,elite,650,FALSE,Frank Du,CAN Estate Agents Pty Ltd,912/65 Dudley Street,WEST MELBOURNE,VIC,3003,-37.810135,144.9504,1,ApartmentUnitFlat,Apartment / Unit / Flat,FALSE,0,FALSE,1.89,2.59,0.51,0.71,0.22
17127712,elite,630,FALSE,Kenneth Wu,Professionals First & Co,1212/65 Dudley Street,WEST MELBOURNE,VIC,3003,-37.810135,144.9504,1,ApartmentUnitFlat,Apartment / Unit / Flat,FALSE,0,FALSE,1.89,2.59,0.51,0.71,0.22
17132972,elite,450,FALSE,"Kim Davey, Chelsea Menjivar",Melbourne Boutique Property,301/5 Stawell Street,WEST MELBOURNE,VIC,3003,-37.80608,144.9422,1,ApartmentUnitFlat,Apartment / Unit / Flat,FALSE,0,FALSE,2.49,3.46,1.23,1.40,1.10
17145523,elite,790,TRUE,Mania Sidhu,MICM Real Estate,1002/408 Spencer Street,WEST MELBOURNE,VIC,3003,-37.810585,144.95053,2,ApartmentUnitFlat,Apartment / Unit / Flat,FALSE,0,FALSE,2.01,2.53,0.45,0.86,0.38
17148149,elite,720,TRUE,Mania Sidhu,MICM Real Estate,1104/408 Spencer Street,WEST MELBOURNE,VIC,3003,-37.810585,144.95053,1,ApartmentUnitFlat,Apartment / Unit / Flat,FALSE,0,FALSE,2.01,2.53,0.45,0.86,0.38
17149674,elite,440,TRUE,Mania Sidhu,MICM Real Estate,307/53 Batman Street,WEST MELBOURNE,VIC,3003,-37.81091,144.95145,1,ApartmentUnitFlat,Apartment / Unit / Flat,FALSE,0,FALSE,1.92,2.53,0.46,0.77,0.39
17151769,elite,580,FALSE,Mania Sidhu,MICM Real Estate,1101/408 Spencer Street,WEST MELBOURNE,VIC,3003,-37.810585,144.95053,1,ApartmentUnitFlat,Apartment / Unit / Flat,FALSE,0,FALSE,2.01,2.53,0.45,0.86,0.38
17156127,elite,680,TRUE,Abie Riady,MICM Real Estate,92/33 Jeffcott Street,WEST MELBOURNE,VIC,3003,-37.811794,144.9526,2,ApartmentUnitFlat,Apartment / Unit / Flat,FALSE,0,FALSE,2.04,2.47,0.35,0.89,0.57
17156485,elite,680,FALSE,"Alex Chan, Leane Shea",Fletchers Projects Rental,2103/65 Dudley Street,WEST MELBOURNE,VIC,3003,-37.810135,144.9504,2,ApartmentUnitFlat,Apartment / Unit / Flat,FALSE,0,FALSE,1.89,2.59,0.51,0.71,0.22
17156535,elite,660,FALSE,"Alex Chan, Leane Shea",Fletchers Projects Rental,114/121 Rosslyn Street,WEST MELBOURNE,VIC,3003,-37.809017,144.95024,2,ApartmentUnitFlat,Apartment / Unit / Flat,FALSE,0,FALSE,1.82,2.75,0.64,0.49,0.17
17164804,elite,900,FALSE,Mania Sidhu,MICM Real Estate,1903/408 Spencer Street,WEST MELBOURNE,VIC,3003,-37.8106,144.95053,2,ApartmentUnitFlat,Apartment / Unit / Flat,FALSE,0,FALSE,2.01,2.53,0.45,0.86,0.38
17166339,elite,500,FALSE,David Barnes,Nelson Alexander Northcote,311/162 Rosslyn Street,WEST MELBOURNE,VIC,3003,-37.809242,144.9489,1,ApartmentUnitFlat,Apartment / Unit / Flat,FALSE,0,FALSE,1.91,2.72,0.65,0.58,0.08
17167152,elite,670,FALSE,Mania Sidhu,MICM Real Estate,1707/408 Spencer Street,WEST MELBOURNE,VIC,3003,-37.810585,144.95053,1,ApartmentUnitFlat,Apartment / Unit / Flat,FALSE,0,FALSE,2.01,2.53,0.45,0.86,0.38
17170949,elite,620,FALSE,"Mark Arnejo, Leah Zhao",Melplex Real Estate,1205/41 Batman Street,WEST MELBOURNE,VIC,3003,-37.810875,144.95183,1,ApartmentUnitFlat,Apartment / Unit / Flat,FALSE,0,FALSE,1.89,2.57,0.46,0.75,0.42
14285004,premiumplus,460,FALSE,"Kavinda Kudage Don, Adam Abriani",Linage ,1105/568 St Kilda Road,MELBOURNE,VIC,3004,-37.847107,144.97884,1,ApartmentUnitFlat,Apartment / Unit / Flat,FALSE,0,FALSE,6.25,5.41,0.67,1.33,0.79
15977519,premiumplus,675,FALSE,Ismaeel Hussain,Samma Real Estate,206/601 Little Collins Street,MELBOURNE,VIC,3004,-37.817917,144.95485,2,ApartmentUnitFlat,Apartment / Unit / Flat,FALSE,0,FALSE,2.65,1.72,0.14,1.54,0.25
16592622,premiumplus,630,FALSE,Angus Brayshaw,Richardson & Wrench Projects Victoria,G06B/72 Ascot Vale Road,FLEMINGTON,VIC,3031,-37.78403,144.92305,2,ApartmentUnitFlat,Apartment / Unit / Flat,FALSE,0,FALSE,3.07,4.92,0.78,1.50,0.78
16609817,premiumplus,630,FALSE,Angus Brayshaw,Richardson & Wrench Projects Victoria,G01A/72 Ascot Vale Road,FLEMINGTON,VIC,3031,-37.78403,144.92305,2,ApartmentUnitFlat,Apartment / Unit / Flat,FALSE,0,FALSE,3.07,4.92,0.78,1.50,0.78
16811696,premiumplus,720,FALSE,"Alexander Gorejena, Fiona Tennant",aussieproperty.com,5601/450 Elizabeth Street,MELBOURNE,VIC,3004,-37.80828,144.9607,1,ApartmentUnitFlat,Apartment / Unit / Flat,FALSE,0,FALSE,1.26,3.39,0.66,1.14,0.27
17028121,premiumplus,580,TRUE,Community Host  UKO Melbourne Central,UKO,703/19 Exploration Lane,MELBOURNE,VIC,3000,-37.808933,144.9681,1,Studio,Studio,FALSE,0,FALSE,1.74,3.79,0.46,0.92,0.32
17079308,premiumplus,840,FALSE,LIV Aston,LIV Aston Mirvac,1911/7 Siddeley Street,DOCKLANDS,VIC,3008,-37.821514,144.95454,1,ApartmentUnitFlat,Apartment / Unit / Flat,FALSE,0,FALSE,3.34,1.14,0.79,1.73,0.38
17163016,premiumplus,620,FALSE,"Kim Te, Mary Mezei",Motion Property,1606/6 Joseph Road,FOOTSCRAY,VIC,3011,-37.800327,144.90956,2,ApartmentUnitFlat,Apartment / Unit / Flat,FALSE,0,FALSE,1.78,4.55,1.52,0.61,0.39
17163417,premiumplus,950,FALSE,"Leasing Team, Miranda Farago",Besser & Co. Estate Agents,22 Leven Avenue,DOCKLANDS,VIC,3008,-37.815525,144.93718,3,Townhouse,Townhouse,FALSE,0,FALSE,3.26,4.19,1.93,0.60,0.10
17173381,premiumplus,550,FALSE,Aaron Boal,Gotham Property,509/77 Hobsons Road,KENSINGTON,VIC,3031,-37.795876,144.91705,1,ApartmentUnitFlat,Apartment / Unit / Flat,FALSE,0,FALSE,2.64,5.64,1.56,1.38,0.07
17177667,premiumplus,550,FALSE,Barbara Baltas,Dingle Partners,706/325 Collins Street,MELBOURNE,VIC,3000,-37.816597,144.96346,1,ApartmentUnitFlat,Apartment / Unit / Flat,FALSE,0,FALSE,2.56,2.35,0.71,2.18,0.72
17177988,premiumplus,450,FALSE,Mona Wang,Dingle Partners,204/86 Altona Street,KENSINGTON,VIC,3031,-37.796715,144.9255,1,ApartmentUnitFlat,Apartment / Unit / Flat,FALSE,0,FALSE,3.22,5.96,1.38,0.61,0.11
16554829,standardpp,490,TRUE,"Kim Te, Mary Mezei",Motion Property,401/4 Joseph Road,FOOTSCRAY,VIC,3011,-37.800327,144.90956,1,ApartmentUnitFlat,Apartment / Unit / Flat,FALSE,0,FALSE,1.78,4.55,1.52,0.61,0.39
17117748,standardpp,425,FALSE,Trish Ha,Dingle Partners,208/408 Lonsdale Street,MELBOURNE,VIC,3000,-37.8126,144.9604,1,ApartmentUnitFlat,Apartment / Unit / Flat,FALSE,0,FALSE,1.87,2.79,0.06,1.68,0.54
17130504,standardpp,850,FALSE,Jade Sterland,Jellis Craig Port Phillip Pty Ltd,903/582 St Kilda Road,MELBOURNE,VIC,3004,-37.849308,144.97942,2,ApartmentUnitFlat,Apartment / Unit / Flat,FALSE,0,FALSE,6.59,5.55,0.61,1.28,0.84
17138715,standardpp,590,FALSE,Carson Mair,Dingle Partners,203/9 Commercial Road,MELBOURNE,VIC,3004,-37.845287,144.97978,1,ApartmentUnitFlat,Apartment / Unit / Flat,FALSE,0,FALSE,6.1,5.27,0.72,1.03,0.65
13477440,elite,420,FALSE,Tennille D'Avola,Jas Stephens Real Estate,103/26 Beaurepaire Parade,FOOTSCRAY,VIC,3011,-37.799736,144.88368,1,ApartmentUnitFlat,Apartment / Unit / Flat,FALSE,0,FALSE,1.69,3.45,0.98,0.63,0.47
15945111,elite,560,FALSE,Natasha Roman,Jas Stephens Real Estate,6/245 Williamstown Road,YARRAVILLE,VIC,3013,-37.816265,144.88327,1,Townhouse,Townhouse,FALSE,0,FALSE,2.79,4.46,2.04,0.34,0.47
16152908,elite,790,FALSE,Stephanie Njomkam,Jas Stephens Real Estate,6 Powell Street,YARRAVILLE,VIC,3013,-37.813576,144.88539,2,House,House,FALSE,0,FALSE,2.1,4.74,2.07,0.13,0.49
17196551,elite,860,FALSE,Cassidy Simmonds,hockingstuart Yarraville,39 Frederick Street,YARRAVILLE,VIC,3013,-37.81967,144.89517,2,House,House,FALSE,0,FALSE,2.01,5.08,1.87,0.37,0.39
17196753,elite,600,FALSE,Raelene Hallmark,McGrath Yarraville,4 Brooks Place,YARRAVILLE,VIC,3013,-37.81273,144.88766,1,House,House,FALSE,0,FALSE,1.87,4.99,1.85,0.39,0.63
17196981,elite,440,FALSE,April Langley,Buxton Inner West,6/107 Somerville Road,YARRAVILLE,VIC,3013,-37.81333,144.88654,1,ApartmentUnitFlat,Apartment / Unit / Flat,FALSE,0,FALSE,1.97,4.85,1.94,0.25,0.50
17197193,elite,750,TRUE,"Tali Leckie, Bronte Carfino",MRE,1802/135 A'Beckett Street,MELBOURNE,VIC,3000,-37.809788,144.95964,1,ApartmentUnitFlat,Apartment / Unit / Flat,FALSE,0,FALSE,1.47,3.13,0.57,1.34,0.31
17197263,elite,460,FALSE,Miki Kawabuchi,MICM Real Estate,1804/618 Lonsdale Street,MELBOURNE,VIC,3000,-37.814415,144.9539,1,ApartmentUnitFlat,Apartment / Unit / Flat,FALSE,0,FALSE,2.27,2.14,0.37,1.17,0.68
17197881,elite,900,FALSE,Anastasia Jajo,hockingstuart Yarraville,12A Dean Street,YARRAVILLE,VIC,3013,-37.81961,144.88318,2,Townhouse,Townhouse,FALSE,0,FALSE,3.1,4,1.61,0.87,0.79
17177312,elite,565,FALSE,Carmelo Caputa,Melbourne Residential Property Management,2/16 Gordon Street,FOOTSCRAY,VIC,3011,-37.79378,144.88905,1,Townhouse,Townhouse,FALSE,0,FALSE,1.32,2.38,0.88,0.67,0.60
17177339,elite,460,FALSE,Heather Steadman,OBrien Real Estate ,331/673 La Trobe Street,DOCKLANDS,VIC,3008,-37.814922,144.94794,1,ApartmentUnitFlat,Apartment / Unit / Flat,FALSE,0,FALSE,2.74,2.18,1.41,0.99,1.07
17177367,elite,925,FALSE,Property Now,Property Now,883 COLLINS STREET,DOCKLANDS,VIC,3008,-37.82109,144.94264,1,ApartmentUnitFlat,Apartment / Unit / Flat,FALSE,0,FALSE,3.91,1.99,1.85,1.77,0.23
17177564,elite,500,FALSE,"Lakely Shu, Jeff Yu",ELITE REAL ESTATE (ON ELIZABETH STREET),305/8 Mccrae Street,DOCKLANDS,VIC,3008,-37.82167,144.95099,1,ApartmentUnitFlat,Apartment / Unit / Flat,FALSE,0,FALSE,3.93,0.9,1.05,1.31,0.65
17177816,elite,740,FALSE,"Alice Mosut, Sorelle Webster",Barry Plant Yarraville,5 Carder Place,YARRAVILLE,VIC,3013,-37.822674,144.88857,2,Townhouse,Townhouse,FALSE,0,FALSE,3.02,4.65,2.26,0.64,0.93
17178113,elite,730,FALSE,Jerry Bao,Ray White (Box Hill),151/8 Waterside Pl,DOCKLANDS,VIC,3008,-37.819916,144.9422,1,ApartmentUnitFlat,Apartment / Unit / Flat,FALSE,0,FALSE,3.75,1.82,1.69,1.61,0.24
17178469,elite,400,FALSE,Para Taneski,Sweeney Estate Agents Williamstown,4/21 Latrobe Street,FOOTSCRAY,VIC,3011,-37.79774,144.88976,1,ApartmentUnitFlat,Apartment / Unit / Flat,FALSE,0,FALSE,1.15,2.92,0.44,0.42,0.33
17179118,elite,700,FALSE,"Romina Alessi, Leasing Team",Melcorp Real Estate,4813/33 Rose Lane,MELBOURNE,VIC,3000,-37.815,144.95387,1,ApartmentUnitFlat,Apartment / Unit / Flat,FALSE,0,FALSE,2.3,2.09,0.37,1.19,0.63
17179295,elite,710,FALSE,Laura Braun,Evoke Property,12a/60 Queens Road,MELBOURNE,VIC,3000,-37.81707,144.96188,1,ApartmentUnitFlat,Apartment / Unit / Flat,FALSE,0,FALSE,2.5,2.29,0.65,2.12,0.54
17179297,elite,675,TRUE,"Tali Leckie, Thembie  Sikwila",MRE,2704/483 Swanston Street,MELBOURNE,VIC,3000,-37.807137,144.96233,1,ApartmentUnitFlat,Apartment / Unit / Flat,FALSE,0,FALSE,1.1,3.92,0.37,1.16,0.51
10892306,elite,540,FALSE,Danny Campos,LITTLE Real Estate Victoria,600/18 Waterview Walk,DOCKLANDS,VIC,3008,-37.819168,144.94757,1,ApartmentUnitFlat,Apartment / Unit / Flat,FALSE,0,FALSE,3.71,1.3,1.16,1.64,0.69
17070058,elite,540,FALSE,Mia Bakri,Landmark Real Estate,704/450 ST KILDA ROAD,MELBOURNE,VIC,3004,-37.838615,144.97589,1,ApartmentUnitFlat,Apartment / Unit / Flat,FALSE,0,FALSE,5.26,4.39,0.59,1.35,0.72
17179315,elite,740,FALSE,Elvis Ng,Apex Investment Alliance,1306E/888 Collins Street,DOCKLANDS,VIC,3008,-37.820473,144.94252,1,ApartmentUnitFlat,Apartment / Unit / Flat,FALSE,0,FALSE,3.76,1.83,1.7,1.62,0.23
17179427,elite,825,FALSE,"Thembie  Sikwila, Annabelle Munt",MRE,1401/157 A'Beckett Street,MELBOURNE,VIC,3000,-37.81,144.95882,2,ApartmentUnitFlat,Apartment / Unit / Flat,FALSE,0,FALSE,1.54,3.05,0.5,1.27,0.24
17179547,elite,590,FALSE,"Mason Wong, Hayley Tran",Inner Real Estate NEXTRE,1511/568 St Kilda Road,MELBOURNE,VIC,3004,-37.847107,144.97884,1,ApartmentUnitFlat,Apartment / Unit / Flat,FALSE,0,FALSE,6.25,5.41,0.67,1.33,0.79
17179948,elite,750,FALSE,Illy Bakesy,Jas Stephens Real Estate,9/37 Stephen Street,YARRAVILLE,VIC,3013,-37.81239,144.89597,2,Townhouse,Townhouse,FALSE,0,FALSE,1.27,5.7,1.13,0.90,0.44
17181702,elite,1050,FALSE,"Hendy Nora, James Ji",Core Realty Pty Ltd,4201/119 A'beckett Street,MELBOURNE,VIC,3000,-37.809578,144.96008,2,ApartmentUnitFlat,Apartment / Unit / Flat,FALSE,0,FALSE,1.42,3.17,0.62,1.30,0.43
17181930,elite,460,FALSE,Nelson Wu,CT Real Estate,1103/2 Hallenstein Street,FOOTSCRAY,VIC,3011,-37.80043,144.90816,1,ApartmentUnitFlat,Apartment / Unit / Flat,FALSE,0,FALSE,1.46,4.23,1.2,0.29,0.20
17182121,elite,800,TRUE,"Bronte Carfino, Tali Leckie",MRE,916/35 Albert Road,MELBOURNE,VIC,3004,-37.834694,144.9721,2,ApartmentUnitFlat,Apartment / Unit / Flat,FALSE,0,FALSE,4.68,3.84,0.49,1.36,0.84
17182298,elite,630,FALSE,Ann Borg,Village Real Estate ,455 Geelong Road,YARRAVILLE,VIC,3013,-37.812218,144.86708,1,House,House,FALSE,0,FALSE,3.27,2.86,2,0.74,0.46
16633591,premiumplus,510,FALSE,"Kim Te, Mary Mezei",Motion Property,205/6 Joseph Road,FOOTSCRAY,VIC,3011,-37.800327,144.90956,1,ApartmentUnitFlat,Apartment / Unit / Flat,FALSE,0,FALSE,1.78,4.55,1.52,0.61,0.39
17195040,premiumplus,675,FALSE,Ismaeel Hussain,Samma Real Estate,3712/80 ABeckett Street,MELBOURNE,VIC,3000,-37.809,144.96107,1,ApartmentUnitFlat,Apartment / Unit / Flat,FALSE,0,FALSE,1.39,3.28,0.55,1.26,0.39
17196214,premiumplus,500,TRUE,Kim Te,Motion Property,1508/2 Joseph Road,FOOTSCRAY,VIC,3011,-37.800327,144.90956,1,ApartmentUnitFlat,Apartment / Unit / Flat,FALSE,0,FALSE,1.78,4.55,1.52,0.61,0.39
17197393,premiumplus,700,TRUE,"Christian Neofotistos, Hassan Allouche",Ray White Brunswick,14 Clarence Street,FLEMINGTON,VIC,3031,-37.78696,144.92557,1,House,House,FALSE,0,FALSE,2.7,5.02,0.31,1.04,0.37
17197768,premiumplus,850,FALSE,"Lorena Lore, Christian Hidayat",GBE Property Investments,911/915 Collins Street,DOCKLANDS,VIC,3008,-37.820675,144.94011,2,ApartmentUnitFlat,Apartment / Unit / Flat,FALSE,91,FALSE,3.89,1.96,1.83,1.74,0.01
17197776,premiumplus,640,FALSE,"Lorena Lore, Christian Hidayat",GBE Property Investments,2010/628 Flinders Street,DOCKLANDS,VIC,3008,-37.820972,144.95325,1,ApartmentUnitFlat,Apartment / Unit / Flat,FALSE,0,FALSE,3.38,1.25,0.83,1.77,0.43
16604617,elite,700,FALSE,Christine Baldasso,Jas Stephens Real Estate,23 Lovett Walk,FOOTSCRAY,VIC,3011,-37.801044,144.8852,2,House,House,FALSE,0,FALSE,1.54,3.56,1.09,0.74,0.58
17037014,elite,550,FALSE,"Tia Perry, Tijen Akdeniz",Frank Dowling,12 Kensington Road,KENSINGTON,VIC,3031,-37.794376,144.92679,1,House,House,FALSE,0,FALSE,3.12,5.58,1,0.27,0.46
17119860,elite,600,FALSE,Elvis Ng,Apex Investment Alliance,307E/888 Collins Street,DOCKLANDS,VIC,3008,-37.82063,144.94257,1,ApartmentUnitFlat,Apartment / Unit / Flat,FALSE,0,FALSE,3.93,1.57,1.44,1.79,0.58
17125233,elite,700,FALSE,Daisy Au,Belle Property Balwyn,1701S/889 Collins Street,DOCKLANDS,VIC,3008,-37.820915,144.94186,2,ApartmentUnitFlat,Apartment / Unit / Flat,FALSE,0,FALSE,3.84,1.91,1.78,1.70,0.16
17157793,elite,550,FALSE,"Amanda Carr, Yvonne Elmenawi",Gunn &Co Estate Agents,5/78 Queens Road,MELBOURNE,VIC,3004,-37.85308,144.97952,1,ApartmentUnitFlat,Apartment / Unit / Flat,FALSE,0,FALSE,7.21,5.52,0.39,0.89,1.06
17161889,elite,688,FALSE,RentBetter Team,RentBetter,103/35 Victoria Street,FOOTSCRAY,VIC,3011,-37.80146,144.89291,1,ApartmentUnitFlat,Apartment / Unit / Flat,FALSE,0,FALSE,0.77,3.62,0.28,0.44,0.79
17198039,elite,680,FALSE,RentBetter Team,RentBetter,Unit 220/60 Siddeley St,DOCKLANDS,VIC,3008,-37.822678,144.95253,1,ApartmentUnitFlat,Apartment / Unit / Flat,FALSE,0,FALSE,3.5,0.99,0.95,1.89,0.55
16439494,elite,560,FALSE,"VI A, Ken Yu",Chandon Realestate,1305/8 Pearl River Rd,DOCKLANDS,VIC,3008,-37.81565,144.93825,1,ApartmentUnitFlat,Apartment / Unit / Flat,FALSE,0,FALSE,3.15,4.08,1.82,0.48,0.17
16574664,elite,720,FALSE,RentBetter Team,RentBetter,207/601 Saint Kilda Road,MELBOURNE,VIC,3004,-37.85058,144.98131,2,ApartmentUnitFlat,Apartment / Unit / Flat,FALSE,0,FALSE,7.3,5.72,0.42,1.34,1.53
17174987,elite,470,FALSE,Tennille D'Avola,Jas Stephens Real Estate,1/49 Napier Street,FOOTSCRAY,VIC,3011,-37.80482,144.9024,1,ApartmentUnitFlat,Apartment / Unit / Flat,FALSE,0,FALSE,0.58,4.66,0.7,0.46,0.56
17175035,elite,490,FALSE,"Eva Christodoulou, Dylan Emmett",Lucas Real Estate,1710/8 McCrae Street,DOCKLANDS,VIC,3008,-37.82167,144.95099,1,ApartmentUnitFlat,Apartment / Unit / Flat,FALSE,0,FALSE,3.93,0.9,1.05,1.31,0.65
17175715,elite,600,FALSE,Shaun Young,AREAL PROPERTY MELBOURNE,708/243 Franklin Street,MELBOURNE,VIC,3000,-37.809772,144.957,1,ApartmentUnitFlat,Apartment / Unit / Flat,FALSE,0,FALSE,1.62,3.06,0.64,1.03,0.25
17176952,elite,675,FALSE,Illy Bakesy,Jas Stephens Real Estate,61 Tarrengower Street,YARRAVILLE,VIC,3013,-37.81772,144.8898,1,House,House,FALSE,0,FALSE,2.35,5.1,2.21,0.77,0.54
14593045,standardpp,450,FALSE,Cooper Modica,LITTLE Real Estate Victoria,802/1 Ascot Vale Road,FLEMINGTON,VIC,3031,-37.78678,144.92131,1,ApartmentUnitFlat,Apartment / Unit / Flat,FALSE,0,FALSE,2.66,4.84,0.6,1.10,0.68
17079304,standardpp,590,FALSE,LIV Aston,LIV Aston Mirvac,1916/7 Siddeley Street,DOCKLANDS,VIC,3008,-37.821514,144.95454,1,Studio,Studio,FALSE,0,FALSE,3.34,1.14,0.79,1.73,0.38
17175586,standardpp,600,FALSE,Caterina Italiano,Woodards Ascot Vale,20 Marwick Street,FLEMINGTON,VIC,3031,-37.7814,144.93184,1,House,House,FALSE,0,FALSE,3.2,5.26,0.28,0.29,0.21
17181356,standardpp,600,FALSE,"Ruella Head, Tass Roussos",Belle Property St Kilda,4/58 Queens Road,MELBOURNE,VIC,3004,-37.84839,144.9779,1,ApartmentUnitFlat,Apartment / Unit / Flat,FALSE,0,FALSE,6.49,5.32,0.51,1.18,0.61
17188315,standardpp,550,FALSE,"Travis Flint, Caroline Hardeman",Ray White Williamstown,6/51 Stephen Street,YARRAVILLE,VIC,3013,-37.81278,144.8953,1,ApartmentUnitFlat,Apartment / Unit / Flat,FALSE,0,FALSE,1.22,5.7,1.08,0.99,0.36
17195887,standardpp,585,FALSE,Property Management Department,P Di Natale Real Estate,20 Southampton Street,FOOTSCRAY,VIC,3011,-37.79526,144.886,2,House,House,FALSE,0,FALSE,1.7,2.99,0.99,0.25,0.10
17198284,standardpp,535,FALSE,"Travis Flint, Caroline Hardeman",Ray White Williamstown,60 Blackwood Street,YARRAVILLE,VIC,3013,-37.818367,144.88936,1,House,House,FALSE,0,FALSE,2.49,5.24,2.35,0.69,0.68
14309514,elite,860,FALSE,RentBetter Team,RentBetter,408/118 Dudley Street,WEST MELBOURNE,VIC,3003,-37.809357,144.9514,1,ApartmentUnitFlat,Apartment / Unit / Flat,FALSE,0,FALSE,1.68,2.71,0.5,0.53,0.33
14401110,standard,610,TRUE,"Chloe Zha, Mary Navarro",Austrump Glen Pty Ltd,204/392 Spencer Street,WEST MELBOURNE,VIC,3003,-37.811256,144.95097,1,ApartmentUnitFlat,Apartment / Unit / Flat,FALSE,0,FALSE,2.16,2.42,0.34,1.00,0.52
14639707,standard,495,FALSE,"Susan  Clements, Felix Zeldin",Prime Property Partners Australia,11/33 Walsh,WEST MELBOURNE,VIC,3003,-37.80841,144.95335,1,ApartmentUnitFlat,Apartment / Unit / Flat,FALSE,0,FALSE,1.59,3.01,0.47,0.66,0.45
14983734,elite,680,FALSE,Frank Du,CAN Estate Agents Pty Ltd,1803/65 Dudley Street,WEST MELBOURNE,VIC,3003,-37.810135,144.9504,2,ApartmentUnitFlat,Apartment / Unit / Flat,FALSE,0,FALSE,1.89,2.59,0.51,0.71,0.22
16169748,standard,600,FALSE,Landnest Box Hill Leasing Team,LANDNEST REAL ESTATE,901/393 Spencer Street,WEST MELBOURNE,VIC,3003,-37.811325,144.95024,1,ApartmentUnitFlat,Apartment / Unit / Flat,FALSE,0,FALSE,2.03,2.54,0.47,0.83,0.35
17023980,elite,550,FALSE,Leasing Team,LJ Hooker City Residential,G07/133 Rosslyn Street,WEST MELBOURNE,VIC,3003,-37.809013,144.95024,1,ApartmentUnitFlat,Apartment / Unit / Flat,FALSE,0,FALSE,1.82,2.75,0.64,0.49,0.17
17037803,elite,600,TRUE,Abie Riady,MICM Real Estate,108/408 Spencer Street,WEST MELBOURNE,VIC,3003,-37.810585,144.95053,1,ApartmentUnitFlat,Apartment / Unit / Flat,FALSE,0,FALSE,2.01,2.53,0.45,0.86,0.38
17138615,standard,999,FALSE,William Wang,Levic Group Pty Ltd,180/480 La Trobe Street,WEST MELBOURNE,VIC,3003,-37.811794,144.9526,2,ApartmentUnitFlat,Apartment / Unit / Flat,FALSE,0,FALSE,2.04,2.47,0.35,0.89,0.57
17153081,standard,630,FALSE,Ke Ke,GOLD 4LIFE,1605/105 Batman St,WEST MELBOURNE,VIC,3003,-37.811386,144.94969,1,ApartmentUnitFlat,Apartment / Unit / Flat,FALSE,0,FALSE,2.08,2.6,0.52,0.89,0.40
17172176,standard,650,FALSE,"Tully Keung, Angie Zhao",LeonDean,210/140 Dudley Street,WEST MELBOURNE,VIC,3003,-37.809574,144.95078,1,ApartmentUnitFlat,Apartment / Unit / Flat,FALSE,0,FALSE,1.74,2.65,0.55,0.59,0.28
17187888,standard,725,FALSE,Sonita Dawood,Dynamic Residential - Rentals,1703/23 Batman Street,WEST MELBOURNE,VIC,3003,-37.810738,144.95226,2,ApartmentUnitFlat,Apartment / Unit / Flat,FALSE,0,FALSE,1.86,2.61,0.43,0.71,0.46
17189039,standard,550,TRUE,Sisi Peng,Ironfish Real Estate Melbourne,205/140 Dudley Street,WEST MELBOURNE,VIC,3003,-37.809574,144.95078,1,ApartmentUnitFlat,Apartment / Unit / Flat,FALSE,0,FALSE,1.74,2.65,0.55,0.59,0.28
17193586,standard,760,FALSE,Cynthia Li,DCMIL PROPERTY GROUP,401/5 Wominjeka Walk,WEST MELBOURNE,VIC,3003,-37.810272,144.9487,2,ApartmentUnitFlat,Apartment / Unit / Flat,FALSE,0,FALSE,1.94,2.69,0.61,0.76,0.27
17194238,standard,750,TRUE,"Leor Wong, Rental Department",APG ESTATE,314/121 Rosslyn Street,WEST MELBOURNE,VIC,3003,-37.809017,144.95024,2,ApartmentUnitFlat,Apartment / Unit / Flat,FALSE,0,FALSE,1.82,2.75,0.64,0.49,0.17
17198074,standard,550,FALSE,"Rebecca Ozmetin, Onder Ozmetin, Kelli Johnson",Outlook Property Group,118/89 Roden Street,WEST MELBOURNE,VIC,3003,-37.807365,144.94884,1,ApartmentUnitFlat,Apartment / Unit / Flat,FALSE,0,FALSE,2.18,2.97,0.89,0.84,0.39
17198183,standard,550,FALSE,Chanson Chen,Realink,710/65 Dudley Street,WEST MELBOURNE,VIC,3003,-37.810135,144.9504,1,ApartmentUnitFlat,Apartment / Unit / Flat,FALSE,0,FALSE,1.89,2.59,0.51,0.71,0.22
17199378,standard,640,FALSE,Lulu Lee,AUSTRALIAN PROPERTY MANAGEMENT ALLIANCE,603/150 Dudley St,WEST MELBOURNE,VIC,3003,-37.809757,144.95038,1,ApartmentUnitFlat,Apartment / Unit / Flat,FALSE,0,FALSE,1.78,2.63,0.55,0.64,0.26
17202438,standard,620,FALSE,Betty Liu,Waco Real Estate,1513/65 Dudley Street,WEST MELBOURNE,VIC,3003,-37.810135,144.9504,1,ApartmentUnitFlat,Apartment / Unit / Flat,FALSE,0,FALSE,1.89,2.59,0.51,0.71,0.22
16576860,elite,760,FALSE,Christine Baldasso,Jas Stephens Real Estate,25 Lovett Walk,FOOTSCRAY,VIC,3011,-37.801044,144.8852,2,Townhouse,Townhouse,FALSE,0,FALSE,1.54,3.56,1.09,0.74,0.58
17172056,elite,475,FALSE,"Asa Salimi, Bao Phan",BRADY residential,2401/8 Downie Street,MELBOURNE,VIC,3000,-37.820343,144.956,1,ApartmentUnitFlat,Apartment / Unit / Flat,FALSE,0,FALSE,2.97,1.48,0.46,1.76,0.42
17172142,elite,860,FALSE,"Jacqueline D'Angelo, Samantha Holt",hockingstuart Wyndham City,55/55 Victoria Harbour Promenade,DOCKLANDS,VIC,3008,-37.819534,144.94278,2,ApartmentUnitFlat,Apartment / Unit / Flat,FALSE,0,FALSE,3.7,1.77,1.63,1.55,0.33
17172882,elite,600,FALSE,Abie Riady,MICM Real Estate,318/15 Doepel Way,DOCKLANDS,VIC,3008,-37.814835,144.94005,1,ApartmentUnitFlat,Apartment / Unit / Flat,FALSE,0,FALSE,2.94,2.56,1.61,0.27,0.50
17173890,elite,450,FALSE,Dean Gardiner,Nelson Alexander Fitzroy,8/50 Bayview Road,SEDDON,VIC,3011,-37.80886,144.88553,1,ApartmentUnitFlat,Apartment / Unit / Flat,FALSE,0,FALSE,1.65,4.78,1.62,0.72,0.61
17174268,elite,600,FALSE,Chloe Hodgson,HPG ESTATE AGENTS,17 Tiernan Street,FOOTSCRAY,VIC,3011,-37.79458,144.89601,2,House,House,FALSE,0,FALSE,0.46,2.83,0.23,0.88,0.30
17174404,elite,750,FALSE,"Jessica Lee, Adam Buhagiar",Crane Real Estate,4/7 Coward Street,FOOTSCRAY,VIC,3011,-37.796818,144.89919,2,Townhouse,Townhouse,FALSE,0,FALSE,0.28,3.31,0.69,0.87,0.81
17174711,elite,525,TRUE,"Annabelle Munt, Bronte Carfino",MRE,1103/1 Ascot Vale Road,FLEMINGTON,VIC,3031,-37.78678,144.92131,1,ApartmentUnitFlat,Apartment / Unit / Flat,FALSE,0,FALSE,2.66,4.84,0.6,1.10,0.68
14976388,premiumplus,990,FALSE,Danielle Ryan,The Core Advisory Team VIC,20 Newton Street,KENSINGTON,VIC,3031,-37.796566,144.92204,2,Townhouse,Townhouse,FALSE,0,FALSE,2.81,5.81,1.55,0.77,0.48
15602706,premiumplus,500,FALSE,Kim Te,Motion Property,1002/4 Joseph Road,FOOTSCRAY,VIC,3011,-37.800327,144.90956,1,ApartmentUnitFlat,Apartment / Unit / Flat,FALSE,0,FALSE,1.78,4.55,1.52,0.61,0.39
16055655,premiumplus,650,FALSE,"Leanne Stahmer, Daniel Henderson",Haven Agents,1311/450 St Kilda Road,MELBOURNE,VIC,3004,-37.838615,144.97589,1,ApartmentUnitFlat,Apartment / Unit / Flat,FALSE,0,FALSE,5.26,4.39,0.59,1.35,0.72
16609861,premiumplus,620,FALSE,Angus Brayshaw,Richardson & Wrench Projects Victoria,112B/72 Ascot Vale Road,FLEMINGTON,VIC,3031,-37.78403,144.92305,1,ApartmentUnitFlat,Apartment / Unit / Flat,FALSE,0,FALSE,3.07,4.92,0.78,1.50,0.78
17153078,premiumplus,635,FALSE,Frazer Downes,Hodges South Melbourne,402/442 St Kilda Road,MELBOURNE,VIC,3004,-37.838238,144.9754,2,ApartmentUnitFlat,Apartment / Unit / Flat,FALSE,0,FALSE,5.25,4.38,0.59,1.34,1.00
17158205,premiumplus,720,FALSE,"Fiona Tennant, Alexander Gorejena",aussieproperty.com,5601/450 Elizabeth Street,MELBOURNE,VIC,3004,-37.80828,144.9607,1,ApartmentUnitFlat,Apartment / Unit / Flat,FALSE,0,FALSE,1.26,3.39,0.66,1.14,0.27
17167792,premiumplus,700,FALSE,Ismaeel Hussain,Samma Real Estate,1708/38 Rose Lane,MELBOURNE,VIC,3000,-37.8147,144.95422,1,ApartmentUnitFlat,Apartment / Unit / Flat,FALSE,0,FALSE,2.29,2.13,0.39,1.18,0.67
17168007,premiumplus,550,FALSE,Mona Wang,Dingle Partners,B102/70 Speakmen Street,KENSINGTON,VIC,3031,-37.79397,144.91602,2,ApartmentUnitFlat,Apartment / Unit / Flat,FALSE,0,FALSE,1.55,4.55,1.45,1.74,1.26
17172507,premiumplus,460,FALSE,Justine Muscat,Dingle Partners,705/565 Flinders Street,MELBOURNE,VIC,3000,-37.821056,144.9559,1,ApartmentUnitFlat,Apartment / Unit / Flat,FALSE,0,FALSE,3.25,1.27,0.7,1.56,0.21
17173076,elite,550,FALSE,"Jordan Nunns, Leasing Team",Melcorp Real Estate,2101/315 La Trobe Street,MELBOURNE,VIC,3000,-37.810966,144.95993,1,ApartmentUnitFlat,Apartment / Unit / Flat,FALSE,0,FALSE,1.81,2.94,0.39,1.54,0.48
17174468,elite,863,FALSE,"Alisha Mehta, Rodolfo Ottobrini",Local Residential,A105/348 Macaulay Road,KENSINGTON,VIC,3031,-37.79477,144.93425,2,ApartmentUnitFlat,Apartment / Unit / Flat,FALSE,0,FALSE,2.52,6.08,1.16,0.67,0.48
17181558,elite,720,FALSE,"Eva Christodoulou, Dylan Emmett",Lucas Real Estate,S3008/231 Harbour Esplanade,DOCKLANDS,VIC,3008,-37.813297,144.94336,1,ApartmentUnitFlat,Apartment / Unit / Flat,FALSE,0,FALSE,2.6,2.23,1.27,0.43,0.79
17188689,elite,490,FALSE,"Sam Landale, Todd George & Carla Girolamo",Belle Property South Yarra,105/547 Flinders Lane,MELBOURNE,VIC,3000,-37.82,144.95581,1,ApartmentUnitFlat,Apartment / Unit / Flat,FALSE,0,FALSE,2.93,1.44,0.42,1.72,0.38
17190323,elite,425,FALSE,Sarah McCracken,Jas Stephens Real Estate,23/31 Moreland Street,FOOTSCRAY,VIC,3011,-37.80209,144.90752,1,ApartmentUnitFlat,Apartment / Unit / Flat,FALSE,0,FALSE,1.31,4.28,1.25,0.26,0.35
17192450,elite,588,FALSE,RentBetter Team,RentBetter,302/35 Victoria St,FOOTSCRAY,VIC,3011,-37.80146,144.89291,1,ApartmentUnitFlat,Apartment / Unit / Flat,FALSE,0,FALSE,0.77,3.62,0.28,0.44,0.79
17198422,elite,580,FALSE,Siobhan Flinn,Woodards Ascot Vale,13 Wight Street,KENSINGTON,VIC,3031,-37.793728,144.92847,1,House,House,FALSE,0,FALSE,3.11,5.72,0.91,0.17,0.41
17198444,elite,650,FALSE,Raelene Hallmark,McGrath Yarraville,14/20 French Street,FOOTSCRAY,VIC,3011,-37.80129,144.8967,1,ApartmentUnitFlat,Apartment / Unit / Flat,FALSE,0,FALSE,0.47,3.91,0.42,0.73,1.08
11597354,elite,620,FALSE,Inner West Rentals,BIGGIN SCOTT INNER WEST SUNSHINE,9/30 Sydenham Street,SEDDON,VIC,3011,-37.80281,144.88577,2,House,House,FALSE,0,FALSE,1.43,4.07,1.4,1.39,0.94
15369604,elite,780,FALSE,Gordana Velevski,Hallmarc Asset Management,1304/14 Queens Road,MELBOURNE,VIC,3004,-37.83906,144.97441,1,ApartmentUnitFlat,Apartment / Unit / Flat,FALSE,0,FALSE,5.33,4.26,0.47,1.68,0.66
17169704,elite,740,FALSE,Sigrid Lillo,Jas Stephens Real Estate,34 Tennyson Street,SEDDON,VIC,3011,-37.807373,144.88828,1,House,House,FALSE,0,FALSE,1.31,4.54,1.28,0.99,0.37
17169904,elite,485,FALSE,Alex Karlis,Trimson Partners,12 McCubbin Street,FOOTSCRAY,VIC,3011,-37.791603,144.88779,1,House,House,FALSE,0,FALSE,1.35,2.33,0.91,0.71,0.70
17170274,elite,450,FALSE,"Leasing Team, Avant Leasing",First National Avant - Box Hill,202/408 Lonsdale Street,MELBOURNE,VIC,3000,-37.8126,144.9604,1,Studio,Studio,FALSE,0,FALSE,1.87,2.79,0.06,1.68,0.54
17170384,elite,730,FALSE,"Hendy Nora, Wisno Dharma",Core Realty Pty Ltd,120/555 St Kilda Road,MELBOURNE,VIC,3004,-37.847054,144.98068,2,ApartmentUnitFlat,Apartment / Unit / Flat,FALSE,0,FALSE,6.45,5.61,0.41,1.08,0.90
17170848,elite,620,FALSE,Chantal Borg,Village Real Estate ,159 Buckley Street,SEDDON,VIC,3011,-37.803123,144.89044,1,House,House,FALSE,0,FALSE,0.75,3.98,0.63,0.79,0.78
17170946,elite,380,FALSE,Mina Narayanan,Trimson Partners,12/3 Gordon Street,FOOTSCRAY,VIC,3011,-37.787773,144.89038,1,ApartmentUnitFlat,Apartment / Unit / Flat,FALSE,0,FALSE,1.48,1.71,0.72,0.83,0.37
17171109,elite,625,FALSE,Cassie Favero,Jas Stephens Real Estate,55 Benbow Street,YARRAVILLE,VIC,3013,-37.82257,144.8758,1,House,House,FALSE,0,FALSE,3.93,4.01,0.52,0.38,0.83
17171491,elite,595,FALSE,DS Rentals Team,Agents'Agency Network Partners,2610/8 Hallenstein Street,FOOTSCRAY,VIC,3011,-37.80004,144.9082,1,ApartmentUnitFlat,Apartment / Unit / Flat,FALSE,0,FALSE,1.51,4.27,1.24,0.33,0.15
16586922,standard,750,FALSE,Support Team,Ray White CHK,45 Dudley Street,WEST MELBOURNE,VIC,3003,-37.80998,144.95097,2,ApartmentUnitFlat,Apartment / Unit / Flat,FALSE,0,FALSE,1.74,2.64,0.56,0.60,0.28
16598765,standard,550,FALSE,Support Team,Ray White CHK,45 Dudley Street,WEST MELBOURNE,VIC,3003,-37.80998,144.95097,1,ApartmentUnitFlat,Apartment / Unit / Flat,FALSE,0,FALSE,1.74,2.64,0.56,0.60,0.28
16637090,standard,700,FALSE,Support Team,Ray White CHK,45 Dudley St,WEST MELBOURNE,VIC,3003,-37.80998,144.95097,2,ApartmentUnitFlat,Apartment / Unit / Flat,FALSE,0,FALSE,1.74,2.64,0.56,0.60,0.28
16651211,standard,550,FALSE,Support Team,Ray White CHK,45 Dudley Street,WEST MELBOURNE,VIC,3003,-37.80998,144.95097,1,ApartmentUnitFlat,Apartment / Unit / Flat,FALSE,0,FALSE,1.74,2.64,0.56,0.60,0.28
16726700,standard,550,FALSE,Support Team,Ray White CHK,45 Dudley Street,WEST MELBOURNE,VIC,3003,-37.80998,144.95097,1,ApartmentUnitFlat,Apartment / Unit / Flat,FALSE,0,FALSE,1.74,2.64,0.56,0.60,0.28
16994867,standard,620,FALSE,"John Huang, Sam Liu",Selling Melbourne Real Estate ,911/41 Batman Street,WEST MELBOURNE,VIC,3003,-37.810875,144.95183,1,ApartmentUnitFlat,Apartment / Unit / Flat,FALSE,0,FALSE,1.89,2.57,0.46,0.75,0.42
17087509,standard,700,FALSE,"Winnie Yang, Veronica Sun",JALIN REALTY AUSTRALIA PTY LTD,409/65 Dudley Street,WEST MELBOURNE,VIC,3003,-37.810135,144.9504,2,ApartmentUnitFlat,Apartment / Unit / Flat,FALSE,0,FALSE,1.89,2.59,0.51,0.71,0.22
17090475,standard,1200,FALSE,"Forge Leasing, Wayne Deng",Forge Group Australia Pty Ltd,2/462 La Trobe Street,WEST MELBOURNE,VIC,3003,-37.81236,144.95325,1,ApartmentUnitFlat,Apartment / Unit / Flat,FALSE,0,FALSE,1.99,2.6,0.19,0.84,0.60
17112336,standard,620,FALSE,Camila Jing,RE/MAX ACPA,314/105 Batman Street,WEST MELBOURNE,VIC,3003,-37.811386,144.94969,1,ApartmentUnitFlat,Apartment / Unit / Flat,FALSE,0,FALSE,2.08,2.6,0.52,0.89,0.40
17126232,standard,720,FALSE,Zara-Jane Hayes,ASK Property Partners Pty Ltd,303/25 Wominjeka Walk,WEST MELBOURNE,VIC,3003,-37.80996,144.94864,1,ApartmentUnitFlat,Apartment / Unit / Flat,FALSE,0,FALSE,2.03,2.66,0.76,0.69,0.20
17138071,standard,650,FALSE,Sonita Dawood,Dynamic Residential - Rentals,506/25 Wominjeka Walk,WEST MELBOURNE,VIC,3003,-37.80996,144.94864,1,ApartmentUnitFlat,Apartment / Unit / Flat,FALSE,0,FALSE,2.03,2.66,0.76,0.69,0.20
17156348,standard,920,FALSE,"Andrea Lisanti, Teresa Ghobril",Galldon Real Estate,25/43-51 Jeffcott Street,WEST MELBOURNE,VIC,3003,-37.811954,144.95203,2,Townhouse,Townhouse,FALSE,0,FALSE,2.07,2.42,0.34,0.92,0.52
17156944,standard,740,FALSE,Camila Jing,RE/MAX ACPA,506/105 Batman Street,WEST MELBOURNE,VIC,3003,-37.811386,144.94969,2,ApartmentUnitFlat,Apartment / Unit / Flat,FALSE,0,FALSE,2.08,2.6,0.52,0.89,0.40
17157293,standard,540,FALSE,Lulu Lee,AUSTRALIAN PROPERTY MANAGEMENT ALLIANCE,202/140 Dudley St,WEST MELBOURNE,VIC,3003,-37.809574,144.95078,1,ApartmentUnitFlat,Apartment / Unit / Flat,FALSE,0,FALSE,1.74,2.65,0.55,0.59,0.28
17161374,standard,780,FALSE,Jason Song,First National Burwood,1211/23 Batman Street,WEST MELBOURNE,VIC,3003,-37.810738,144.95226,2,ApartmentUnitFlat,Apartment / Unit / Flat,FALSE,0,FALSE,1.86,2.61,0.43,0.71,0.46
17163225,standard,600,FALSE,Gavin Guan,GOLD 4LIFE,210/94 Stanley Street,WEST MELBOURNE,VIC,3003,-37.808006,144.949,1,ApartmentUnitFlat,Apartment / Unit / Flat,FALSE,0,FALSE,1.95,2.96,0.78,0.62,0.38
15242434,premiumplus,620,TRUE,Angus Brayshaw,Richardson & Wrench Projects Victoria,1505/8 Joseph Road,FOOTSCRAY,VIC,3011,-37.800327,144.90956,2,ApartmentUnitFlat,Apartment / Unit / Flat,FALSE,0,FALSE,1.78,4.55,1.52,0.61,0.39
16602596,premiumplus,630,FALSE,Angus Brayshaw,Richardson & Wrench Projects Victoria,109B/72 Ascot Vale Road,FLEMINGTON,VIC,3031,-37.784096,144.92307,2,ApartmentUnitFlat,Apartment / Unit / Flat,FALSE,0,FALSE,3.07,4.91,0.78,1.50,0.78
17188716,premiumplus,635,FALSE,LIV Aston,LIV Aston Mirvac,1006/7 Siddeley Street,DOCKLANDS,VIC,3008,-37.821514,144.95454,1,Studio,Studio,FALSE,0,FALSE,3.34,1.14,0.79,1.73,0.38
17188736,premiumplus,570,FALSE,LIV Aston,LIV Aston Mirvac,1016/7 Siddeley Street,DOCKLANDS,VIC,3008,-37.821514,144.95454,1,Studio,Studio,FALSE,0,FALSE,3.34,1.14,0.79,1.73,0.38
17190827,premiumplus,600,FALSE,Kim Te,Motion Property,911/2 Joseph Road,FOOTSCRAY,VIC,3011,-37.800327,144.90956,2,ApartmentUnitFlat,Apartment / Unit / Flat,FALSE,0,FALSE,1.78,4.55,1.52,0.61,0.39
17191501,premiumplus,500,FALSE,Wimpie Santoso,Melbourne Residential Real Estate,125/131 Lonsdale Street,MELBOURNE,VIC,3000,-37.81078,144.96855,1,ApartmentUnitFlat,Apartment / Unit / Flat,FALSE,0,FALSE,2.06,3.65,0.56,1.54,0.61
17191730,premiumplus,490,FALSE,Frazer Downes,Hodges South Melbourne,313/9 Commercial Road,MELBOURNE,VIC,3004,-37.845287,144.97978,1,ApartmentUnitFlat,Apartment / Unit / Flat,FALSE,0,FALSE,6.1,5.27,0.72,1.03,0.65
17192906,premiumplus,450,FALSE,"Victoria Ryan, William Saritschniy",HEDLEY REAL ESTATE,603/255 Racecourse Rd,KENSINGTON,VIC,3031,-37.788574,144.93275,1,ApartmentUnitFlat,Apartment / Unit / Flat,FALSE,0,FALSE,2.79,5.6,0.64,0.53,0.62
10990085,elite,500,FALSE,Danny Campos,LITTLE Real Estate Victoria,1111/200 Spencer Street,MELBOURNE,VIC,3000,-37.816227,144.95325,1,ApartmentUnitFlat,Apartment / Unit / Flat,FALSE,0,FALSE,2.61,1.88,0.38,1.41,0.42
17167598,elite,475,FALSE,"Thembie  Sikwila, Bronte Carfino",MRE,1304/568 St Kilda Road,MELBOURNE,VIC,3004,-37.847107,144.97884,1,ApartmentUnitFlat,Apartment / Unit / Flat,FALSE,0,FALSE,6.25,5.41,0.67,1.33,0.79
17167684,elite,500,FALSE,Ernie Caputa,Melbourne Residential Property Management,308/250 Barkly Street,FOOTSCRAY,VIC,3011,-37.7992,144.89607,1,ApartmentUnitFlat,Apartment / Unit / Flat,FALSE,0,FALSE,0.76,3.46,0.1,0.42,0.78
17167743,elite,720,FALSE,Melissa Moran,Maddison Estate Agents,19/600 Epsom Road,FLEMINGTON,VIC,3031,-37.78866,144.92143,2,ApartmentUnitFlat,Apartment / Unit / Flat,FALSE,0,FALSE,2.36,4.96,0.67,0.97,0.49
17167767,elite,525,FALSE,Emma Smith,Ray White Southbank & Port Phillip,5201/33 Rose Lane,MELBOURNE,VIC,3000,-37.815,144.95387,1,ApartmentUnitFlat,Apartment / Unit / Flat,FALSE,0,FALSE,2.3,2.09,0.37,1.19,0.63
17168629,elite,550,FALSE,"Diana Camacho, Leasing Team",Melcorp Real Estate,1412/25 Therry Street,MELBOURNE,VIC,3000,-37.806957,144.9611,1,ApartmentUnitFlat,Apartment / Unit / Flat,FALSE,0,FALSE,0.95,3.61,0.49,1.09,0.48
17168995,elite,680,FALSE,Leasing Team,LJ Hooker Rowville,3716/628 Flinders Street,DOCKLANDS,VIC,3008,-37.820972,144.95325,1,ApartmentUnitFlat,Apartment / Unit / Flat,FALSE,0,FALSE,3.38,1.25,0.83,1.77,0.43
17169187,elite,470,FALSE,"April Langley, Abby Meehan",Buxton Inner West,8/75 Droop Street,FOOTSCRAY,VIC,3011,-37.795254,144.89569,1,ApartmentUnitFlat,Apartment / Unit / Flat,FALSE,0,FALSE,0.46,2.84,0.34,0.77,0.40
17169328,elite,750,FALSE,"Liza Ajredini, James Vella",Jellis Craig Kensington,77 Lambeth Street,KENSINGTON,VIC,3031,-37.791485,144.93425,1,House,House,FALSE,0,FALSE,2.8,6.07,1.11,1.00,0.96
17144311,elitepp,625,FALSE,Gary Lewis,Belle Property South Melbourne,9/32 Queens Road,MELBOURNE,VIC,3004,-37.84349,144.97598,1,ApartmentUnitFlat,Apartment / Unit / Flat,FALSE,0,FALSE,5.82,4.75,0.95,1.48,0.52
17146931,elitepp,870,FALSE,"Emily Gray, Aleiasha Clark",Real Estate Services by Mirvac,1905/50 Lorimer Street,DOCKLANDS,VIC,3008,-37.824562,144.94754,2,ApartmentUnitFlat,Apartment / Unit / Flat,FALSE,0,FALSE,4.18,0.53,1.65,0.96,0.58
17174950,elitepp,995,TRUE,Cooper Cavallo,Belle Property South Melbourne,4a Smith Street,KENSINGTON,VIC,3031,-37.791462,144.93103,3,Townhouse,Townhouse,FALSE,0,FALSE,3.1,5.73,0.77,0.76,0.57
17175609,elitepp,990,FALSE,Jamie Ong,Areal Property - Hawthorn,606/155 Franklin Street,MELBOURNE,VIC,3000,-37.808826,144.95955,2,ApartmentUnitFlat,Apartment / Unit / Flat,FALSE,0,FALSE,1.43,3.28,0.72,1.30,0.16
17195009,elitepp,807,FALSE,"Alisha Mehta, Rodolfo Ottobrini",Local Residential,A202/348 Macaulay Road,KENSINGTON,VIC,3031,-37.79477,144.93425,1,ApartmentUnitFlat,Apartment / Unit / Flat,FALSE,0,FALSE,2.52,6.08,1.16,0.67,0.48
17195302,elitepp,539,FALSE,"Alisha Mehta, Rodolfo Ottobrini",Local Residential,B103/348 Macaulay Road,KENSINGTON,VIC,3031,-37.79477,144.93425,1,ApartmentUnitFlat,Apartment / Unit / Flat,FALSE,0,FALSE,2.52,6.08,1.16,0.67,0.48
8519822,elite,355,TRUE,Huey Lim,Student Housing Australia,214/133 Droop Street,FOOTSCRAY,VIC,3011,-37.792564,144.89342,1,Studio,Studio,FALSE,0,FALSE,0.74,2.48,0.31,1.12,0.47
16643599,elite,600,TRUE,"Tali Leckie, Millie Bowles",MRE,507/610 St Kilda Road,MELBOURNE,VIC,3004,-37.851948,144.98071,1,ApartmentUnitFlat,Apartment / Unit / Flat,FALSE,0,FALSE,6.81,5.98,0.7,1.50,1.10
17199168,elite,500,FALSE,RentBetter Team,RentBetter,603/220 Spencer St,MELBOURNE,VIC,3000,-37.815693,144.95291,1,ApartmentUnitFlat,Apartment / Unit / Flat,FALSE,33,FALSE,2.62,1.9,0.39,1.43,0.43
17199290,elite,525,FALSE,Natasha Roman,Jas Stephens Real Estate,1/9 Hewitt Avenue,FOOTSCRAY,VIC,3011,-37.79966,144.8806,1,ApartmentUnitFlat,Apartment / Unit / Flat,FALSE,0,FALSE,2.02,3.84,1.31,0.82,0.73
17199551,elite,450,FALSE,Amber Ward,Nelson Alexander Flemington,10G/71 Henry Street,KENSINGTON,VIC,3031,-37.79608,144.92609,1,ApartmentUnitFlat,Apartment / Unit / Flat,FALSE,0,FALSE,3.32,5.82,1.24,0.31,0.55
17199567,elite,430,FALSE,Naomi Tatt,Sweeney Estate Agents Williamstown,510/90 Buckley Street,FOOTSCRAY,VIC,3011,-37.80342,144.89444,1,ApartmentUnitFlat,Apartment / Unit / Flat,FALSE,0,FALSE,0.38,4.01,0.5,0.83,0.76
8581639,elite,355,TRUE,Huey Lim,Student Housing Australia,303/133 Droop Street,FOOTSCRAY,VIC,3011,-37.792564,144.89342,1,Studio,Studio,FALSE,0,FALSE,0.74,2.48,0.31,1.12,0.47
8639725,elite,350,TRUE,Huey Lim,Student Housing Australia,211/133 Droop Street,FOOTSCRAY,VIC,3011,-37.792564,144.89342,1,Studio,Studio,FALSE,0,FALSE,0.74,2.48,0.31,1.12,0.47
14516831,elite,600,FALSE,Tennille D'Avola,Jas Stephens Real Estate,89 Ballarat Street,YARRAVILLE,VIC,3013,-37.819572,144.89053,1,House,House,FALSE,0,FALSE,2.51,5.18,2.37,0.48,0.70
16638692,elite,525,FALSE,Danny Campos,LITTLE Real Estate Victoria,601/250 Elizabeth Street,MELBOURNE,VIC,3000,-37.81255,144.96275,1,ApartmentUnitFlat,Apartment / Unit / Flat,FALSE,0,FALSE,1.92,2.86,0.23,1.79,0.59
17195075,elite,624,FALSE,"Alisha Mehta, Rodolfo Ottobrini",Local Residential,A212/348 Macaulay Road,KENSINGTON,VIC,3031,-37.79477,144.93425,1,ApartmentUnitFlat,Apartment / Unit / Flat,FALSE,0,FALSE,2.52,6.08,1.16,0.67,0.48
17195452,elite,500,FALSE,"Mason Wong, Maya Angela",Inner Real Estate NEXTRE,1504/568 St Kilda Road,MELBOURNE,VIC,3004,-37.847107,144.97884,1,ApartmentUnitFlat,Apartment / Unit / Flat,FALSE,0,FALSE,6.25,5.41,0.67,1.33,0.79
17195702,elite,1100,FALSE,Leasing Team,First National Avant - Box Hill,199/632 St Kilda Road,MELBOURNE,VIC,3004,-37.854332,144.98128,2,ApartmentUnitFlat,Apartment / Unit / Flat,FALSE,0,FALSE,7.19,5.67,0.36,1.32,1.27
17196024,elite,470,FALSE,Caterina Italiano,Woodards Ascot Vale,29/31 Moreland Street,FOOTSCRAY,VIC,3011,-37.80209,144.90752,1,ApartmentUnitFlat,Apartment / Unit / Flat,FALSE,0,FALSE,1.31,4.28,1.25,0.26,0.35
17196322,elite,575,FALSE,Damien Welch,Jas Stephens Real Estate,1A Beverley Street,YARRAVILLE,VIC,3013,-37.82168,144.89145,1,Townhouse,Townhouse,FALSE,0,FALSE,2.61,4.57,2.18,0.23,0.85
15336283,premiumplus,500,FALSE,Angus Brayshaw,Richardson & Wrench Projects Victoria,604/6 Joseph Road,FOOTSCRAY,VIC,3011,-37.800327,144.90956,1,ApartmentUnitFlat,Apartment / Unit / Flat,FALSE,0,FALSE,1.78,4.55,1.52,0.61,0.39
15348379,premiumplus,700,FALSE,Natalie Subotsch,Gotham Property,16HI/131 Lonsdale Street,MELBOURNE,VIC,3000,-37.81078,144.96855,2,ApartmentUnitFlat,Apartment / Unit / Flat,FALSE,0,FALSE,2.06,3.65,0.56,1.54,0.61
15422303,premiumplus,500,FALSE,Kim Te,Motion Property,1405/4 Joseph Road,FOOTSCRAY,VIC,3011,-37.800327,144.90956,1,ApartmentUnitFlat,Apartment / Unit / Flat,FALSE,0,FALSE,1.78,4.55,1.52,0.61,0.39
15575316,premiumplus,720,FALSE,Manuel Flores,Gotham Property,522/199 William Street,MELBOURNE,VIC,3000,-37.81457,144.95735,2,ApartmentUnitFlat,Apartment / Unit / Flat,FALSE,0,FALSE,2.11,2.3,0.49,1.37,0.63
16045484,premiumplus,620,FALSE,"Kim Te, Mary Mezei",Motion Property,703/8 Joseph Road,FOOTSCRAY,VIC,3011,-37.800327,144.90956,2,ApartmentUnitFlat,Apartment / Unit / Flat,FALSE,0,FALSE,1.78,4.55,1.52,0.61,0.39
16140206,premiumplus,520,FALSE,"Kim Te, Mary Mezei",Motion Property,505/4 Joseph Road,FOOTSCRAY,VIC,3011,-37.800327,144.90956,1,ApartmentUnitFlat,Apartment / Unit / Flat,FALSE,0,FALSE,1.78,4.55,1.52,0.61,0.39
17170420,premiumplus,775,FALSE,Maria Gutterson,Dingle Partners,3408/100 Harbour Esplanade,DOCKLANDS,VIC,3008,-37.818375,144.94688,2,ApartmentUnitFlat,Apartment / Unit / Flat,FALSE,0,FALSE,3.37,1.4,1.26,1.23,0.56
17178593,premiumplus,750,FALSE,Maria Gutterson,Dingle Partners,1601/8 McCrae Street,DOCKLANDS,VIC,3008,-37.82167,144.95099,2,ApartmentUnitFlat,Apartment / Unit / Flat,FALSE,0,FALSE,3.93,0.9,1.05,1.31,0.65
16653144,elite,525,TRUE,"Millie Bowles, Annabelle Munt",MRE,908/280 Spencer Street,MELBOURNE,VIC,3000,-37.813946,144.95203,1,ApartmentUnitFlat,Apartment / Unit / Flat,FALSE,0,FALSE,2.3,2.11,0.11,1.40,0.64
17193923,elite,790,FALSE,"Alexandria Boyce, April Langley",Buxton Inner West,1/92 Cowper Street,FOOTSCRAY,VIC,3011,-37.805443,144.90224,2,Townhouse,Townhouse,FALSE,0,FALSE,0.69,4.51,0.81,0.58,0.42
17194010,elite,660,FALSE,"Jordan Nunns, Leasing Team",Melcorp Real Estate,1111/228 La Trobe Street,MELBOURNE,VIC,3000,-37.809616,144.9623,1,ApartmentUnitFlat,Apartment / Unit / Flat,FALSE,0,FALSE,1.67,3.3,0.57,1.54,0.54
17194107,elite,950,FALSE,"Liza Ajredini, James Vella",Jellis Craig Kensington,150 Stockmans Way,KENSINGTON,VIC,3031,-37.79257,144.91832,2,House,House,FALSE,0,FALSE,2.19,5.19,1.11,1.48,0.60
17194208,elite,700,FALSE,"Eva Christodoulou, Dylan Emmett",Lucas Real Estate,403/673 La Trobe Street,DOCKLANDS,VIC,3008,-37.814922,144.94794,1,ApartmentUnitFlat,Apartment / Unit / Flat,FALSE,0,FALSE,2.74,2.18,1.41,0.99,1.07
17194235,elite,850,FALSE,Michelle Welsh,Hallmarc Asset Management,506/14 Queens Road,MELBOURNE,VIC,3004,-37.83892,144.97499,2,ApartmentUnitFlat,Apartment / Unit / Flat,FALSE,0,FALSE,5.36,4.3,0.5,1.45,0.55
17194468,elite,670,FALSE,Ashley Oliver,Lucas Real Estate,3008/8 Pearl River Road,DOCKLANDS,VIC,3008,-37.81565,144.93825,2,ApartmentUnitFlat,Apartment / Unit / Flat,FALSE,0,FALSE,3.15,4.08,1.82,0.48,0.17
17194497,elite,640,FALSE,Gradi Masudi,Nelson Alexander Flemington,19 Shepherd Street,FOOTSCRAY,VIC,3011,-37.7954,144.89308,1,House,House,FALSE,0,FALSE,0.93,2.88,0.69,0.69,0.76
17195375,elite,880,FALSE,Ankita Chhabra,Nelson Alexander Essendon,13 Tennyson Street,KENSINGTON,VIC,3031,-37.798054,144.93025,1,House,House,FALSE,0,FALSE,3.3,6.2,1.47,0.47,0.30
16566136,elite,530,FALSE,,Metro Real Estate Pty Ltd,1808/8 Hallenstein Street,FOOTSCRAY,VIC,3011,-37.80004,144.9082,1,ApartmentUnitFlat,Apartment / Unit / Flat,FALSE,0,FALSE,1.51,4.27,1.24,0.33,0.15
17164705,elite,650,FALSE,"Mason Wong, Hayley Tran",Inner Real Estate NEXTRE,1809B/11 Rose Lane,MELBOURNE,VIC,3000,-37.815487,144.95422,1,ApartmentUnitFlat,Apartment / Unit / Flat,FALSE,0,FALSE,2.72,1.99,0.49,1.52,0.52
17164802,elite,580,TRUE,"Mason Wong, Hayley Tran",Inner Real Estate NEXTRE,305/27 Victoria Street,FOOTSCRAY,VIC,3011,-37.800983,144.893,2,ApartmentUnitFlat,Apartment / Unit / Flat,FALSE,0,FALSE,0.82,3.57,0.23,0.38,0.74
17165741,elite,500,FALSE,"Leo Maugeri, Alexandra Everitt",Nelson Alexander Reservoir,1605/80 Abeckett Street,MELBOURNE,VIC,3000,-37.809,144.96107,1,ApartmentUnitFlat,Apartment / Unit / Flat,FALSE,0,FALSE,1.39,3.28,0.55,1.26,0.39
17165753,elite,850,FALSE,"Jessica Chong, Xhenet  Smoqi",Yousales,8/SAINT MANGOS LANE,DOCKLANDS,VIC,3008,-37.81846,144.94324,1,ApartmentUnitFlat,Apartment / Unit / Flat,FALSE,0,FALSE,3.62,1.69,1.55,1.47,0.44
17166975,elite,730,FALSE,Baron Zhao,Ray White Balwyn,1510S/883 Collins Street,DOCKLANDS,VIC,3008,-37.82109,144.94264,2,ApartmentUnitFlat,Apartment / Unit / Flat,FALSE,0,FALSE,3.91,1.99,1.85,1.77,0.23
14837189,elite,595,FALSE,RentBetter Team,RentBetter,1/2 Hawthorn Street,YARRAVILLE,VIC,3013,-37.81935,144.88861,1,House,House,FALSE,0,FALSE,2.67,4.42,2.03,0.70,0.37
17072652,elite,795,FALSE,Gordana Velevski,Hallmarc Asset Management,1303/14 Queens Road,MELBOURNE,VIC,3004,-37.83906,144.97441,1,ApartmentUnitFlat,Apartment / Unit / Flat,FALSE,0,FALSE,5.33,4.26,0.47,1.68,0.66
17161333,elite,880,TRUE,Aryanaz Moradi,MICM Real Estate,5106/560 Lonsdale Street,MELBOURNE,VIC,3000,-37.81397,144.95566,2,ApartmentUnitFlat,Apartment / Unit / Flat,FALSE,0,FALSE,2.08,2.3,0.4,1.20,0.59
17161416,elite,400,TRUE,Robin Salh,Rendina Real Estate,REAR/512 Macaulay Road,KENSINGTON,VIC,3031,-37.79418,144.92914,1,ApartmentUnitFlat,Apartment / Unit / Flat,FALSE,70,FALSE,2.98,5.63,1.05,0.32,0.27
17162434,elite,750,FALSE,William Chin,MICM Real Estate,53/416 St Kilda Road,MELBOURNE,VIC,3004,-37.83551,144.97461,2,ApartmentUnitFlat,Apartment / Unit / Flat,FALSE,0,FALSE,4.88,4.47,0.54,1.50,1.16
17162587,elite,700,TRUE,"Hendy Nora, Wisno Dharma",Core Realty Pty Ltd,710/555 St Kilda Road,MELBOURNE,VIC,3004,-37.847054,144.98068,1,ApartmentUnitFlat,Apartment / Unit / Flat,FALSE,0,FALSE,6.45,5.61,0.41,1.08,0.90
17162735,elite,800,FALSE,"Angeline Zhang, Yoyo Xu",CHN Real Estate Group,1005/605 St Kilda Road,MELBOURNE,VIC,3004,-37.85092,144.98143,2,ApartmentUnitFlat,Apartment / Unit / Flat,FALSE,0,FALSE,7.26,5.68,0.38,1.30,1.49
17163353,elite,540,FALSE,Property Now,Property Now,807/333 Exhibition Street,MELBOURNE,VIC,3000,-37.80782,144.96835,1,ApartmentUnitFlat,Apartment / Unit / Flat,FALSE,0,FALSE,1.59,4.01,0.34,0.73,0.03
17163544,elite,750,FALSE,"Finn Walker, Sam Landale",Belle Property South Yarra,408/501 Little Collins Street,MELBOURNE,VIC,3000,-37.816895,144.95807,1,ApartmentUnitFlat,Apartment / Unit / Flat,FALSE,0,FALSE,2.49,2.02,0.2,1.60,0.56
17163713,elite,620,FALSE,"Angelina Quiroga, Isabel Villa",Lucas Real Estate,404/8 Waterview Walk,DOCKLANDS,VIC,3008,-37.8197,144.94814,1,ApartmentUnitFlat,Apartment / Unit / Flat,FALSE,0,FALSE,3.63,1.22,1.08,1.57,0.61
17164050,elite,600,FALSE,Danny Campos,LITTLE Real Estate Victoria,503/15 Doepel Way,DOCKLANDS,VIC,3008,-37.814835,144.94005,1,ApartmentUnitFlat,Apartment / Unit / Flat,FALSE,0,FALSE,2.94,2.56,1.61,0.27,0.50
15459474,premiumplus,510,FALSE,Kim Te,Motion Property,813/4 Joseph Road,FOOTSCRAY,VIC,3011,-37.800327,144.90956,1,ApartmentUnitFlat,Apartment / Unit / Flat,FALSE,0,FALSE,1.78,4.55,1.52,0.61,0.39
15533747,premiumplus,785,FALSE,Danielle Boyd,Life Property Management,1201/8 Bowen Crescent,MELBOURNE,VIC,3004,-37.83536,144.97252,2,ApartmentUnitFlat,Apartment / Unit / Flat,FALSE,0,FALSE,4.87,4.46,0.3,1.43,1.13
15671365,standard,700,FALSE,,Ray White CHK,133 Rosslyn Street,WEST MELBOURNE,VIC,3003,-37.809013,144.95024,1,ApartmentUnitFlat,Apartment / Unit / Flat,FALSE,0,FALSE,1.82,2.75,0.64,0.49,0.17
17198658,premiumplus,580,FALSE,"Tom Koller, Lisa Tremellen",Biggin & Scott Stonnington,30/32 Queens Road,MELBOURNE,VIC,3004,-37.84349,144.97598,1,ApartmentUnitFlat,Apartment / Unit / Flat,FALSE,0,FALSE,5.82,4.75,0.95,1.48,0.52
17199286,premiumplus,650,FALSE,Nina Mehegan,Home AU Real Estate,1105/50 Lorimer Street,DOCKLANDS,VIC,3008,-37.824562,144.94754,2,ApartmentUnitFlat,Apartment / Unit / Flat,FALSE,0,FALSE,4.18,0.53,1.65,0.96,0.58
17201268,premiumplus,520,FALSE,Kim Te,Motion Property,1307/1 Joseph Road,FOOTSCRAY,VIC,3011,-37.798725,144.91014,1,ApartmentUnitFlat,Apartment / Unit / Flat,FALSE,0,FALSE,1.82,4.58,1.55,0.64,0.28
17202341,premiumplus,620,FALSE,Justine Muscat,Dingle Partners,103/300 Swanston Street,MELBOURNE,VIC,3000,-37.810608,144.96458,1,ApartmentUnitFlat,Apartment / Unit / Flat,FALSE,0,FALSE,1.84,3.7,0.59,1.32,0.01
17203631,premiumplus,525,FALSE,"Mikaele Horsnell, Jim Georgiou",Harcourts Melbourne City,808/422 Collins Street,MELBOURNE,VIC,3000,-37.817097,144.96014,1,ApartmentUnitFlat,Apartment / Unit / Flat,FALSE,0,FALSE,2.5,2.34,0.65,2.12,0.71
15306597,elite,440,FALSE,Jane Brettell,Raine & Horne Williamstown,1/148 Hopkins Street,FOOTSCRAY,VIC,3011,-37.799603,144.89995,1,ApartmentUnitFlat,Apartment / Unit / Flat,FALSE,0,FALSE,0.78,3.48,0.45,0.71,0.66
17199630,elite,450,FALSE,Amanda Liu,Twig Real Estate,3314/350 William Street,MELBOURNE,VIC,3000,-37.811264,144.95662,1,ApartmentUnitFlat,Apartment / Unit / Flat,FALSE,0,FALSE,1.82,3.03,0.57,1.24,0.35
17199677,elite,850,FALSE,"Mason Wong, Hayley Tran",Inner Real Estate NEXTRE,1307/270 King Street,MELBOURNE,VIC,3000,-37.81369,144.95486,2,ApartmentUnitFlat,Apartment / Unit / Flat,FALSE,0,FALSE,2.17,2.28,0.26,1.06,0.68
17199689,elite,690,FALSE,"April Langley, Tony Armeri",Buxton Inner West,2 Sanderson Street,YARRAVILLE,VIC,3013,-37.815033,144.872,1,House,House,FALSE,0,FALSE,3.84,3.56,1.39,1.03,0.50
17199787,elite,590,FALSE,LIV Aston,LIV Aston Mirvac,1916/7 Siddeley Street,DOCKLANDS,VIC,3008,-37.821514,144.95454,1,Studio,Studio,FALSE,0,FALSE,3.34,1.14,0.79,1.73,0.38
17199822,elite,590,FALSE,LIV Aston,LIV Aston Mirvac,1916D/7 Siddeley Street,DOCKLANDS,VIC,3008,-37.82163,144.95473,1,Studio,Studio,FALSE,0,FALSE,3.26,1.26,0.71,1.65,0.30
17199836,elite,900,FALSE,"Eva Christodoulou, Dylan Emmett",Lucas Real Estate,1008/915 Collins Street,DOCKLANDS,VIC,3008,-37.820675,144.94011,2,ApartmentUnitFlat,Apartment / Unit / Flat,FALSE,0,FALSE,3.89,1.96,1.83,1.74,0.01
17199873,elite,635,FALSE,LIV Aston,LIV Aston Mirvac,10066/7 Siddeley Street,DOCKLANDS,VIC,3008,-37.821514,144.95454,1,Studio,Studio,FALSE,0,FALSE,3.34,1.14,0.79,1.73,0.38
17199908,elite,780,FALSE,Ann Borg,Village Real Estate ,76 Ovens Street,YARRAVILLE,VIC,3013,-37.81771,144.88799,2,House,House,FALSE,0,FALSE,2.42,4.51,2.12,0.58,0.22
17200130,elite,790,FALSE,Leasing Division,Stockdale & Leggo Glenroy,15 John Street,SEDDON,VIC,3011,-37.80394,144.88902,2,Townhouse,Townhouse,FALSE,0,FALSE,1.02,4.24,0.9,1.05,0.69
17200226,elite,620,TRUE,"Mason Wong, Maya Angela",Inner Real Estate NEXTRE,1801/139 Bourke Street,MELBOURNE,VIC,3000,-37.812737,144.96913,1,ApartmentUnitFlat,Apartment / Unit / Flat,FALSE,0,FALSE,2.27,3.16,0.48,1.75,0.36
17200582,elite,630,FALSE,"Estela Ruiz, Rentals Deer Park",Bells Real Estate Sunshine,1904/6 Joseph Road,FOOTSCRAY,VIC,3011,-37.800327,144.90956,2,ApartmentUnitFlat,Apartment / Unit / Flat,FALSE,0,FALSE,1.78,4.55,1.52,0.61,0.39
8549284,elite,350,TRUE,Huey Lim,Student Housing Australia,304/133 Droop Street,FOOTSCRAY,VIC,3011,-37.792564,144.89342,1,Studio,Studio,FALSE,0,FALSE,0.74,2.48,0.31,1.12,0.47
8550097,elite,355,TRUE,Huey Lim,Student Housing Australia,103/133 Droop Street,FOOTSCRAY,VIC,3011,-37.792564,144.89342,1,Studio,Studio,FALSE,0,FALSE,0.74,2.48,0.31,1.12,0.47
8639764,elite,355,FALSE,Huey Lim,Student Housing Australia,309/133 Droop Street,FOOTSCRAY,VIC,3011,-37.792564,144.89342,1,Studio,Studio,FALSE,0,FALSE,0.74,2.48,0.31,1.12,0.47
8639795,elite,355,FALSE,Huey Lim,Student Housing Australia,320/133 Droop Street,FOOTSCRAY,VIC,3011,-37.792564,144.89342,1,Studio,Studio,FALSE,0,FALSE,0.74,2.48,0.31,1.12,0.47
11791825,elite,360,TRUE,Huey Lim,Student Housing Australia,19/117-119 Ballarat Road,FOOTSCRAY,VIC,3011,-37.793148,144.89545,1,ApartmentUnitFlat,Apartment / Unit / Flat,FALSE,0,FALSE,0.54,2.66,0.2,1.30,0.27
16629411,elite,650,FALSE,Caitlyn Colquhoun,Jas Stephens Real Estate,7 Bayview Road,SEDDON,VIC,3011,-37.806866,144.8864,1,House,House,FALSE,0,FALSE,1.58,4.32,1.55,1.28,0.61
17192471,elite,780,FALSE,Elvis Ng,Apex Investment Alliance,1401E/888 Collins Street,DOCKLANDS,VIC,3008,-37.820473,144.94252,2,ApartmentUnitFlat,Apartment / Unit / Flat,FALSE,0,FALSE,3.76,1.83,1.7,1.62,0.23
17193130,elite,700,FALSE,Illy Bakesy,Jas Stephens Real Estate,13 The Crescent,FOOTSCRAY,VIC,3011,-37.793774,144.89388,1,House,House,FALSE,0,FALSE,0.73,2.7,0.42,0.89,0.55
17193208,elite,625,FALSE,"Millie Bowles, Bronte Carfino",MRE,307/7-8 Bowen Crescent,MELBOURNE,VIC,3004,-37.83536,144.97252,1,ApartmentUnitFlat,Apartment / Unit / Flat,FALSE,0,FALSE,4.87,4.46,0.3,1.43,1.13
17193472,elite,730,FALSE,"Hendy Nora, Edy Halim",Core Realty Pty Ltd,1410/155 Franklin Street,MELBOURNE,VIC,3000,-37.808826,144.95955,1,ApartmentUnitFlat,Apartment / Unit / Flat,FALSE,0,FALSE,1.43,3.28,0.72,1.30,0.16
17193596,elite,770,FALSE,Anna Wang,Apex Investment Alliance,609N/889 Collins Street,DOCKLANDS,VIC,3008,-37.820915,144.94186,2,ApartmentUnitFlat,Apartment / Unit / Flat,FALSE,0,FALSE,3.84,1.91,1.78,1.70,0.16
17158498,elite,950,FALSE,Para Taneski,Sweeney Estate Agents Williamstown,22 Norfolk Street,YARRAVILLE,VIC,3013,-37.820015,144.89005,2,House,House,FALSE,0,FALSE,2.57,5.13,2.43,0.43,0.76
17159057,elite,660,FALSE,"Angelina Quiroga, Isabel Villa",Lucas Real Estate,1209/77 Queens Road,MELBOURNE,VIC,3004,-37.852802,144.97942,2,ApartmentUnitFlat,Apartment / Unit / Flat,FALSE,0,FALSE,7.24,5.56,0.42,0.92,1.09
17159122,elite,520,TRUE,Lakely Shu,ELITE REAL ESTATE (ON ELIZABETH STREET),2304/250 Elizabeth Street,MELBOURNE,VIC,3000,-37.81255,144.96275,1,ApartmentUnitFlat,Apartment / Unit / Flat,FALSE,0,FALSE,1.92,2.86,0.23,1.79,0.59
17159191,elite,775,FALSE,Sheryl Upton,McDonald Upton,77 Dover Street,FLEMINGTON,VIC,3031,-37.783054,144.92348,1,House,House,FALSE,0,FALSE,3.24,4.51,0.95,1.32,0.18
17160106,elite,950,FALSE,Sallie You,Areal Property - Box Hill,1809/3 Aquitania Way,DOCKLANDS,VIC,3008,-37.81376,144.94157,2,ApartmentUnitFlat,Apartment / Unit / Flat,FALSE,0,FALSE,2.9,2.53,1.58,0.37,0.73
17160376,elite,680,FALSE,"Hendy Nora, Wisno Dharma",Core Realty Pty Ltd,526/555 St Kilda Road,MELBOURNE,VIC,3004,-37.847054,144.98068,1,ApartmentUnitFlat,Apartment / Unit / Flat,FALSE,0,FALSE,6.45,5.61,0.41,1.08,0.90
17160476,elite,650,FALSE,"Isabel Villa, Charlotte Tran",Lucas Real Estate,1605/8 Marmion Place,DOCKLANDS,VIC,3008,-37.81347,144.94247,1,ApartmentUnitFlat,Apartment / Unit / Flat,FALSE,0,FALSE,2.93,2.55,1.6,0.39,0.75
14071539,elite,485,FALSE,Cassie Favero,Jas Stephens Real Estate,16 Latrobe Street,FOOTSCRAY,VIC,3011,-37.797333,144.889,1,House,House,FALSE,0,FALSE,1.25,2.86,0.54,0.52,0.27
17190999,elite,800,FALSE,"Mandi Kuran, Leasing Agent",Flare Real Estate,104/598 St Kilda Road,MELBOURNE,VIC,3004,-37.850216,144.9797,2,ApartmentUnitFlat,Apartment / Unit / Flat,FALSE,0,FALSE,6.68,5.82,0.57,1.29,0.85
17191059,elite,520,FALSE,"Charlotte Tran, Isabel Villa",Lucas Real Estate,719/59 PAISLEY STREET,FOOTSCRAY,VIC,3011,-37.800797,144.8972,1,ApartmentUnitFlat,Apartment / Unit / Flat,FALSE,0,FALSE,0.54,3.85,0.36,0.67,1.03
17191699,elite,750,FALSE,"Mason Wong, Hayley Tran",Inner Real Estate NEXTRE,4508/80 A'beckett Street,MELBOURNE,VIC,3000,-37.809,144.96107,2,ApartmentUnitFlat,Apartment / Unit / Flat,FALSE,0,FALSE,1.39,3.28,0.55,1.26,0.39
17191700,elite,550,TRUE,"Mason Wong, Hayley Tran",Inner Real Estate NEXTRE,738/18 Albert Street,FOOTSCRAY,VIC,3011,-37.801647,144.8977,2,ApartmentUnitFlat,Apartment / Unit / Flat,FALSE,0,FALSE,0.37,4.03,0.49,0.84,0.97
17191848,elite,480,FALSE,Silvana Stathis,Rendina Real Estate,17 Southey Street,KENSINGTON,VIC,3031,-37.798195,144.93095,1,House,House,FALSE,0,FALSE,3.29,6.19,1.46,0.63,0.29
17192011,elite,790,FALSE,Kiana Minenko,Rendina Real Estate,38 Willis Street,KENSINGTON,VIC,3031,-37.793316,144.91815,2,House,House,FALSE,0,FALSE,2.28,5.28,1.2,1.39,0.51
17192212,elite,520,FALSE,"Xiann Smith, Eva Deng",Me Homes Property,608/838 Bourke Street,DOCKLANDS,VIC,3008,-37.819798,144.94328,1,ApartmentUnitFlat,Apartment / Unit / Flat,FALSE,0,FALSE,3.59,1.66,1.53,1.44,0.41
17192367,elite,770,FALSE,Vesna Ristanovski,Woodards Brunswick/Coburg,15 Condenser Drive,YARRAVILLE,VIC,3013,-37.82194,144.88884,2,Townhouse,Townhouse,FALSE,0,FALSE,2.99,4.62,2.23,0.61,0.90
14745485,elite,500,FALSE,Caitlyn Colquhoun,Jas Stephens Real Estate,7 Henry Street,SEDDON,VIC,3011,-37.80521,144.88835,1,House,House,FALSE,0,FALSE,1.06,4.43,1.03,1.25,0.56
16150861,elite,390,FALSE,Stephanie Hristovski,Trimson Partners,5/17 Empire Street,FOOTSCRAY,VIC,3011,-37.78932,144.89116,1,ApartmentUnitFlat,Apartment / Unit / Flat,FALSE,0,FALSE,1.27,1.97,0.46,1.09,0.11
17155375,elite,994,FALSE,"Rodolfo Ottobrini, Alisha Mehta",Local Residential,B307/348 Macaulay Road,KENSINGTON,VIC,3031,-37.79477,144.93425,2,ApartmentUnitFlat,Apartment / Unit / Flat,FALSE,0,FALSE,2.52,6.08,1.16,0.67,0.48
17155379,elite,604,FALSE,"Alisha Mehta, Rodolfo Ottobrini",Local Residential,B302/348 Macaulay Road,KENSINGTON,VIC,3031,-37.79477,144.93425,1,Studio,Studio,FALSE,0,FALSE,2.52,6.08,1.16,0.67,0.48
17155389,elite,694,FALSE,"Byrd Boonprakob-Naughton, Alisha Mehta",Local Residential,B105/348 Macaulay Road,KENSINGTON,VIC,3031,-37.79477,144.93425,1,ApartmentUnitFlat,Apartment / Unit / Flat,FALSE,0,FALSE,2.52,6.08,1.16,0.67,0.48
17155630,elite,540,FALSE,Inner West Rentals,BIGGIN SCOTT INNER WEST SUNSHINE,137 Kent Street,FLEMINGTON,VIC,3031,-37.780388,144.9253,1,House,House,FALSE,156,FALSE,3.67,4.89,0.81,0.83,0.26
17156435,elite,500,FALSE,"Hugo Banks, Millie Short",Wood Property,3507/120 A'Beckett Street,MELBOURNE,VIC,3000,-37.809307,144.95973,1,ApartmentUnitFlat,Apartment / Unit / Flat,FALSE,0,FALSE,1.44,3.16,0.6,1.32,0.34
17157555,elite,600,FALSE,Poppy Kontos,hockingstuart Yarraville,150a Stephen Street,YARRAVILLE,VIC,3013,-37.818447,144.89378,1,Townhouse,Townhouse,FALSE,0,FALSE,2.05,5.07,1.91,0.37,0.61
17157702,elite,850,TRUE,Leasing Team,LJ Hooker City Residential,1310/120 A'beckett Street,MELBOURNE,VIC,3000,-37.809307,144.95973,2,ApartmentUnitFlat,Apartment / Unit / Flat,FALSE,0,FALSE,1.44,3.16,0.6,1.32,0.34
15818267,elite,650,FALSE,Cubbi (63819),Cubbi,65 Capel St,WEST MELBOURNE,VIC,3003,-37.80658,144.95476,1,House,House,FALSE,0,FALSE,1.19,3.45,0.28,0.58,0.36
16962173,elite,535,TRUE,Abie Riady,MICM Real Estate,504/55 Jeffcott Street,WEST MELBOURNE,VIC,3003,-37.81205,144.95174,1,ApartmentUnitFlat,Apartment / Unit / Flat,FALSE,0,FALSE,2.05,2.39,0.32,0.90,0.49
17163792,elite,750,FALSE,Mania Sidhu,MICM Real Estate,1006/408 Spencer Street,WEST MELBOURNE,VIC,3003,-37.810585,144.95053,2,ApartmentUnitFlat,Apartment / Unit / Flat,FALSE,0,FALSE,2.01,2.53,0.45,0.86,0.38
17175771,elite,640,FALSE,Amanda Zhou,Areal Property - Box Hill,407/140 Dudley Street,WEST MELBOURNE,VIC,3003,-37.809574,144.95078,1,ApartmentUnitFlat,Apartment / Unit / Flat,FALSE,0,FALSE,1.74,2.65,0.55,0.59,0.28
17176874,elite,550,FALSE,Michael Zhang,Areal Property - Box Hill,404/5 Wominjeka Walk,WEST MELBOURNE,VIC,3003,-37.810272,144.9487,1,ApartmentUnitFlat,Apartment / Unit / Flat,FALSE,0,FALSE,1.94,2.69,0.61,0.76,0.27
17177007,elite,680,TRUE,Mania Sidhu,MICM Real Estate,704/408 Spencer Street,WEST MELBOURNE,VIC,3003,-37.810585,144.95053,1,ApartmentUnitFlat,Apartment / Unit / Flat,FALSE,0,FALSE,2.01,2.53,0.45,0.86,0.38
17179203,elite,600,FALSE,Rayna Hao,AREAL PROPERTY MELBOURNE,1503/45 Dudley Street,WEST MELBOURNE,VIC,3003,-37.80998,144.95097,1,ApartmentUnitFlat,Apartment / Unit / Flat,FALSE,0,FALSE,1.74,2.64,0.56,0.60,0.28
17181591,elite,460,TRUE,Mania Sidhu,MICM Real Estate,1102/53 Batman Street,WEST MELBOURNE,VIC,3003,-37.81091,144.95145,1,ApartmentUnitFlat,Apartment / Unit / Flat,FALSE,0,FALSE,1.92,2.53,0.46,0.77,0.39
17181867,elite,695,FALSE,Calvin Tan,Melcorp Real Estate,216/288 Adderley Street,WEST MELBOURNE,VIC,3003,-37.8072,144.94318,1,ApartmentUnitFlat,Apartment / Unit / Flat,FALSE,0,FALSE,2.46,3.07,1.2,1.16,0.77
17182277,elite,575,FALSE,Michael Zhang,AREAL PROPERTY MELBOURNE,1003/45 Dudley Street,WEST MELBOURNE,VIC,3003,-37.80998,144.95097,1,ApartmentUnitFlat,Apartment / Unit / Flat,FALSE,0,FALSE,1.74,2.64,0.56,0.60,0.28
17183251,elite,830,FALSE,Mania Sidhu,MICM Real Estate,309/408 Spencer Street,WEST MELBOURNE,VIC,3003,-37.810585,144.95053,2,ApartmentUnitFlat,Apartment / Unit / Flat,FALSE,0,FALSE,2.01,2.53,0.45,0.86,0.38
17184371,elite,620,FALSE,Emma Smith,Ray White Southbank & Port Phillip,413/118 Dudley Street,WEST MELBOURNE,VIC,3003,-37.809357,144.9514,1,House,House,FALSE,0,FALSE,1.68,2.71,0.5,0.53,0.33
17187444,elite,800,FALSE,Mania Sidhu,MICM Real Estate,902/408 Spencer Street,WEST MELBOURNE,VIC,3003,-37.810585,144.95053,2,ApartmentUnitFlat,Apartment / Unit / Flat,FALSE,0,FALSE,2.01,2.53,0.45,0.86,0.38
17187518,elite,740,FALSE,Mania Sidhu,MICM Real Estate,1307/408 Spencer Street,WEST MELBOURNE,VIC,3003,-37.810585,144.95053,1,ApartmentUnitFlat,Apartment / Unit / Flat,FALSE,0,FALSE,2.01,2.53,0.45,0.86,0.38
17189141,elite,580,FALSE,Michael Zhang,AREAL PROPERTY MELBOURNE,107/45 Dudley Street,WEST MELBOURNE,VIC,3003,-37.80998,144.95097,1,ApartmentUnitFlat,Apartment / Unit / Flat,FALSE,0,FALSE,1.74,2.64,0.56,0.60,0.28
17190315,elite,830,TRUE,Mania Sidhu,MICM Real Estate,1503/408 Spencer Street,WEST MELBOURNE,VIC,3003,-37.810585,144.95053,2,ApartmentUnitFlat,Apartment / Unit / Flat,FALSE,0,FALSE,2.01,2.53,0.45,0.86,0.38
17192602,elite,580,FALSE,Mania Sidhu,MICM Real Estate,1008/408 Spencer Street,WEST MELBOURNE,VIC,3003,-37.8106,144.95053,1,ApartmentUnitFlat,Apartment / Unit / Flat,FALSE,0,FALSE,2.01,2.53,0.45,0.86,0.38
17193594,elite,600,FALSE,Molly Bradshaw,JMRE Real Estate,31/30 Chetwynd Street,WEST MELBOURNE,VIC,3003,-37.807156,144.95218,1,ApartmentUnitFlat,Apartment / Unit / Flat,FALSE,0,FALSE,1.63,3.19,0.52,0.19,0.02
17196076,elite,680,FALSE,Gradi Masudi,Nelson Alexander Flemington,1/593 Spencer Street,WEST MELBOURNE,VIC,3003,-37.80705,144.94633,1,ApartmentUnitFlat,Apartment / Unit / Flat,FALSE,0,FALSE,2.09,3.1,0.83,0.79,0.49
17198388,elite,490,FALSE,Silvana Stathis,Rendina Real Estate,214/9 Dryburgh Street,WEST MELBOURNE,VIC,3003,-37.806667,144.94249,1,ApartmentUnitFlat,Apartment / Unit / Flat,FALSE,0,FALSE,2.4,3.37,1.14,1.31,1.01
16636429,elite,530,FALSE,Elvis Ng,Apex Investment Alliance,403E/888 Collins Street,DOCKLANDS,VIC,3008,-37.820473,144.94252,1,ApartmentUnitFlat,Apartment / Unit / Flat,FALSE,0,FALSE,3.76,1.83,1.7,1.62,0.23
16922967,elite,580,FALSE,"Linda Lawrence, Gia Rigas",Compton Green,70 Ovens Street,YARRAVILLE,VIC,3013,-37.81779,144.88869,1,House,House,FALSE,0,FALSE,2.48,4.58,2.18,0.64,0.28
17200940,elite,600,TRUE,William Chin,MICM Real Estate,416/360 St Kilda Road,MELBOURNE,VIC,3004,-37.831825,144.97107,1,ApartmentUnitFlat,Apartment / Unit / Flat,FALSE,0,FALSE,4.34,3.93,0.71,2.11,0.76
17201102,elite,1300,FALSE,Kim Davey,Melbourne Boutique Property,2703/368 St Kilda Road,MELBOURNE,VIC,3004,-37.831825,144.97107,2,ApartmentUnitFlat,Apartment / Unit / Flat,FALSE,0,FALSE,4.34,3.93,0.71,2.11,0.76
17202120,elite,820,FALSE,Anna Mou,AREAL PROPERTY MELBOURNE,1004/673 La Trobe Street,DOCKLANDS,VIC,3008,-37.814922,144.94794,2,ApartmentUnitFlat,Apartment / Unit / Flat,FALSE,0,FALSE,2.74,2.18,1.41,0.99,1.07
17202215,elite,850,FALSE,Ding Qi,D - Australia Real Estate,704/20 Queens Road,MELBOURNE,VIC,3004,-37.840637,144.97517,2,ApartmentUnitFlat,Apartment / Unit / Flat,FALSE,0,FALSE,5.49,4.42,0.63,1.74,0.46
17202744,elite,630,FALSE,"Angelina Quiroga, Isabel Villa",Lucas Real Estate,907/20 Rakaia Way,DOCKLANDS,VIC,3008,-37.81471,144.94104,1,ApartmentUnitFlat,Apartment / Unit / Flat,FALSE,0,FALSE,2.84,2.47,1.51,0.30,0.57
17202835,elite,820,FALSE,Amanda Lawrence,Jas Stephens Real Estate,,SEDDON,VIC,3011,-37.806488,144.8959,3,House,House,FALSE,0,FALSE,0.3,4.7,0.27,0.63,0.81
11777535,elite,360,FALSE,Huey Lim,Student Housing Australia,14/117-119 Ballarat Road,FOOTSCRAY,VIC,3011,-37.793148,144.89545,1,ApartmentUnitFlat,Apartment / Unit / Flat,FALSE,0,FALSE,0.54,2.66,0.2,1.30,0.27
11791808,elite,360,FALSE,Huey Lim,Student Housing Australia,18/117-119 Ballarat Road,FOOTSCRAY,VIC,3011,-37.793148,144.89545,1,ApartmentUnitFlat,Apartment / Unit / Flat,FALSE,0,FALSE,0.54,2.66,0.2,1.30,0.27
11820570,elite,360,TRUE,Huey Lim,Student Housing Australia,38/117-119 Ballarat Road,FOOTSCRAY,VIC,3011,-37.793148,144.89545,1,ApartmentUnitFlat,Apartment / Unit / Flat,FALSE,0,FALSE,0.54,2.66,0.2,1.30,0.27
12062246,elite,360,FALSE,Huey Lim,Student Housing Australia,36/117-119 Ballarat Road,FOOTSCRAY,VIC,3011,-37.793148,144.89545,1,ApartmentUnitFlat,Apartment / Unit / Flat,FALSE,0,FALSE,0.54,2.66,0.2,1.30,0.27
17189180,elite,620,FALSE,"Hendy Nora, James Ji",Core Realty Pty Ltd,2907/120 Abeckett Street,MELBOURNE,VIC,3000,-37.809307,144.95973,1,ApartmentUnitFlat,Apartment / Unit / Flat,FALSE,0,FALSE,1.44,3.16,0.6,1.32,0.34
17189956,elite,850,FALSE,Property Now,Property Now,124/8 Waterside Place,DOCKLANDS,VIC,3008,-37.819916,144.9422,2,ApartmentUnitFlat,Apartment / Unit / Flat,FALSE,0,FALSE,3.75,1.82,1.69,1.61,0.24
17190029,elite,575,TRUE,"Thembie  Sikwila, Bronte Carfino",MRE,1204/74 Queens Road,MELBOURNE,VIC,3004,-37.85228,144.97931,1,ApartmentUnitFlat,Apartment / Unit / Flat,FALSE,0,FALSE,7.3,5.62,0.48,0.98,1.15
17190086,elite,550,FALSE,Jagg Hunt,Nelson Alexander Flemington,2/50 Rankins Road,KENSINGTON,VIC,3031,-37.79041,144.93146,1,ApartmentUnitFlat,Apartment / Unit / Flat,FALSE,0,FALSE,2.96,5.67,0.71,0.72,0.69
17190632,elite,650,FALSE,Jesseigh Stella,Jas Stephens Real Estate,27 Adeney Street,YARRAVILLE,VIC,3013,-37.8166,144.86513,1,House,House,FALSE,0,FALSE,3.87,2.77,1.63,1.28,0.38
17190633,elite,500,FALSE,Cassie Favero,Jas Stephens Real Estate,13/49 Napier Street,FOOTSCRAY,VIC,3011,-37.80482,144.9024,1,ApartmentUnitFlat,Apartment / Unit / Flat,FALSE,0,FALSE,0.58,4.66,0.7,0.46,0.56
17190813,elite,600,FALSE,William Chin,MICM Real Estate,1215/610 St Kilda Road,MELBOURNE,VIC,3004,-37.851948,144.98071,1,ApartmentUnitFlat,Apartment / Unit / Flat,FALSE,0,FALSE,6.81,5.98,0.7,1.50,1.10
17150007,elite,704,FALSE,"Alisha Mehta, Rodolfo Ottobrini",Local Residential,B205/348 Macaulay Road,KENSINGTON,VIC,3031,-37.79477,144.93425,1,ApartmentUnitFlat,Apartment / Unit / Flat,FALSE,0,FALSE,2.52,6.08,1.16,0.67,0.48
17150197,elite,540,FALSE,Japneet Hansen-Thorpe,Burnham Real Estate Footscray,3/39 Victoria Street,FOOTSCRAY,VIC,3011,-37.80165,144.89288,1,ApartmentUnitFlat,Apartment / Unit / Flat,FALSE,0,FALSE,0.75,3.64,0.3,0.46,0.77
17150440,elite,560,FALSE,Kiana Minenko,Rendina Real Estate,5 Bent Street,KENSINGTON,VIC,3031,-37.79639,144.93498,1,House,House,FALSE,0,FALSE,2.6,6.34,1.23,0.93,0.59
17150696,elite,790,FALSE,Elvis Ng,Apex Investment Alliance,1201E/888 Collins Street,DOCKLANDS,VIC,3008,-37.820473,144.94252,2,ApartmentUnitFlat,Apartment / Unit / Flat,FALSE,0,FALSE,3.76,1.83,1.7,1.62,0.23
17150755,elite,640,FALSE,Helen He,Haughton Stotts Real Estate,298 Hyde Street,YARRAVILLE,VIC,3013,-37.823143,144.89528,1,House,House,FALSE,0,FALSE,2.32,5.06,2.18,0.35,0.66
17151285,elite,750,FALSE,Leasing Team,LJ Hooker City Residential,1110/500 Elizabeth Street,MELBOURNE,VIC,3000,-37.807137,144.96037,2,ApartmentUnitFlat,Apartment / Unit / Flat,FALSE,0,FALSE,1.15,3.54,0.56,1.02,0.42
17151583,elite,590,FALSE,"April Langley, Elly Rezania",Buxton Inner West,402/5 Joseph Road,FOOTSCRAY,VIC,3011,-37.80022,144.90916,2,ApartmentUnitFlat,Apartment / Unit / Flat,FALSE,0,FALSE,1.78,4.54,1.51,0.60,0.38
17151885,elite,520,FALSE,Naomi Tatt,Sweeney Estate Agents Williamstown,838/18 Albert Street,FOOTSCRAY,VIC,3011,-37.801647,144.8977,2,ApartmentUnitFlat,Apartment / Unit / Flat,FALSE,0,FALSE,0.37,4.03,0.49,0.84,0.97
17152418,elite,900,FALSE,"Asa Salimi, Emma  Luo",BRADY residential,4203/371 Little Lonsdale Street,MELBOURNE,VIC,3000,-37.811775,144.96101,2,ApartmentUnitFlat,Apartment / Unit / Flat,FALSE,0,FALSE,1.71,3.09,0.41,1.59,0.38
15231737,standardpp,420,TRUE,Marcel Di-Scipio,Melbourne Realty Group Pty Ltd,618/118 Franklin Street,MELBOURNE,VIC,3000,-37.808205,144.95891,1,ApartmentUnitFlat,Apartment / Unit / Flat,FALSE,0,FALSE,1.38,3.49,0.79,1.25,0.36
17139756,standardpp,470,FALSE,Carson Mair,Dingle Partners,302/594 St Kilda Road,MELBOURNE,VIC,3004,-37.849606,144.9799,1,ApartmentUnitFlat,Apartment / Unit / Flat,FALSE,0,FALSE,6.54,5.71,0.55,1.23,0.97
17146454,standardpp,560,FALSE,Shane Dangen,Dingle Partners,109/253 Franklin Street,MELBOURNE,VIC,3004,-37.8095,144.95667,1,ApartmentUnitFlat,Apartment / Unit / Flat,FALSE,0,FALSE,1.59,3.02,0.6,0.99,0.22
17147781,standardpp,780,FALSE,Carson Mair,Dingle Partners,36/632 St Kilda Road,MELBOURNE,VIC,3004,-37.854332,144.98128,2,ApartmentUnitFlat,Apartment / Unit / Flat,FALSE,0,FALSE,7.19,5.67,0.36,1.32,1.27
17153097,standardpp,680,FALSE,Mica Viotti,Dingle Partners,1508/60 Lorimer Street,DOCKLANDS,VIC,3008,-37.824966,144.94693,1,ApartmentUnitFlat,Apartment / Unit / Flat,FALSE,0,FALSE,4.13,0.47,1.6,0.90,0.53
17159503,standardpp,175,FALSE,Create Rentals,Create Real Estate,Rooms 1-4 of 2/1 Beevers Street,FOOTSCRAY,VIC,3011,-37.797283,144.90817,2,House,House,FALSE,0,FALSE,1,4.07,1.36,1.37,1.33
17159697,standardpp,595,TRUE,Claire Spring,Nicholson Real Estate,803/1 Joseph Road,FOOTSCRAY,VIC,3011,-37.798725,144.91014,2,ApartmentUnitFlat,Apartment / Unit / Flat,FALSE,0,FALSE,1.82,4.58,1.55,0.64,0.28
17173138,standardpp,780,FALSE,"Travis Flint, Jessica Good",Ray White Williamstown,14 Corris Street,YARRAVILLE,VIC,3013,-37.816418,144.87836,2,House,House,FALSE,0,FALSE,3.09,4.64,1.49,0.85,0.77
15096132,premiumplus,610,TRUE,Kim Te,Motion Property,1113/2 Joseph Road,FOOTSCRAY,VIC,3011,-37.800327,144.90956,2,ApartmentUnitFlat,Apartment / Unit / Flat,FALSE,0,FALSE,1.78,4.55,1.52,0.61,0.39
15472399,premiumplus,510,TRUE,"Kim Te, Mary Mezei",Motion Property,502/4 Joseph Rd,FOOTSCRAY,VIC,3011,-37.800327,144.90956,1,ApartmentUnitFlat,Apartment / Unit / Flat,FALSE,0,FALSE,1.78,4.55,1.52,0.61,0.39
17182653,premiumplus,640,FALSE,Maria Gutterson,Dingle Partners,1111/55 Merchant Street,DOCKLANDS,VIC,3008,-37.820877,144.94391,1,ApartmentUnitFlat,Apartment / Unit / Flat,FALSE,0,FALSE,3.69,1.48,1.35,1.54,0.47
17182768,premiumplus,880,FALSE,Jack Alexander,Marshall White Port Phillip,504/576-578 St Kilda Road,MELBOURNE,VIC,3004,-37.8484,144.97954,2,ApartmentUnitFlat,Apartment / Unit / Flat,FALSE,0,FALSE,6.4,5.57,0.42,1.09,0.84
17187548,premiumplus,620,FALSE,Precinct Leasing,Precinct Estate Agents ,2313/250 Elizabeth Street,MELBOURNE,VIC,3000,-37.81255,144.96275,1,ApartmentUnitFlat,Apartment / Unit / Flat,FALSE,0,FALSE,1.92,2.86,0.23,1.79,0.59
17187969,premiumplus,850,FALSE,Mica Viotti,Dingle Partners,1807/60 Lorimer Street,DOCKLANDS,VIC,3008,-37.824966,144.94693,1,ApartmentUnitFlat,Apartment / Unit / Flat,FALSE,0,FALSE,4.13,0.47,1.6,0.90,0.53
17188106,premiumplus,550,FALSE,Flo Djaja,Melbourne Residential Real Estate,202/572 St Kilda Road,MELBOURNE,VIC,3004,-37.8476,144.97925,1,ApartmentUnitFlat,Apartment / Unit / Flat,FALSE,0,FALSE,6.31,5.48,0.73,1.39,0.86
13934933,elite,750,FALSE,Caitlyn Colquhoun,Jas Stephens Real Estate,60 Charles Street,SEDDON,VIC,3011,-37.806633,144.89288,2,Townhouse,Townhouse,FALSE,0,FALSE,0.63,4.34,0.6,0.95,0.32
17110151,elite,400,FALSE,"Denisa Rubinic, Rentals Sunshine",Bells Real Estate Sunshine,7/14 Elderidge Street,FOOTSCRAY,VIC,3011,-37.789864,144.893,1,ApartmentUnitFlat,Apartment / Unit / Flat,FALSE,0,FALSE,1.13,2.17,0.26,1.29,0.09
17187593,elite,530,FALSE,"Zac Karvoun, Tijen Akdeniz",Frank Dowling,3/160 Ascot Vale Rd,FLEMINGTON,VIC,3031,-37.780632,144.92287,2,Townhouse,Townhouse,FALSE,0,FALSE,3.36,4.58,1.09,0.96,0.30
17187664,elite,620,FALSE,Kiana Minenko,Rendina Real Estate,9 Reynolds Lane,KENSINGTON,VIC,3031,-37.79479,144.91812,2,Townhouse,Townhouse,FALSE,0,FALSE,2.43,5.43,1.35,1.37,0.50
17187872,elite,440,FALSE,Natasha Roman,Jas Stephens Real Estate,223/9 Hewitt Avenue,FOOTSCRAY,VIC,3011,-37.799675,144.8806,1,House,House,FALSE,0,FALSE,2.02,3.84,1.31,0.82,0.73
17187883,elite,500,FALSE,Felicia Kehagias,Miles Real Estate Ivanhoe,1201/568 St Kilda Road,MELBOURNE,VIC,3004,-37.847107,144.97884,1,ApartmentUnitFlat,Apartment / Unit / Flat,FALSE,0,FALSE,6.25,5.41,0.67,1.33,0.79
17188035,elite,390,FALSE,"Alexandria Boyce, April Langley",Buxton Inner West,8/16 Eldridge Street,FOOTSCRAY,VIC,3011,-37.789722,144.89304,1,ApartmentUnitFlat,Apartment / Unit / Flat,FALSE,0,FALSE,1.15,2.15,0.27,1.27,0.08
17188043,elite,945,FALSE,"Jason  Palmer, Ruby Woodbury",Home apartments,906/689 Latrobe Street,DOCKLANDS,VIC,3008,-37.814674,144.9465,2,ApartmentUnitFlat,Apartment / Unit / Flat,FALSE,0,FALSE,2.8,1.93,0.74,0.84,1.09
17188252,elite,745,FALSE,"Jason  Palmer, Ruby Woodbury",Home apartments,2206/687 Latrobe Street,DOCKLANDS,VIC,3008,-37.814674,144.9465,1,ApartmentUnitFlat,Apartment / Unit / Flat,FALSE,0,FALSE,2.8,1.93,0.74,0.84,1.09
17188934,elite,750,FALSE,"Hendy Nora, Wisno Dharma",Core Realty Pty Ltd,1020/555 St Kilda Road,MELBOURNE,VIC,3004,-37.847054,144.98068,2,ApartmentUnitFlat,Apartment / Unit / Flat,FALSE,0,FALSE,6.45,5.61,0.41,1.08,0.90
17188968,elite,915,FALSE,LIV Aston,LIV Aston Mirvac,1410/7 Siddeley Street,DOCKLANDS,VIC,3008,-37.821514,144.95454,2,ApartmentUnitFlat,Apartment / Unit / Flat,FALSE,0,FALSE,3.34,1.14,0.79,1.73,0.38
17189076,elite,600,FALSE,"Eva Deng, Xiann Smith",Me Homes Property,81 A'Beckett Street,MELBOURNE,VIC,3000,-37.809254,144.96118,1,ApartmentUnitFlat,Apartment / Unit / Flat,FALSE,0,FALSE,1.39,3.28,0.55,1.26,0.39
17189130,elite,950,FALSE,Amber Ward,Nelson Alexander Flemington,613/71-89 Hobsons Road,KENSINGTON,VIC,3031,-37.79587,144.91653,2,ApartmentUnitFlat,Apartment / Unit / Flat,FALSE,0,FALSE,2.7,5.7,1.62,1.44,0.01
17189131,elite,670,FALSE,"Liza Ajredini, Edward Tombs",Jellis Craig Kensington,32 Kensington Road,KENSINGTON,VIC,3031,-37.794735,144.92615,1,House,House,FALSE,0,FALSE,3.14,5.61,1.12,0.39,0.50
17109357,elite,650,FALSE,Trevor Reynolds,Biggin & Scott Kensington,2A Frearson Walk,KENSINGTON,VIC,3031,-37.79492,144.92328,2,Townhouse,Townhouse,FALSE,0,FALSE,2.86,6.12,1.54,0.77,0.48
17147324,elite,640,FALSE,Elvis Ng,Apex Investment Alliance,2908E/888 Collins Street,DOCKLANDS,VIC,3008,-37.820473,144.94252,1,ApartmentUnitFlat,Apartment / Unit / Flat,FALSE,0,FALSE,3.76,1.83,1.7,1.62,0.23
17148725,elite,660,FALSE,Miki Kawabuchi,MICM Real Estate,3010/639 Lonsdale Street,MELBOURNE,VIC,3000,-37.81501,144.95341,2,ApartmentUnitFlat,Apartment / Unit / Flat,FALSE,0,FALSE,2.56,2.05,0.33,1.36,0.59
17149449,elite,530,FALSE,Raelene Hallmark,McGrath Yarraville,304/205-207 Ballarat Road,FOOTSCRAY,VIC,3011,-37.791122,144.88885,2,ApartmentUnitFlat,Apartment / Unit / Flat,FALSE,0,FALSE,1.17,2.15,0.73,0.68,0.52
17149660,elite,780,FALSE,Amber Ward,Nelson Alexander Flemington,193 Pilgrim Street,SEDDON,VIC,3011,-37.804283,144.88579,1,House,House,FALSE,0,FALSE,1.29,4.17,1.19,1.41,0.85
16910252,standardpp,700,FALSE,Kok Tai Yap,Brand C Real Estate,507/39 Caravel Lane,DOCKLANDS,VIC,3008,-37.81474,144.9408,1,ApartmentUnitFlat,Apartment / Unit / Flat,FALSE,0,FALSE,2.86,2.49,1.54,0.33,0.54
17049720,standardpp,450,FALSE,Manuel Flores,Gotham Property,312/408 Lonsdale Street,MELBOURNE,VIC,3000,-37.8126,144.9604,1,ApartmentUnitFlat,Apartment / Unit / Flat,FALSE,0,FALSE,1.87,2.79,0.06,1.68,0.54
10982508,elite,500,FALSE,Stephanie Hristovski,Trimson Partners,7/20 Moore Street,FOOTSCRAY,VIC,3011,-37.796364,144.90382,1,ApartmentUnitFlat,Apartment / Unit / Flat,FALSE,0,FALSE,0.56,3.63,0.92,0.81,0.77
16609492,elite,690,FALSE,Shenae Sutherland,Ray White Sunshine,119 Williamstown Road,SEDDON,VIC,3011,-37.808987,144.88445,2,Townhouse,Townhouse,FALSE,0,FALSE,1.85,4.51,1.83,0.92,0.75
17185378,elite,530,FALSE,"Angelina Quiroga, Isabel Villa",Lucas Real Estate,307/12 Waterview Walk,DOCKLANDS,VIC,3008,-37.819473,144.94785,1,ApartmentUnitFlat,Apartment / Unit / Flat,FALSE,0,FALSE,3.66,1.25,1.12,1.60,0.64
17185462,elite,500,FALSE,Antoinette Furci,Nelson Alexander Essendon,413A/72 Ascot Vale Road,FLEMINGTON,VIC,3031,-37.784096,144.92307,1,ApartmentUnitFlat,Apartment / Unit / Flat,FALSE,0,FALSE,3.07,4.91,0.78,1.50,0.78
17186298,elite,734,FALSE,"Alisha Mehta, Rodolfo Ottobrini",Local Residential,B604/348 Macaulay Road,KENSINGTON,VIC,3031,-37.79477,144.93425,1,ApartmentUnitFlat,Apartment / Unit / Flat,FALSE,0,FALSE,2.52,6.08,1.16,0.67,0.48
17186598,elite,550,TRUE,"Bronte Carfino, Thembie  Sikwila",MRE,5/8 Whitehall Street,FOOTSCRAY,VIC,3011,-37.79987,144.90633,1,ApartmentUnitFlat,Apartment / Unit / Flat,FALSE,0,FALSE,1.37,4.14,1.11,0.20,0.02
17187237,elite,530,FALSE,Steven Wang,Areal Property - Box Hill,1012/628 Flinders Street,DOCKLANDS,VIC,3008,-37.820972,144.95325,1,ApartmentUnitFlat,Apartment / Unit / Flat,FALSE,0,FALSE,3.38,1.25,0.83,1.77,0.43
17187291,elite,560,TRUE,Mike Yuan,MICM Real Estate,3210A/100 Harbour Esplanade,DOCKLANDS,VIC,3008,-37.818375,144.94688,1,ApartmentUnitFlat,Apartment / Unit / Flat,FALSE,0,FALSE,3.37,1.4,1.26,1.23,0.56
17187293,elite,540,FALSE,Mike Yuan,MICM Real Estate,2512A/100 Harbour Esplanade,DOCKLANDS,VIC,3008,-37.818375,144.94688,1,ApartmentUnitFlat,Apartment / Unit / Flat,FALSE,0,FALSE,3.37,1.4,1.26,1.23,0.56
16592031,elite,720,FALSE,RentBetter Team,RentBetter,801/38 Rose Lane,MELBOURNE,VIC,3000,-37.8147,144.95422,2,ApartmentUnitFlat,Apartment / Unit / Flat,FALSE,0,FALSE,2.29,2.13,0.39,1.18,0.67
17144706,elite,580,FALSE,Tanaiya Moussa,Longview Real Estate,609/1 Moreland Street,FOOTSCRAY,VIC,3011,-37.80162,144.9082,2,ApartmentUnitFlat,Apartment / Unit / Flat,FALSE,0,FALSE,1.53,4.44,1.4,0.41,0.55
17145303,elite,550,FALSE,"Thembie  Sikwila, Bronte Carfino",MRE,1814/1 Ascot Vale Road,FLEMINGTON,VIC,3031,-37.78678,144.92131,1,ApartmentUnitFlat,Apartment / Unit / Flat,FALSE,0,FALSE,2.66,4.84,0.6,1.10,0.68
17145468,elite,600,FALSE,"April Langley, Elly Rezania",Buxton Inner West,4 Arran Street,SEDDON,VIC,3011,-37.804077,144.89554,1,House,House,FALSE,0,FALSE,0.29,4.17,0.34,0.70,0.92
17145791,elite,730,FALSE,"Sue Scott, Angel Yuan",Marshall White Balwyn,503/100 Harbour Esplanade,DOCKLANDS,VIC,3008,-37.818375,144.94688,1,ApartmentUnitFlat,Apartment / Unit / Flat,FALSE,0,FALSE,3.37,1.4,1.26,1.23,0.56
17145857,elite,1200,FALSE,"Hendy Nora, Elaine Yeo",Core Realty Pty Ltd,3502/63 La Trobe Street,MELBOURNE,VIC,3000,-37.808155,144.96954,2,ApartmentUnitFlat,Apartment / Unit / Flat,FALSE,0,FALSE,1.72,3.88,0.47,0.75,0.16
17146807,elite,525,FALSE,Ali Forbes,Longview Real Estate,2002/100 Harbour Esplanade,DOCKLANDS,VIC,3008,-37.818375,144.94688,1,ApartmentUnitFlat,Apartment / Unit / Flat,FALSE,0,FALSE,3.37,1.4,1.26,1.23,0.56
17146853,elite,450,FALSE,Shaun Young,AREAL PROPERTY MELBOURNE,603/243 franklin street,MELBOURNE,VIC,3000,-37.809772,144.957,1,ApartmentUnitFlat,Apartment / Unit / Flat,FALSE,0,FALSE,1.62,3.06,0.64,1.03,0.25
17147249,elite,730,FALSE,Steven Ker,Harcourts Judd White,112/605 St Kilda Road,MELBOURNE,VIC,3004,-37.85092,144.98143,2,ApartmentUnitFlat,Apartment / Unit / Flat,FALSE,0,FALSE,7.26,5.68,0.38,1.30,1.49
10483352,elite,500,FALSE,Danny Campos,LITTLE Real Estate Victoria,1410/83 Queens Road,MELBOURNE,VIC,3004,-37.854416,144.98044,1,ApartmentUnitFlat,Apartment / Unit / Flat,FALSE,0,FALSE,7.28,5.34,0.46,1.41,1.37
14886544,elite,800,FALSE,Michelle Chiu,LITTLE Real Estate Victoria,5416/228 La Trobe Street,MELBOURNE,VIC,3004,-37.809616,144.9623,2,ApartmentUnitFlat,Apartment / Unit / Flat,FALSE,0,FALSE,1.67,3.3,0.57,1.54,0.54
14922167,elite,590,FALSE,"VI A, Ken Yu",Chandon Realestate,1409/8 Pearl River Road,DOCKLANDS,VIC,3008,-37.81565,144.93825,1,ApartmentUnitFlat,Apartment / Unit / Flat,FALSE,0,FALSE,3.15,4.08,1.82,0.48,0.17
16093696,elite,630,FALSE,Stephanie Njomkam,Jas Stephens Real Estate,97 Williamstown Road,SEDDON,VIC,3011,-37.808098,144.88461,2,Townhouse,Townhouse,FALSE,0,FALSE,1.72,4.38,1.69,0.96,0.79
16878350,elite,780,FALSE,Mario Setiawan,Casa Real Estate,3304/90 Lorimer Street,DOCKLANDS,VIC,3008,-37.824593,144.94348,1,ApartmentUnitFlat,Apartment / Unit / Flat,FALSE,0,FALSE,4.42,0.25,1.89,1.20,0.21
17183791,elite,680,FALSE,"April Langley, Elly Rezania",Buxton Inner West,65 Tongue Street,YARRAVILLE,VIC,3013,-37.813248,144.89085,1,House,House,FALSE,0,FALSE,1.23,5.31,1.2,0.20,0.72
17183996,elite,600,FALSE,"Andy Toan Pham, Kevin Nguyen",Nguyen Real Estate,36 Pilgrim street,SEDDON,VIC,3011,-37.805305,144.89569,1,House,House,FALSE,0,FALSE,0.21,4.47,0.18,0.53,0.70
17184606,elite,550,FALSE,"Emma Smith, Rhys Brown",Ray White Southbank & Port Phillip,112/70 Queens Road,MELBOURNE,VIC,3004,-37.851192,144.97891,1,ApartmentUnitFlat,Apartment / Unit / Flat,FALSE,0,FALSE,7.43,5.74,0.6,1.10,1.28
17184805,elite,740,FALSE,Charlotte Tran,Lucas Real Estate,S706/231 Harbour Esplanade,DOCKLANDS,VIC,3008,-37.813297,144.94336,2,ApartmentUnitFlat,Apartment / Unit / Flat,FALSE,0,FALSE,2.6,2.23,1.27,0.43,0.79
17185035,elite,460,TRUE,Mike Yuan,MICM Real Estate,2811B/100 Harbour Esplanade,DOCKLANDS,VIC,3008,-37.818375,144.94688,1,Studio,Studio,FALSE,0,FALSE,3.37,1.4,1.26,1.23,0.56
17185072,elite,415,FALSE,Aaron Cox,Nelson Alexander Flemington,1/107 Princes Street,FLEMINGTON,VIC,3031,-37.78507,144.93442,1,ApartmentUnitFlat,Apartment / Unit / Flat,FALSE,0,FALSE,2.9,5.77,0.47,0.25,0.13
17185311,elite,630,FALSE,"April Langley, Abby Meehan",Buxton Inner West,5 Loch Street,YARRAVILLE,VIC,3013,-37.81331,144.88248,1,House,House,FALSE,0,FALSE,2.41,4.66,2.24,0.56,0.30
17065727,elite,365,FALSE,Alex Karlis,Trimson Partners,2/6-12 Connelly Street,FLEMINGTON,VIC,3031,-37.783417,144.92345,1,ApartmentUnitFlat,Apartment / Unit / Flat,FALSE,0,FALSE,3.28,4.55,0.99,1.36,0.22
17142253,elite,500,TRUE,"Hugo Banks, Louisa Kelly",Wood Property,1313/568 St Kilda Road,MELBOURNE,VIC,3004,-37.847107,144.97884,1,ApartmentUnitFlat,Apartment / Unit / Flat,FALSE,0,FALSE,6.25,5.41,0.67,1.33,0.79
17143884,elite,500,TRUE,Leasing Team,LJ Hooker Rowville,101/603 St Kilda Road,MELBOURNE,VIC,3004,-37.850864,144.98196,1,ApartmentUnitFlat,Apartment / Unit / Flat,FALSE,0,FALSE,7.3,5.72,0.42,1.24,1.53
17143985,elite,520,FALSE,Simone Shiells,Barry Plant Essendon,36 Liverpool St,FOOTSCRAY,VIC,3011,-37.796413,144.88213,1,House,House,FALSE,0,FALSE,1.87,3.42,1.16,0.32,0.31
17144206,elite,500,FALSE,buymyplace .,buymyplace,1807/231 Harbour Esplanade,DOCKLANDS,VIC,3008,-37.813282,144.9434,1,ApartmentUnitFlat,Apartment / Unit / Flat,FALSE,0,FALSE,2.6,2.23,1.28,0.43,0.79
17144326,elite,500,FALSE,Micckey V Grover,Mancini Real Estate ,3/30 Stephen Street,YARRAVILLE,VIC,3013,-37.811653,144.89505,1,House,House,FALSE,0,FALSE,1.1,5.72,0.96,0.91,0.31
17144332,elite,500,FALSE,Micckey V Grover,Mancini Real Estate ,6/30 Stephen Street,YARRAVILLE,VIC,3013,-37.811653,144.89505,1,House,House,FALSE,0,FALSE,1.1,5.72,0.96,0.91,0.31
17144565,elite,495,FALSE,Danny Campos,LITTLE Real Estate Victoria,304/29 Market Street,MELBOURNE,VIC,3000,-37.818638,144.96048,1,ApartmentUnitFlat,Apartment / Unit / Flat,FALSE,0,FALSE,2.82,1.91,0.73,2.13,0.64
15775506,standardpp,500,FALSE,David Passaro,Gotham Property,T501/348 St Kilda Road,MELBOURNE,VIC,3004,-37.831066,144.97095,1,ApartmentUnitFlat,Apartment / Unit / Flat,FALSE,0,FALSE,4.3,3.89,0.66,2.07,0.72
16573332,standardpp,650,FALSE,Daniel Hamilton,McGrath,806/673 Latrobe Street,DOCKLANDS,VIC,3008,-37.81466,144.94753,2,ApartmentUnitFlat,Apartment / Unit / Flat,FALSE,0,FALSE,2.69,2.14,1.37,0.94,1.03
17071667,standardpp,520,FALSE,Frazer Downes,Hodges South Melbourne,306/470 St Kilda Road,MELBOURNE,VIC,3004,-37.841274,144.97687,1,ApartmentUnitFlat,Apartment / Unit / Flat,FALSE,0,FALSE,5.62,4.71,0.92,1.52,0.17
17087730,standardpp,830,FALSE,Maria Gutterson,Dingle Partners,1610N/889 Collins Street,DOCKLANDS,VIC,3008,-37.820915,144.94186,2,ApartmentUnitFlat,Apartment / Unit / Flat,FALSE,0,FALSE,3.84,1.91,1.78,1.70,0.16
17110394,standardpp,700,FALSE,Frazer Downes,Hodges South Melbourne,18/58 Queens Road,MELBOURNE,VIC,3004,-37.84839,144.9779,1,ApartmentUnitFlat,Apartment / Unit / Flat,FALSE,0,FALSE,6.49,5.32,0.51,1.18,0.61
17112894,standardpp,500,TRUE,Frazer Downes,Hodges South Melbourne,207/470 St Kilda Road,MELBOURNE,VIC,3004,-37.841274,144.97687,1,ApartmentUnitFlat,Apartment / Unit / Flat,FALSE,0,FALSE,5.62,4.71,0.92,1.52,0.17
17115568,standardpp,750,FALSE,Maria Gutterson,Dingle Partners,1105/60 Siddeley Street,DOCKLANDS,VIC,3008,-37.82284,144.95236,1,ApartmentUnitFlat,Apartment / Unit / Flat,FALSE,0,FALSE,3.59,0.97,1.04,1.37,0.64
17115590,standardpp,400,FALSE,"Laura Scott, Alexander Gorejena",aussieproperty.com,1/23-25 Steet Street,FOOTSCRAY,VIC,3011,-37.78856,144.88774,1,ApartmentUnitFlat,Apartment / Unit / Flat,FALSE,0,FALSE,1.51,2.49,1.07,0.75,0.86
17202909,elite,800,FALSE,Francesca Gulluni,Nelson Alexander Fitzroy,19 Lee Street,FLEMINGTON,VIC,3031,-37.78265,144.9295,2,House,House,FALSE,0,FALSE,3.51,5.4,0.58,0.56,0.13
17202941,elite,850,FALSE,"Eva Christodoulou, Dylan Emmett",Lucas Real Estate,3203/100 Harbour Esplanade,DOCKLANDS,VIC,3008,-37.818375,144.94688,2,ApartmentUnitFlat,Apartment / Unit / Flat,FALSE,0,FALSE,3.37,1.4,1.26,1.23,0.56
17202974,elite,750,FALSE,"Eva Christodoulou, Dylan Emmett",Lucas Real Estate,807/8 Waterview Walk,DOCKLANDS,VIC,3008,-37.8197,144.94814,2,ApartmentUnitFlat,Apartment / Unit / Flat,FALSE,0,FALSE,3.63,1.22,1.08,1.57,0.61
17203065,elite,550,FALSE,Raelene Hallmark,McGrath Yarraville,103/12-18 Napier Street,FOOTSCRAY,VIC,3011,-37.805218,144.90521,1,ApartmentUnitFlat,Apartment / Unit / Flat,FALSE,0,FALSE,0.99,4.83,1.11,0.80,0.23
17203287,elite,750,FALSE,"Anthony Watson, Annetta Labb",Reside Real Estate,6 Alice Street,YARRAVILLE,VIC,3013,-37.814037,144.88705,1,House,House,FALSE,240,FALSE,2.03,4.9,2,0.35,0.60
17203580,elite,600,FALSE,Armando Giacon,JMRE Real Estate,6 Coopers Lane,KENSINGTON,VIC,3031,-37.790665,144.92392,1,Townhouse,Townhouse,FALSE,0,FALSE,3.24,5.59,1.18,0.94,0.03
17203654,elite,450,FALSE,"Paul Gervasi, Andrew D'Aprano, Nikki Gervasi",NICOLE GERVASI PROPERTY GROUP,805/408 Lonsdale Street,MELBOURNE,VIC,3000,-37.8126,144.9604,1,ApartmentUnitFlat,Apartment / Unit / Flat,FALSE,0,FALSE,1.87,2.79,0.06,1.68,0.54
17203821,elite,700,FALSE,Nicole Smith,Village Real Estate ,18 Victoria Street,FOOTSCRAY,VIC,3011,-37.799793,144.89278,2,House,House,FALSE,158,FALSE,0.95,3.44,0.1,0.25,0.61
17203913,elite,650,FALSE,Elvis Ng,Apex Investment Alliance,1210/628 Flinders Street,DOCKLANDS,VIC,3008,-37.820972,144.95325,1,ApartmentUnitFlat,Apartment / Unit / Flat,FALSE,0,FALSE,3.38,1.25,0.83,1.77,0.43
17203936,elite,450,FALSE,Rayna Hao,AREAL PROPERTY MELBOURNE,1/44 Geelong Road,FOOTSCRAY,VIC,3011,-37.797005,144.89514,1,ApartmentUnitFlat,Apartment / Unit / Flat,FALSE,0,FALSE,0.48,3.18,0.49,0.63,0.74
17204146,elite,395,FALSE,Caterina Italiano,Woodards Ascot Vale,7/25 Brixton Street,FLEMINGTON,VIC,3031,-37.780945,144.92876,1,ApartmentUnitFlat,Apartment / Unit / Flat,FALSE,0,FALSE,3.42,5.25,0.5,0.52,0.27
13367362,elite,590,FALSE,Stephanie Njomkam,Jas Stephens Real Estate,3 Tuppen Street,YARRAVILLE,VIC,3013,-37.812824,144.87833,1,House,House,FALSE,0,FALSE,2.78,4.98,1.99,0.44,0.62
17182678,elite,570,FALSE,"Alexandria Boyce, April Langley",Buxton Inner West,120 Hyde Street,YARRAVILLE,VIC,3013,-37.813286,144.89716,1,House,House,FALSE,0,FALSE,1.22,5.64,1.08,0.84,0.38
17182939,elite,895,FALSE,"Asa Salimi, Saskia Hill",BRADY residential,2206/8 Sutherland Street,MELBOURNE,VIC,3000,-37.811283,144.96106,2,ApartmentUnitFlat,Apartment / Unit / Flat,FALSE,0,FALSE,1.69,3.02,0.46,1.57,0.36
17183174,elite,475,TRUE,"Mason Wong, Maya Angela",Inner Real Estate NEXTRE,906/568 St Kilda Road,MELBOURNE,VIC,3004,-37.847107,144.97884,1,ApartmentUnitFlat,Apartment / Unit / Flat,FALSE,0,FALSE,6.25,5.41,0.67,1.33,0.79
17183199,elite,550,TRUE,Leasing Team,LJ Hooker Rowville,508/155 Bourke Street,MELBOURNE,VIC,3000,-37.812805,144.96881,1,ApartmentUnitFlat,Apartment / Unit / Flat,FALSE,0,FALSE,2.06,3.17,0.37,1.54,0.37
17183256,elite,750,FALSE,John Harrington,Harrington Earl Estate Agents,609/555 St Kilda Road,MELBOURNE,VIC,3004,-37.847054,144.98068,2,ApartmentUnitFlat,Apartment / Unit / Flat,FALSE,0,FALSE,6.45,5.61,0.41,1.08,0.90
17183659,elite,660,FALSE,Raelene Hallmark,McGrath Yarraville,2A Severn Street,YARRAVILLE,VIC,3013,-37.8128,144.87999,1,Townhouse,Townhouse,FALSE,0,FALSE,2.6,4.83,1.84,0.64,0.64
15391331,elite,430,FALSE,Alex Karlis,Trimson Partners,16/37 Somerville Road,YARRAVILLE,VIC,3013,-37.814106,144.8932,1,ApartmentUnitFlat,Apartment / Unit / Flat,FALSE,0,FALSE,1.65,5.61,1.51,1.08,0.41
17139544,elite,480,FALSE,Gabrielle Perri,The Hopkins Group,408/594 St Kilda Road,MELBOURNE,VIC,3004,-37.849606,144.9799,1,ApartmentUnitFlat,Apartment / Unit / Flat,FALSE,0,FALSE,6.54,5.71,0.55,1.23,0.97
17140251,elite,600,FALSE,Pennisi Leasing Team,Pennisi Real Estate,713/2 Joseph Road,FOOTSCRAY,VIC,3011,-37.800327,144.90956,2,ApartmentUnitFlat,Apartment / Unit / Flat,FALSE,0,FALSE,1.78,4.55,1.52,0.61,0.39
17140469,elite,600,FALSE,"Thembie  Sikwila, Annabelle Munt",MRE,1008/228 La Trobe Street,MELBOURNE,VIC,3000,-37.809616,144.9623,1,ApartmentUnitFlat,Apartment / Unit / Flat,FALSE,0,FALSE,1.67,3.3,0.57,1.54,0.54
17140728,elite,450,FALSE,Kenneth Wu,Professionals First & Co,1008/18 Albert Street,FOOTSCRAY,VIC,3011,-37.801647,144.8977,1,ApartmentUnitFlat,Apartment / Unit / Flat,FALSE,0,FALSE,0.37,4.03,0.49,0.84,0.97
17141635,elite,500,FALSE,"Mason Wong, Somaya Rahimi",Inner Real Estate NEXTRE,1906/39 Lonsdale Street,MELBOURNE,VIC,3000,-37.809906,144.9711,1,ApartmentUnitFlat,Apartment / Unit / Flat,FALSE,0,FALSE,2.12,3.71,0.32,1.05,0.33
17141876,elite,720,FALSE,Juan Hernandez,Lucas Real Estate,2202/421 Docklands Drive,DOCKLANDS,VIC,3008,-37.814857,144.93988,2,ApartmentUnitFlat,Apartment / Unit / Flat,FALSE,0,FALSE,2.93,2.56,1.6,0.27,0.50
16171006,elite,395,FALSE,Japneet Hansen-Thorpe,Burnham Real Estate Footscray,1/232 Nicholson Street,FOOTSCRAY,VIC,3011,-37.80375,144.89864,1,ApartmentUnitFlat,Apartment / Unit / Flat,FALSE,0,FALSE,0.27,4.12,0.39,0.68,0.74
16690702,elite,575,TRUE,"Tali Leckie, Thembie  Sikwila",MRE,7/230-232 Williamstown Road,YARRAVILLE,VIC,3013,-37.813343,144.88301,1,ApartmentUnitFlat,Apartment / Unit / Flat,FALSE,0,FALSE,2.45,4.57,2.16,0.67,0.22
17135924,elite,850,TRUE,Mike Yuan,MICM Real Estate,6108/370 Queen Street,MELBOURNE,VIC,3000,-37.81011,144.95876,2,ApartmentUnitFlat,Apartment / Unit / Flat,FALSE,0,FALSE,1.73,3,0.45,1.39,0.36
17136238,elite,700,FALSE,"Hendy Nora, Edy Halim",Core Realty Pty Ltd,2312/155 Franklin Street,MELBOURNE,VIC,3000,-37.808826,144.95955,1,ApartmentUnitFlat,Apartment / Unit / Flat,FALSE,0,FALSE,1.43,3.28,0.72,1.30,0.16
17136371,elite,525,FALSE,Alex Mees,Ray White Southbank & Port Phillip,411/250 Elizabeth Street,MELBOURNE,VIC,3000,-37.81255,144.96275,1,House,House,FALSE,0,FALSE,1.92,2.86,0.23,1.79,0.59
17136597,elite,950,FALSE,Japneet Hansen-Thorpe,Burnham Real Estate Footscray,1106/8 Joseph Road,FOOTSCRAY,VIC,3011,-37.800327,144.90956,2,ApartmentUnitFlat,Apartment / Unit / Flat,FALSE,0,FALSE,1.78,4.55,1.52,0.61,0.39
17136714,elite,760,FALSE,No Agent Property - VIC,No Agent Property ,2206/639 Lonsdale Street,MELBOURNE,VIC,3000,-37.81501,144.95341,2,ApartmentUnitFlat,Apartment / Unit / Flat,FALSE,0,FALSE,2.56,2.05,0.33,1.36,0.59
17137273,elite,1000,FALSE,"Lakely Shu, Jeff Yu",ELITE REAL ESTATE (ON ELIZABETH STREET),6203/138 Spencer Street,MELBOURNE,VIC,3004,-37.81747,144.95366,2,ApartmentUnitFlat,Apartment / Unit / Flat,FALSE,0,FALSE,2.87,1.69,0.3,1.68,0.22
17137306,elite,500,TRUE,Nelson Wu,CT Real Estate,112/11-17 Cohen Place,MELBOURNE,VIC,3000,-37.81109,144.96895,1,ApartmentUnitFlat,Apartment / Unit / Flat,FALSE,0,FALSE,2.08,3.66,0.53,1.21,0.02
17137447,elite,500,TRUE,William Chin,MICM Real Estate,211/9 Commercial Road,MELBOURNE,VIC,3004,-37.845287,144.97978,1,ApartmentUnitFlat,Apartment / Unit / Flat,FALSE,0,FALSE,6.1,5.27,0.72,1.03,0.65
17137764,elite,850,TRUE,Alex Mees,Ray White Southbank & Port Phillip,203/2 Newquay Promenade,DOCKLANDS,VIC,3008,-37.81412,144.94383,1,ApartmentUnitFlat,Apartment / Unit / Flat,FALSE,0,FALSE,2.72,2.04,0.97,0.54,0.91
17138991,elite,780,FALSE,Steven Wang,Areal Property - Box Hill,905S/883 Collins Street,DOCKLANDS,VIC,3008,-37.821213,144.9424,2,ApartmentUnitFlat,Apartment / Unit / Flat,FALSE,0,FALSE,3.91,1.98,1.85,1.77,0.23
17139104,elite,760,FALSE,Angela Wang,The Onsite Manager,2102/228 La Trobe Street,MELBOURNE,VIC,3000,-37.809616,144.9623,1,ApartmentUnitFlat,Apartment / Unit / Flat,FALSE,0,FALSE,1.67,3.3,0.57,1.54,0.54
16366690,premiumplus,535,FALSE,Daniel Hamilton,McGrath,516/35 Malcolm Street,SOUTH YARRA,VIC,3141,-37.836967,144.99646,1,ApartmentUnitFlat,Apartment / Unit / Flat,FALSE,0,FALSE,6.47,4.98,0.17,1.00,0.91
16825281,premiumplus,475,FALSE,Daniel Hamilton,McGrath,10/54 Rockley Road,SOUTH YARRA,VIC,3141,-37.834843,145.00063,1,ApartmentUnitFlat,Apartment / Unit / Flat,FALSE,0,FALSE,7.79,4.94,1.34,1.45,0.93
17184746,premiumplus,495,FALSE,"Bridgid Nolan, Daniel Hamilton",McGrath,9/403 Toorak Road,SOUTH YARRA,VIC,3141,-37.840385,145.00449,1,ApartmentUnitFlat,Apartment / Unit / Flat,FALSE,0,FALSE,7.33,3.93,1.23,0.56,0.62
17188606,premiumplus,550,FALSE,Carson Mair,Dingle Partners,814/32 Bray Street,SOUTH YARRA,VIC,3141,-37.84447,144.99553,1,ApartmentUnitFlat,Apartment / Unit / Flat,FALSE,0,FALSE,7.48,5.57,0.91,0.86,0.61
17190173,premiumplus,500,FALSE,Tom Koller,Biggin & Scott Stonnington,10/30-32 Tivoli Road,SOUTH YARRA,VIC,3141,-37.838276,144.9986,1,ApartmentUnitFlat,Apartment / Unit / Flat,FALSE,0,FALSE,6.79,4.66,0.49,1.11,0.59
17193168,premiumplus,420,FALSE,Alexander Vingos,Buxton Oakleigh,7 Penny Lane,SOUTH YARRA,VIC,3141,-37.840027,144.99467,1,ApartmentUnitFlat,Apartment / Unit / Flat,FALSE,0,FALSE,6.88,4.92,0.52,1.03,0.84
17195993,premiumplus,700,FALSE,Cameron  Gibson,Buxton Stonnington,12/63 Alexandra Avenue,SOUTH YARRA,VIC,3141,-37.832245,144.98921,1,ApartmentUnitFlat,Apartment / Unit / Flat,FALSE,0,FALSE,5.5,5.81,0.4,0.45,1.56
17196009,premiumplus,560,FALSE,Paul Tunney,Woodards South Yarra,12/32 Darling Street,SOUTH YARRA,VIC,3141,-37.836704,144.99194,1,ApartmentUnitFlat,Apartment / Unit / Flat,FALSE,0,FALSE,6.25,5.35,0.95,0.48,1.27
17196283,premiumplus,525,FALSE,Shermta Flomo,Woodards South Yarra,106/52 Darling Street,SOUTH YARRA,VIC,3141,-37.8354,144.99222,1,ApartmentUnitFlat,Apartment / Unit / Flat,FALSE,0,FALSE,6.1,5.5,0.87,0.33,1.42
17198870,premiumplus,1350,FALSE,Shermta Flomo,Woodards South Yarra,8 Cromwell Crescent,SOUTH YARRA,VIC,3141,-37.84241,144.99942,2,House,House,FALSE,0,FALSE,7.42,4.62,1.11,0.60,0.10
17199598,premiumplus,500,FALSE,Daniel Hamilton,McGrath,107/8 Garden Street,SOUTH YARRA,VIC,3141,-37.84322,144.9956,1,ApartmentUnitFlat,Apartment / Unit / Flat,FALSE,0,FALSE,7.34,5.55,0.77,0.72,0.45
