{
"type": "FeatureCollection",
"name": "hotosm_aus_health_facilities_points_geojson",
"features": [
{ "type": "Feature", "properties": { "name": "Star Discount Chemist", "name:en": null, "amenity": "pharmacy", "building": null, "healthcare": "pharmacy", "healthcare:speciality": null, "operator:type": null, "capacity:persons": null, "addr:full": null, "addr:city": null, "source": null, "osm_id": 359902119, "osm_type": "nodes" }, "geometry": { "type": "Point", "coordinates": [ 151.6601255, -32.9410943 ] } },
{ "type": "Feature", "properties": { "name": null, "name:en": null, "amenity": "doctors", "building": null, "healthcare": "doctor", "healthcare:speciality": null, "operator:type": null, "capacity:persons": null, "addr:full": null, "addr:city": null, "source": null, "osm_id": 359902121, "osm_type": "nodes" }, "geometry": { "type": "Point", "coordinates": [ 151.6601229, -32.9411506 ] } },
{ "type": "Feature", "properties": { "name": "Medical Centre", "name:en": null, "amenity": "doctors", "building": null, "healthcare": null, "healthcare:speciality": null, "operator:type": null, "capacity:persons": null, "addr:full": null, "addr:city": null, "source": null, "osm_id": 363302230, "osm_type": "nodes" }, "geometry": { "type": "Point", "coordinates": [ 147.36870110000001, -35.1186669 ] } },
{ "type": "Feature", "properties": { "name": "Greenslopes Medical Centre", "name:en": null, "amenity": "doctors", "building": null, "healthcare": null, "healthcare:speciality": null, "operator:type": null, "capacity:persons": null, "addr:full": null, "addr:city": null, "source": "survey", "osm_id": 439979738, "osm_type": "nodes" }, "geometry": { "type": "Point", "coordinates": [ 153.0528348, -27.5117013 ] } },
{ "type": "Feature", "properties": { "name": "Kroma Ceramics", "name:en": null, "amenity": "dentist", "building": null, "healthcare": "dentist", "healthcare:speciality": null, "operator:type": null, "capacity:persons": null, "addr:full": null, "addr:city": null, "source": null, "osm_id": 9297755004, "osm_type": "nodes" }, "geometry": { "type": "Point", "coordinates": [ 153.0319955, -27.4026414 ] } },
{ "type": "Feature", "properties": { "name": "Ocean Orthodontics", "name:en": null, "amenity": "dentist", "building": null, "healthcare": "dentist", "healthcare:speciality": "orthodontics", "operator:type": null, "capacity:persons": null, "addr:full": null, "addr:city": null, "source": null, "osm_id": 9294884054, "osm_type": "nodes" }, "geometry": { "type": "Point", "coordinates": [ 153.128724299999988, -26.7193283 ] } },
{ "type": "Feature", "properties": { "name": "Bob's Chemist Newtown", "name:en": null, "amenity": "pharmacy", "building": null, "healthcare": "pharmacy", "healthcare:speciality": null, "operator:type": null, "capacity:persons": null, "addr:full": null, "addr:city": "Newtown", "source": null, "osm_id": 2365231369, "osm_type": "nodes" }, "geometry": { "type": "Point", "coordinates": [ 151.179563, -33.896893 ] } },
{ "type": "Feature", "properties": { "name": "QML Pathology", "name:en": null, "amenity": null, "building": null, "healthcare": "laboratory", "healthcare:speciality": null, "operator:type": null, "capacity:persons": null, "addr:full": null, "addr:city": null, "source": null, "osm_id": 6417175991, "osm_type": "nodes" }, "geometry": { "type": "Point", "coordinates": [ 152.9596818, -27.3970057 ] } },
{ "type": "Feature", "properties": { "name": "Alderley Chiropractic", "name:en": null, "amenity": null, "building": null, "healthcare": "alternative", "healthcare:speciality": "chiropractic", "operator:type": null, "capacity:persons": null, "addr:full": null, "addr:city": null, "source": null, "osm_id": 9297291430, "osm_type": "nodes" }, "geometry": { "type": "Point", "coordinates": [ 153.0011135, -27.4257189 ] } },
{ "type": "Feature", "properties": { "name": "Stay Balanced Physiotherapy", "name:en": null, "amenity": null, "building": null, "healthcare": "physiotherapist", "healthcare:speciality": null, "operator:type": null, "capacity:persons": null, "addr:full": null, "addr:city": null, "source": null, "osm_id": 9297291432, "osm_type": "nodes" }, "geometry": { "type": "Point", "coordinates": [ 153.001466099999988, -27.4262329 ] } },
{ "type": "Feature", "properties": { "name": "TerryWhite Chemmart", "name:en": null, "amenity": "pharmacy", "building": null, "healthcare": "pharmacy", "healthcare:speciality": null, "operator:type": null, "capacity:persons": null, "addr:full": null, "addr:city": null, "source": null, "osm_id": 9294899365, "osm_type": "nodes" }, "geometry": { "type": "Point", "coordinates": [ 153.060270800000012, -26.7143965 ] } },
{ "type": "Feature", "properties": { "name": "Warialda Medical Centre", "name:en": null, "amenity": null, "building": null, "healthcare": "centre", "healthcare:speciality": null, "operator:type": null, "capacity:persons": null, "addr:full": null, "addr:city": null, "source": null, "osm_id": 9294900546, "osm_type": "nodes" }, "geometry": { "type": "Point", "coordinates": [ 150.5729478, -29.5405612 ] } },
{ "type": "Feature", "properties": { "name": "Lightning Ridge Community Health Centre", "name:en": null, "amenity": "doctors", "building": null, "healthcare": null, "healthcare:speciality": null, "operator:type": null, "capacity:persons": null, "addr:full": null, "addr:city": null, "source": null, "osm_id": 429422080, "osm_type": "nodes" }, "geometry": { "type": "Point", "coordinates": [ 147.9811406, -29.4305876 ] } },
{ "type": "Feature", "properties": { "name": "Sparkle Dental", "name:en": null, "amenity": "dentist", "building": null, "healthcare": "dentist", "healthcare:speciality": null, "operator:type": null, "capacity:persons": null, "addr:full": null, "addr:city": null, "source": null, "osm_id": 10751949281, "osm_type": "nodes" }, "geometry": { "type": "Point", "coordinates": [ 115.7704224, -31.7425163 ] } },
{ "type": "Feature", "properties": { "name": "Blue Mountains Family Practice", "name:en": null, "amenity": "doctors", "building": null, "healthcare": null, "healthcare:speciality": null, "operator:type": null, "capacity:persons": null, "addr:full": null, "addr:city": null, "source": "survey", "osm_id": 426899449, "osm_type": "nodes" }, "geometry": { "type": "Point", "coordinates": [ 150.6100243, -33.7444392 ] } },
{ "type": "Feature", "properties": { "name": "Dalyellup Family Medical Centre", "name:en": null, "amenity": null, "building": null, "healthcare": "centre", "healthcare:speciality": null, "operator:type": null, "capacity:persons": null, "addr:full": null, "addr:city": null, "source": null, "osm_id": 7607750783, "osm_type": "nodes" }, "geometry": { "type": "Point", "coordinates": [ 115.6251647, -33.3991466 ] } },
{ "type": "Feature", "properties": { "name": "Chemist Warehouse", "name:en": null, "amenity": "pharmacy", "building": null, "healthcare": "pharmacy", "healthcare:speciality": null, "operator:type": null, "capacity:persons": null, "addr:full": null, "addr:city": null, "source": null, "osm_id": 2047923131, "osm_type": "nodes" }, "geometry": { "type": "Point", "coordinates": [ 144.5885093, -37.486753 ] } },
{ "type": "Feature", "properties": { "name": "Anzac Avenue Dental", "name:en": null, "amenity": "dentist", "building": null, "healthcare": "dentist", "healthcare:speciality": null, "operator:type": null, "capacity:persons": null, "addr:full": null, "addr:city": null, "source": null, "osm_id": 9285562217, "osm_type": "nodes" }, "geometry": { "type": "Point", "coordinates": [ 152.9976167, -27.2499547 ] } },
{ "type": "Feature", "properties": { "name": "TerryWhite Chemmart", "name:en": null, "amenity": "pharmacy", "building": null, "healthcare": "pharmacy", "healthcare:speciality": null, "operator:type": null, "capacity:persons": null, "addr:full": null, "addr:city": null, "source": null, "osm_id": 8277179615, "osm_type": "nodes" }, "geometry": { "type": "Point", "coordinates": [ 151.186646, -33.7943802 ] } },
{ "type": "Feature", "properties": { "name": "Delmont Private Hospital", "name:en": null, "amenity": "hospital", "building": null, "healthcare": "hospital", "healthcare:speciality": null, "operator:type": null, "capacity:persons": null, "addr:full": null, "addr:city": null, "source": null, "osm_id": 1313697291, "osm_type": "nodes" }, "geometry": { "type": "Point", "coordinates": [ 145.0940058, -37.8568969 ] } },
{ "type": "Feature", "properties": { "name": "Chemist Warehouse", "name:en": null, "amenity": "pharmacy", "building": null, "healthcare": "pharmacy", "healthcare:speciality": null, "operator:type": null, "capacity:persons": null, "addr:full": null, "addr:city": "Maroochydore", "source": null, "osm_id": 4388493889, "osm_type": "nodes" }, "geometry": { "type": "Point", "coordinates": [ 153.081535300000013, -26.6515007 ] } },
{ "type": "Feature", "properties": { "name": "Priceline Pharmacy", "name:en": null, "amenity": "pharmacy", "building": null, "healthcare": "pharmacy", "healthcare:speciality": null, "operator:type": null, "capacity:persons": null, "addr:full": null, "addr:city": null, "source": null, "osm_id": 2669348190, "osm_type": "nodes" }, "geometry": { "type": "Point", "coordinates": [ 144.5897082, -37.4849995 ] } },
{ "type": "Feature", "properties": { "name": "Gisborne Medical Centre", "name:en": null, "amenity": "clinic", "building": null, "healthcare": "clinic", "healthcare:speciality": null, "operator:type": null, "capacity:persons": null, "addr:full": null, "addr:city": null, "source": null, "osm_id": 2669348194, "osm_type": "nodes" }, "geometry": { "type": "Point", "coordinates": [ 144.589761900000013, -37.4847058 ] } },
{ "type": "Feature", "properties": { "name": "Vital Health Medical Centre", "name:en": null, "amenity": "clinic", "building": null, "healthcare": "clinic", "healthcare:speciality": null, "operator:type": null, "capacity:persons": null, "addr:full": null, "addr:city": null, "source": null, "osm_id": 6698395868, "osm_type": "nodes" }, "geometry": { "type": "Point", "coordinates": [ 151.224106799999987, -33.9060836 ] } },
{ "type": "Feature", "properties": { "name": "Leeming Chemmart Pharmacy", "name:en": null, "amenity": "pharmacy", "building": null, "healthcare": "pharmacy", "healthcare:speciality": null, "operator:type": null, "capacity:persons": null, "addr:full": null, "addr:city": null, "source": null, "osm_id": 2508428183, "osm_type": "nodes" }, "geometry": { "type": "Point", "coordinates": [ 115.8576255, -32.0786734 ] } },
{ "type": "Feature", "properties": { "name": "Willetton Chemmart Pharmacy", "name:en": null, "amenity": "pharmacy", "building": null, "healthcare": "pharmacy", "healthcare:speciality": null, "operator:type": null, "capacity:persons": null, "addr:full": null, "addr:city": null, "source": null, "osm_id": 2530633810, "osm_type": "nodes" }, "geometry": { "type": "Point", "coordinates": [ 115.8875465, -32.0390562 ] } },
{ "type": "Feature", "properties": { "name": "Good Price Pharmacy Warehouse", "name:en": null, "amenity": "pharmacy", "building": null, "healthcare": "pharmacy", "healthcare:speciality": null, "operator:type": null, "capacity:persons": null, "addr:full": null, "addr:city": null, "source": null, "osm_id": 3950076737, "osm_type": "nodes" }, "geometry": { "type": "Point", "coordinates": [ 115.8697085, -32.0902881 ] } },
{ "type": "Feature", "properties": { "name": "Annandale Eye Care", "name:en": null, "amenity": "clinic", "building": null, "healthcare": "clinic", "healthcare:speciality": "ophthalmology;neuro-opthalmology", "operator:type": null, "capacity:persons": null, "addr:full": null, "addr:city": null, "source": null, "osm_id": 11377158456, "osm_type": "nodes" }, "geometry": { "type": "Point", "coordinates": [ 151.1698002, -33.8812476 ] } },
{ "type": "Feature", "properties": { "name": "Balcombe Road Medical Clinic", "name:en": null, "amenity": "clinic", "building": null, "healthcare": "clinic", "healthcare:speciality": null, "operator:type": null, "capacity:persons": null, "addr:full": null, "addr:city": null, "source": null, "osm_id": 5388536574, "osm_type": "nodes" }, "geometry": { "type": "Point", "coordinates": [ 145.063096300000012, -37.9814869 ] } },
{ "type": "Feature", "properties": { "name": "Noble Manor Aged Care", "name:en": null, "amenity": "hospital", "building": null, "healthcare": "hospital", "healthcare:speciality": null, "operator:type": null, "capacity:persons": null, "addr:full": null, "addr:city": null, "source": null, "osm_id": 5215342570, "osm_type": "nodes" }, "geometry": { "type": "Point", "coordinates": [ 145.173830900000013, -37.9676778 ] } },
{ "type": "Feature", "properties": { "name": "Heatherton Rd Dentist", "name:en": null, "amenity": "dentist", "building": null, "healthcare": "dentist", "healthcare:speciality": null, "operator:type": null, "capacity:persons": null, "addr:full": null, "addr:city": null, "source": null, "osm_id": 5269011991, "osm_type": "nodes" }, "geometry": { "type": "Point", "coordinates": [ 145.1698704, -37.9643846 ] } },
{ "type": "Feature", "properties": { "name": "Noble Park Dental Surgery", "name:en": null, "amenity": "dentist", "building": null, "healthcare": "dentist", "healthcare:speciality": null, "operator:type": null, "capacity:persons": null, "addr:full": null, "addr:city": null, "source": null, "osm_id": 5215344452, "osm_type": "nodes" }, "geometry": { "type": "Point", "coordinates": [ 145.1744845, -37.9671855 ] } },
{ "type": "Feature", "properties": { "name": "Keysborough Dental Surgery", "name:en": null, "amenity": "dentist", "building": null, "healthcare": "dentist", "healthcare:speciality": null, "operator:type": null, "capacity:persons": null, "addr:full": null, "addr:city": null, "source": null, "osm_id": 4054227527, "osm_type": "nodes" }, "geometry": { "type": "Point", "coordinates": [ 145.1755747, -37.9920748 ] } },
{ "type": "Feature", "properties": { "name": "Advantage Pharmacy Maclean", "name:en": null, "amenity": "pharmacy", "building": null, "healthcare": "pharmacy", "healthcare:speciality": null, "operator:type": null, "capacity:persons": null, "addr:full": null, "addr:city": null, "source": null, "osm_id": 11377030885, "osm_type": "nodes" }, "geometry": { "type": "Point", "coordinates": [ 153.197177399999987, -29.4596933 ] } },
{ "type": "Feature", "properties": { "name": "Mason Square Dental", "name:en": null, "amenity": "dentist", "building": null, "healthcare": "dentist", "healthcare:speciality": null, "operator:type": null, "capacity:persons": null, "addr:full": null, "addr:city": null, "source": null, "osm_id": 7604238770, "osm_type": "nodes" }, "geometry": { "type": "Point", "coordinates": [ 144.920987599999989, -37.7652825 ] } },
{ "type": "Feature", "properties": { "name": "Daley Street Dental", "name:en": null, "amenity": "dentist", "building": null, "healthcare": "dentist", "healthcare:speciality": null, "operator:type": null, "capacity:persons": null, "addr:full": null, "addr:city": null, "source": null, "osm_id": 11376086544, "osm_type": "nodes" }, "geometry": { "type": "Point", "coordinates": [ 153.4399292, -28.8422822 ] } },
{ "type": "Feature", "properties": { "name": "Revive Pharmacy", "name:en": null, "amenity": "pharmacy", "building": null, "healthcare": "pharmacy", "healthcare:speciality": null, "operator:type": null, "capacity:persons": null, "addr:full": null, "addr:city": null, "source": null, "osm_id": 11376086567, "osm_type": "nodes" }, "geometry": { "type": "Point", "coordinates": [ 153.342465299999986, -29.071919 ] } },
{ "type": "Feature", "properties": { "name": "Maven Dental", "name:en": null, "amenity": "dentist", "building": null, "healthcare": "dentist", "healthcare:speciality": null, "operator:type": null, "capacity:persons": null, "addr:full": null, "addr:city": null, "source": null, "osm_id": 11376132877, "osm_type": "nodes" }, "geometry": { "type": "Point", "coordinates": [ 153.440621, -28.8409424 ] } },
{ "type": "Feature", "properties": { "name": "Bunbury Regional Hospital", "name:en": null, "amenity": "hospital", "building": null, "healthcare": "hospital", "healthcare:speciality": null, "operator:type": "government", "capacity:persons": null, "addr:full": null, "addr:city": null, "source": null, "osm_id": 127843052, "osm_type": "nodes" }, "geometry": { "type": "Point", "coordinates": [ 115.6486455, -33.3661629 ] } },
{ "type": "Feature", "properties": { "name": "St John of God Hospital", "name:en": null, "amenity": "hospital", "building": null, "healthcare": "hospital", "healthcare:speciality": null, "operator:type": null, "capacity:persons": null, "addr:full": null, "addr:city": null, "source": null, "osm_id": 148974559, "osm_type": "nodes" }, "geometry": { "type": "Point", "coordinates": [ 115.648409, -33.3677508 ] } },
{ "type": "Feature", "properties": { "name": "Wizard Pharmacy", "name:en": null, "amenity": "pharmacy", "building": null, "healthcare": "pharmacy", "healthcare:speciality": null, "operator:type": null, "capacity:persons": null, "addr:full": null, "addr:city": null, "source": null, "osm_id": 691538685, "osm_type": "nodes" }, "geometry": { "type": "Point", "coordinates": [ 115.6452354, -33.3596661 ] } },
{ "type": "Feature", "properties": { "name": "Myhealth Health Hub", "name:en": null, "amenity": "doctors", "building": null, "healthcare": "doctor", "healthcare:speciality": null, "operator:type": null, "capacity:persons": null, "addr:full": null, "addr:city": null, "source": null, "osm_id": 10742526698, "osm_type": "nodes" }, "geometry": { "type": "Point", "coordinates": [ 151.1059539, -33.8129716 ] } },
{ "type": "Feature", "properties": { "name": null, "name:en": null, "amenity": null, "building": null, "healthcare": "yes", "healthcare:speciality": null, "operator:type": null, "capacity:persons": null, "addr:full": null, "addr:city": null, "source": null, "osm_id": 4529580289, "osm_type": "nodes" }, "geometry": { "type": "Point", "coordinates": [ 148.4424366, -36.4429483 ] } },
{ "type": "Feature", "properties": { "name": "Terry White Chemmart", "name:en": null, "amenity": "pharmacy", "building": null, "healthcare": null, "healthcare:speciality": null, "operator:type": null, "capacity:persons": null, "addr:full": null, "addr:city": "Parkdale", "source": null, "osm_id": 5074729422, "osm_type": "nodes" }, "geometry": { "type": "Point", "coordinates": [ 145.0763633, -37.9935881 ] } },
{ "type": "Feature", "properties": { "name": "Murray Street Medical", "name:en": null, "amenity": "doctors", "building": null, "healthcare": "doctor", "healthcare:speciality": "general", "operator:type": null, "capacity:persons": null, "addr:full": null, "addr:city": null, "source": null, "osm_id": 11368192074, "osm_type": "nodes" }, "geometry": { "type": "Point", "coordinates": [ 138.7494321, -34.6000128 ] } },
{ "type": "Feature", "properties": { "name": "Bridgewater Pharmacy", "name:en": null, "amenity": "pharmacy", "building": null, "healthcare": "pharmacy", "healthcare:speciality": null, "operator:type": null, "capacity:persons": null, "addr:full": null, "addr:city": null, "source": null, "osm_id": 729482042, "osm_type": "nodes" }, "geometry": { "type": "Point", "coordinates": [ 138.7597701, -35.0089968 ] } },
{ "type": "Feature", "properties": { "name": "Advantage Pharmacy", "name:en": null, "amenity": "pharmacy", "building": null, "healthcare": "pharmacy", "healthcare:speciality": null, "operator:type": null, "capacity:persons": null, "addr:full": null, "addr:city": null, "source": null, "osm_id": 9180135921, "osm_type": "nodes" }, "geometry": { "type": "Point", "coordinates": [ 153.499848, -28.5530192 ] } },
{ "type": "Feature", "properties": { "name": "Soul Pattinson Chemist", "name:en": null, "amenity": "pharmacy", "building": null, "healthcare": "pharmacy", "healthcare:speciality": null, "operator:type": null, "capacity:persons": null, "addr:full": null, "addr:city": null, "source": null, "osm_id": 11374734925, "osm_type": "nodes" }, "geometry": { "type": "Point", "coordinates": [ 153.5014368, -28.5532344 ] } },
{ "type": "Feature", "properties": { "name": "King Island General Practice", "name:en": null, "amenity": "doctors", "building": null, "healthcare": "doctor", "healthcare:speciality": null, "operator:type": null, "capacity:persons": null, "addr:full": null, "addr:city": null, "source": "voice", "osm_id": 2666771507, "osm_type": "nodes" }, "geometry": { "type": "Point", "coordinates": [ 143.8589464, -39.9300306 ] } },
{ "type": "Feature", "properties": { "name": "Tooth Booth", "name:en": null, "amenity": "dentist", "building": null, "healthcare": "dentist", "healthcare:speciality": null, "operator:type": null, "capacity:persons": null, "addr:full": null, "addr:city": null, "source": null, "osm_id": 4758768156, "osm_type": "nodes" }, "geometry": { "type": "Point", "coordinates": [ 153.0318183, -27.3847781 ] } },
{ "type": "Feature", "properties": { "name": "Chermside Pharmacy", "name:en": null, "amenity": "pharmacy", "building": null, "healthcare": "pharmacy", "healthcare:speciality": null, "operator:type": null, "capacity:persons": null, "addr:full": null, "addr:city": null, "source": null, "osm_id": 4758789039, "osm_type": "nodes" }, "geometry": { "type": "Point", "coordinates": [ 153.0322184, -27.385168 ] } },
{ "type": "Feature", "properties": { "name": "Hearwell Now Hearing Clinic", "name:en": null, "amenity": "clinic", "building": null, "healthcare": "clinic", "healthcare:speciality": null, "operator:type": null, "capacity:persons": null, "addr:full": null, "addr:city": null, "source": null, "osm_id": 3915709450, "osm_type": "nodes" }, "geometry": { "type": "Point", "coordinates": [ 153.0305228, -27.3857458 ] } },
{ "type": "Feature", "properties": { "name": "Bangalow Osteopathy", "name:en": null, "amenity": null, "building": null, "healthcare": "doctor", "healthcare:speciality": "osteopathy", "operator:type": null, "capacity:persons": null, "addr:full": null, "addr:city": null, "source": null, "osm_id": 11374805282, "osm_type": "nodes" }, "geometry": { "type": "Point", "coordinates": [ 153.521714800000012, -28.6848612 ] } },
{ "type": "Feature", "properties": { "name": "TerryWhite Chemmart", "name:en": null, "amenity": "pharmacy", "building": null, "healthcare": "pharmacy", "healthcare:speciality": null, "operator:type": null, "capacity:persons": null, "addr:full": null, "addr:city": null, "source": null, "osm_id": 9252064935, "osm_type": "nodes" }, "geometry": { "type": "Point", "coordinates": [ 115.7481381, -31.7966164 ] } },
{ "type": "Feature", "properties": { "name": "Dental - Peter R. Knaus / Sarath Gamage", "name:en": null, "amenity": "dentist", "building": null, "healthcare": "dentist", "healthcare:speciality": null, "operator:type": null, "capacity:persons": null, "addr:full": null, "addr:city": null, "source": null, "osm_id": 5695786041, "osm_type": "nodes" }, "geometry": { "type": "Point", "coordinates": [ 145.282888500000013, -38.1112231 ] } },
{ "type": "Feature", "properties": { "name": "Hearing Australia", "name:en": null, "amenity": "clinic", "building": null, "healthcare": "clinic", "healthcare:speciality": null, "operator:type": null, "capacity:persons": null, "addr:full": null, "addr:city": null, "source": null, "osm_id": 9247534975, "osm_type": "nodes" }, "geometry": { "type": "Point", "coordinates": [ 145.28218720000001, -38.1127557 ] } },
{ "type": "Feature", "properties": { "name": null, "name:en": null, "amenity": "dentist", "building": null, "healthcare": "dentist", "healthcare:speciality": null, "operator:type": null, "capacity:persons": null, "addr:full": null, "addr:city": null, "source": null, "osm_id": 9247534976, "osm_type": "nodes" }, "geometry": { "type": "Point", "coordinates": [ 145.2823752, -38.1127728 ] } },
{ "type": "Feature", "properties": { "name": "Craigie Medical & Dental Centre", "name:en": null, "amenity": "clinic", "building": null, "healthcare": "clinic", "healthcare:speciality": null, "operator:type": null, "capacity:persons": null, "addr:full": null, "addr:city": null, "source": null, "osm_id": 4315609341, "osm_type": "nodes" }, "geometry": { "type": "Point", "coordinates": [ 115.7659875, -31.7843964 ] } },
{ "type": "Feature", "properties": { "name": "Amcal", "name:en": null, "amenity": "pharmacy", "building": null, "healthcare": "pharmacy", "healthcare:speciality": null, "operator:type": null, "capacity:persons": null, "addr:full": null, "addr:city": null, "source": null, "osm_id": 7862202248, "osm_type": "nodes" }, "geometry": { "type": "Point", "coordinates": [ 115.7656667, -31.7698562 ] } },
{ "type": "Feature", "properties": { "name": "Chatswood Infinity Medical Imaging", "name:en": null, "amenity": null, "building": null, "healthcare": "laboratory", "healthcare:speciality": null, "operator:type": null, "capacity:persons": null, "addr:full": null, "addr:city": null, "source": null, "osm_id": 9249267950, "osm_type": "nodes" }, "geometry": { "type": "Point", "coordinates": [ 151.1864333, -33.7964759 ] } },
{ "type": "Feature", "properties": { "name": "Wynyard Dental Clinic (Oral Health Services Tasmania)", "name:en": null, "amenity": "dentist", "building": null, "healthcare": "dentist", "healthcare:speciality": null, "operator:type": null, "capacity:persons": null, "addr:full": null, "addr:city": null, "source": null, "osm_id": 3148788194, "osm_type": "nodes" }, "geometry": { "type": "Point", "coordinates": [ 145.731105899999989, -40.989003 ] } },
{ "type": "Feature", "properties": { "name": null, "name:en": null, "amenity": "pharmacy", "building": null, "healthcare": "pharmacy", "healthcare:speciality": null, "operator:type": null, "capacity:persons": null, "addr:full": null, "addr:city": null, "source": null, "osm_id": 493881688, "osm_type": "nodes" }, "geometry": { "type": "Point", "coordinates": [ 115.8224161, -31.8191707 ] } },
{ "type": "Feature", "properties": { "name": "Kingsway Medical Centre", "name:en": null, "amenity": "doctors", "building": null, "healthcare": "doctor", "healthcare:speciality": null, "operator:type": null, "capacity:persons": null, "addr:full": null, "addr:city": null, "source": null, "osm_id": 3750524910, "osm_type": "nodes" }, "geometry": { "type": "Point", "coordinates": [ 115.8225433, -31.8190843 ] } },
{ "type": "Feature", "properties": { "name": "Daya X-Ray & Ultrasound Centre", "name:en": null, "amenity": "clinic", "building": null, "healthcare": "clinic", "healthcare:speciality": null, "operator:type": null, "capacity:persons": null, "addr:full": null, "addr:city": null, "source": null, "osm_id": 3143583008, "osm_type": "nodes" }, "geometry": { "type": "Point", "coordinates": [ 115.840106, -31.8300075 ] } },
{ "type": "Feature", "properties": { "name": "St John of God Pathology", "name:en": null, "amenity": "clinic", "building": null, "healthcare": "clinic", "healthcare:speciality": null, "operator:type": null, "capacity:persons": null, "addr:full": null, "addr:city": null, "source": null, "osm_id": 3143583013, "osm_type": "nodes" }, "geometry": { "type": "Point", "coordinates": [ 115.8399517, -31.8301372 ] } },
{ "type": "Feature", "properties": { "name": "Priceline Pharmacy", "name:en": null, "amenity": "pharmacy", "building": null, "healthcare": "pharmacy", "healthcare:speciality": null, "operator:type": null, "capacity:persons": null, "addr:full": null, "addr:city": null, "source": null, "osm_id": 3750531781, "osm_type": "nodes" }, "geometry": { "type": "Point", "coordinates": [ 115.8227083, -31.8181631 ] } },
{ "type": "Feature", "properties": { "name": "Mount View Medical Centre", "name:en": null, "amenity": "doctors", "building": null, "healthcare": "doctor", "healthcare:speciality": null, "operator:type": null, "capacity:persons": null, "addr:full": null, "addr:city": null, "source": null, "osm_id": 9244980773, "osm_type": "nodes" }, "geometry": { "type": "Point", "coordinates": [ 152.796403, -31.6516921 ] } },
{ "type": "Feature", "properties": { "name": "Selby Family Clinic", "name:en": null, "amenity": "doctors", "building": null, "healthcare": "doctor", "healthcare:speciality": null, "operator:type": null, "capacity:persons": null, "addr:full": null, "addr:city": null, "source": null, "osm_id": 1208858703, "osm_type": "nodes" }, "geometry": { "type": "Point", "coordinates": [ 145.3727394, -37.9146528 ] } },
{ "type": "Feature", "properties": { "name": null, "name:en": null, "amenity": null, "building": null, "healthcare": "alternative", "healthcare:speciality": "chiropractic", "operator:type": null, "capacity:persons": null, "addr:full": null, "addr:city": null, "source": null, "osm_id": 9244980727, "osm_type": "nodes" }, "geometry": { "type": "Point", "coordinates": [ 152.79692510000001, -31.6493407 ] } },
{ "type": "Feature", "properties": { "name": "Manilla Pharmacy", "name:en": null, "amenity": "pharmacy", "building": null, "healthcare": "pharmacy", "healthcare:speciality": null, "operator:type": null, "capacity:persons": null, "addr:full": null, "addr:city": null, "source": null, "osm_id": 9494334757, "osm_type": "nodes" }, "geometry": { "type": "Point", "coordinates": [ 150.720229, -30.7472214 ] } },
{ "type": "Feature", "properties": { "name": "UQ Health Service", "name:en": "UQ Health Service", "amenity": "clinic", "building": null, "healthcare": "clinic", "healthcare:speciality": null, "operator:type": null, "capacity:persons": null, "addr:full": null, "addr:city": null, "source": null, "osm_id": 4863086623, "osm_type": "nodes" }, "geometry": { "type": "Point", "coordinates": [ 153.015531399999986, -27.4964361 ] } },
{ "type": "Feature", "properties": { "name": "Pharmacy 777", "name:en": null, "amenity": "pharmacy", "building": null, "healthcare": "pharmacy", "healthcare:speciality": null, "operator:type": null, "capacity:persons": null, "addr:full": null, "addr:city": null, "source": null, "osm_id": 11372459787, "osm_type": "nodes" }, "geometry": { "type": "Point", "coordinates": [ 115.904599, -31.8875384 ] } },
{ "type": "Feature", "properties": { "name": "Dani Walsh Occopational Therapist", "name:en": null, "amenity": null, "building": null, "healthcare": "occupational_therapist", "healthcare:speciality": null, "operator:type": null, "capacity:persons": null, "addr:full": null, "addr:city": null, "source": null, "osm_id": 5609379958, "osm_type": "nodes" }, "geometry": { "type": "Point", "coordinates": [ 151.666247700000014, -30.51322 ] } },
{ "type": "Feature", "properties": { "name": "Rose Bay Pharmacy", "name:en": null, "amenity": "pharmacy", "building": null, "healthcare": null, "healthcare:speciality": null, "operator:type": null, "capacity:persons": null, "addr:full": null, "addr:city": null, "source": null, "osm_id": 4945470762, "osm_type": "nodes" }, "geometry": { "type": "Point", "coordinates": [ 151.2693305, -33.8701685 ] } },
{ "type": "Feature", "properties": { "name": "Annerley Dental", "name:en": null, "amenity": "dentist", "building": null, "healthcare": "dentist", "healthcare:speciality": null, "operator:type": null, "capacity:persons": null, "addr:full": null, "addr:city": null, "source": null, "osm_id": 9235268192, "osm_type": "nodes" }, "geometry": { "type": "Point", "coordinates": [ 153.0301845, -27.5024813 ] } },
{ "type": "Feature", "properties": { "name": "Pathology North", "name:en": null, "amenity": null, "building": null, "healthcare": "laboratory", "healthcare:speciality": null, "operator:type": null, "capacity:persons": null, "addr:full": null, "addr:city": null, "source": null, "osm_id": 7142203671, "osm_type": "nodes" }, "geometry": { "type": "Point", "coordinates": [ 151.655678200000011, -30.5128123 ] } },
{ "type": "Feature", "properties": { "name": "Armidale Foot Clinic", "name:en": null, "amenity": null, "building": null, "healthcare": "podiatrist", "healthcare:speciality": null, "operator:type": null, "capacity:persons": null, "addr:full": null, "addr:city": null, "source": null, "osm_id": 9938336392, "osm_type": "nodes" }, "geometry": { "type": "Point", "coordinates": [ 151.6635073, -30.5137993 ] } },
{ "type": "Feature", "properties": { "name": "4Cyte Pathology", "name:en": null, "amenity": null, "building": null, "healthcare": "laboratory", "healthcare:speciality": null, "operator:type": null, "capacity:persons": null, "addr:full": null, "addr:city": null, "source": null, "osm_id": 619568374, "osm_type": "nodes" }, "geometry": { "type": "Point", "coordinates": [ 144.958634, -37.817108 ] } },
{ "type": "Feature", "properties": { "name": "Blackbutt Medical Centre", "name:en": null, "amenity": "clinic", "building": null, "healthcare": "clinic", "healthcare:speciality": null, "operator:type": null, "capacity:persons": null, "addr:full": null, "addr:city": null, "source": null, "osm_id": 726416042, "osm_type": "nodes" }, "geometry": { "type": "Point", "coordinates": [ 152.1058841, -26.8860632 ] } },
{ "type": "Feature", "properties": { "name": "Blackbutt Chiropractor", "name:en": null, "amenity": null, "building": null, "healthcare": "alternative", "healthcare:speciality": "chiropractic", "operator:type": null, "capacity:persons": null, "addr:full": null, "addr:city": null, "source": null, "osm_id": 6709077160, "osm_type": "nodes" }, "geometry": { "type": "Point", "coordinates": [ 152.1036914, -26.8858033 ] } },
{ "type": "Feature", "properties": { "name": "Priceline Pharmacy", "name:en": null, "amenity": "pharmacy", "building": null, "healthcare": "pharmacy", "healthcare:speciality": null, "operator:type": null, "capacity:persons": null, "addr:full": null, "addr:city": null, "source": null, "osm_id": 9139158991, "osm_type": "nodes" }, "geometry": { "type": "Point", "coordinates": [ 152.958949499999989, -27.1626892 ] } },
{ "type": "Feature", "properties": { "name": "Jandowae Pharmacy", "name:en": null, "amenity": "pharmacy", "building": null, "healthcare": "pharmacy", "healthcare:speciality": null, "operator:type": null, "capacity:persons": null, "addr:full": null, "addr:city": null, "source": null, "osm_id": 9226716576, "osm_type": "nodes" }, "geometry": { "type": "Point", "coordinates": [ 151.108775799999989, -26.7801497 ] } },
{ "type": "Feature", "properties": { "name": "Prestons Dental", "name:en": null, "amenity": "dentist", "building": null, "healthcare": null, "healthcare:speciality": null, "operator:type": null, "capacity:persons": null, "addr:full": null, "addr:city": null, "source": null, "osm_id": 9226989622, "osm_type": "nodes" }, "geometry": { "type": "Point", "coordinates": [ 150.8638665, -33.9500256 ] } },
{ "type": "Feature", "properties": { "name": "Wambo Medical Centre", "name:en": null, "amenity": null, "building": null, "healthcare": "doctor", "healthcare:speciality": null, "operator:type": null, "capacity:persons": null, "addr:full": null, "addr:city": null, "source": null, "osm_id": 9228668396, "osm_type": "nodes" }, "geometry": { "type": "Point", "coordinates": [ 151.1094856, -26.7810269 ] } },
{ "type": "Feature", "properties": { "name": "Eyeballs", "name:en": null, "amenity": null, "building": null, "healthcare": "optometrist", "healthcare:speciality": null, "operator:type": null, "capacity:persons": null, "addr:full": null, "addr:city": "Paddington", "source": null, "osm_id": 5902813543, "osm_type": "nodes" }, "geometry": { "type": "Point", "coordinates": [ 151.2292482, -33.8862002 ] } },
{ "type": "Feature", "properties": { "name": null, "name:en": null, "amenity": "dentist", "building": null, "healthcare": null, "healthcare:speciality": null, "operator:type": null, "capacity:persons": null, "addr:full": null, "addr:city": null, "source": null, "osm_id": 359897138, "osm_type": "nodes" }, "geometry": { "type": "Point", "coordinates": [ 151.6587147, -32.9391269 ] } },
{ "type": "Feature", "properties": { "name": "Wilston Dental Group", "name:en": null, "amenity": "dentist", "building": null, "healthcare": null, "healthcare:speciality": null, "operator:type": null, "capacity:persons": null, "addr:full": null, "addr:city": null, "source": null, "osm_id": 364039765, "osm_type": "nodes" }, "geometry": { "type": "Point", "coordinates": [ 153.0202022, -27.4327659 ] } },
{ "type": "Feature", "properties": { "name": "Coolah Pharmacy", "name:en": null, "amenity": "pharmacy", "building": null, "healthcare": "pharmacy", "healthcare:speciality": null, "operator:type": null, "capacity:persons": null, "addr:full": null, "addr:city": null, "source": null, "osm_id": 10732020355, "osm_type": "nodes" }, "geometry": { "type": "Point", "coordinates": [ 149.7198544, -31.8236987 ] } },
{ "type": "Feature", "properties": { "name": "Priceline Pharmacy", "name:en": null, "amenity": "pharmacy", "building": null, "healthcare": "pharmacy", "healthcare:speciality": null, "operator:type": null, "capacity:persons": null, "addr:full": null, "addr:city": null, "source": null, "osm_id": 9222491900, "osm_type": "nodes" }, "geometry": { "type": "Point", "coordinates": [ 144.8976638, -37.8579127 ] } },
{ "type": "Feature", "properties": { "name": "Wellington Advantage Pharmacy", "name:en": null, "amenity": "pharmacy", "building": null, "healthcare": "pharmacy", "healthcare:speciality": null, "operator:type": null, "capacity:persons": null, "addr:full": null, "addr:city": null, "source": null, "osm_id": 1270765992, "osm_type": "nodes" }, "geometry": { "type": "Point", "coordinates": [ 148.9414564, -32.551857 ] } },
{ "type": "Feature", "properties": { "name": "Ipswich Family Podiatry", "name:en": null, "amenity": null, "building": null, "healthcare": "podiatrist", "healthcare:speciality": null, "operator:type": null, "capacity:persons": null, "addr:full": null, "addr:city": null, "source": null, "osm_id": 9225825007, "osm_type": "nodes" }, "geometry": { "type": "Point", "coordinates": [ 152.7615133, -27.6041976 ] } },
{ "type": "Feature", "properties": { "name": "Mendooran Community Health Centre", "name:en": null, "amenity": null, "building": null, "healthcare": "yes", "healthcare:speciality": null, "operator:type": null, "capacity:persons": null, "addr:full": null, "addr:city": null, "source": null, "osm_id": 10731698010, "osm_type": "nodes" }, "geometry": { "type": "Point", "coordinates": [ 149.1218031, -31.8228789 ] } },
{ "type": "Feature", "properties": { "name": "Coolbellup Family Practice", "name:en": null, "amenity": "clinic", "building": null, "healthcare": "clinic", "healthcare:speciality": null, "operator:type": null, "capacity:persons": null, "addr:full": null, "addr:city": null, "source": null, "osm_id": 9220605135, "osm_type": "nodes" }, "geometry": { "type": "Point", "coordinates": [ 115.8076792, -32.0824486 ] } },
{ "type": "Feature", "properties": { "name": null, "name:en": null, "amenity": "pharmacy", "building": null, "healthcare": "pharmacy", "healthcare:speciality": null, "operator:type": null, "capacity:persons": null, "addr:full": null, "addr:city": null, "source": null, "osm_id": 9219918959, "osm_type": "nodes" }, "geometry": { "type": "Point", "coordinates": [ 151.1220987, -25.3697046 ] } },
{ "type": "Feature", "properties": { "name": "Natza's Wellness and Fitness", "name:en": null, "amenity": null, "building": null, "healthcare": "yes", "healthcare:speciality": null, "operator:type": null, "capacity:persons": null, "addr:full": null, "addr:city": null, "source": null, "osm_id": 9219918960, "osm_type": "nodes" }, "geometry": { "type": "Point", "coordinates": [ 151.1222838, -25.3703298 ] } },
{ "type": "Feature", "properties": { "name": "Station Street Clinic", "name:en": null, "amenity": "doctors", "building": null, "healthcare": null, "healthcare:speciality": null, "operator:type": null, "capacity:persons": null, "addr:full": null, "addr:city": null, "source": null, "osm_id": 356652632, "osm_type": "nodes" }, "geometry": { "type": "Point", "coordinates": [ 145.485154, -38.0791835 ] } },
{ "type": "Feature", "properties": { "name": "Doctors of Cranbourne Bulk Billing Clinic", "name:en": null, "amenity": "clinic", "building": null, "healthcare": "clinic", "healthcare:speciality": null, "operator:type": null, "capacity:persons": null, "addr:full": null, "addr:city": null, "source": null, "osm_id": 9218313694, "osm_type": "nodes" }, "geometry": { "type": "Point", "coordinates": [ 145.2406497, -38.1154774 ] } },
{ "type": "Feature", "properties": { "name": "Pharmacy 4 Less", "name:en": null, "amenity": "pharmacy", "building": null, "healthcare": "pharmacy", "healthcare:speciality": null, "operator:type": null, "capacity:persons": null, "addr:full": null, "addr:city": null, "source": null, "osm_id": 9218313675, "osm_type": "nodes" }, "geometry": { "type": "Point", "coordinates": [ 145.2408896, -38.1155076 ] } },
{ "type": "Feature", "properties": { "name": "Ultimo Medical Practice", "name:en": null, "amenity": "doctors", "building": null, "healthcare": "doctor", "healthcare:speciality": null, "operator:type": null, "capacity:persons": null, "addr:full": null, "addr:city": null, "source": null, "osm_id": 3609960853, "osm_type": "nodes" }, "geometry": { "type": "Point", "coordinates": [ 151.1964366, -33.8836163 ] } },
{ "type": "Feature", "properties": { "name": null, "name:en": null, "amenity": "dentist", "building": null, "healthcare": "dentist", "healthcare:speciality": null, "operator:type": null, "capacity:persons": null, "addr:full": null, "addr:city": null, "source": null, "osm_id": 9216022690, "osm_type": "nodes" }, "geometry": { "type": "Point", "coordinates": [ 145.157164200000011, -38.1123304 ] } },
{ "type": "Feature", "properties": { "name": "Derek Chen", "name:en": null, "amenity": "doctors", "building": null, "healthcare": "doctor", "healthcare:speciality": "surgery", "operator:type": null, "capacity:persons": null, "addr:full": null, "addr:city": null, "source": null, "osm_id": 7113640625, "osm_type": "nodes" }, "geometry": { "type": "Point", "coordinates": [ 115.853032, -32.0792111 ] } },
{ "type": "Feature", "properties": { "name": null, "name:en": null, "amenity": "pharmacy", "building": null, "healthcare": "pharmacy", "healthcare:speciality": null, "operator:type": null, "capacity:persons": null, "addr:full": null, "addr:city": null, "source": null, "osm_id": 2650878575, "osm_type": "nodes" }, "geometry": { "type": "Point", "coordinates": [ 145.1525318, -38.1389891 ] } },
{ "type": "Feature", "properties": { "name": "Meadows Medical Centre", "name:en": null, "amenity": "clinic", "building": null, "healthcare": null, "healthcare:speciality": null, "operator:type": null, "capacity:persons": null, "addr:full": null, "addr:city": "Altona Meadows", "source": null, "osm_id": 4901271939, "osm_type": "nodes" }, "geometry": { "type": "Point", "coordinates": [ 144.7868662, -37.8733757 ] } },
{ "type": "Feature", "properties": { "name": "West Wyalong Dental Surgery", "name:en": null, "amenity": "dentist", "building": null, "healthcare": "dentist", "healthcare:speciality": null, "operator:type": null, "capacity:persons": null, "addr:full": null, "addr:city": null, "source": null, "osm_id": 10728486167, "osm_type": "nodes" }, "geometry": { "type": "Point", "coordinates": [ 147.208184499999987, -33.9233401 ] } },
{ "type": "Feature", "properties": { "name": "Chemmart Pharmacy", "name:en": null, "amenity": "pharmacy", "building": null, "healthcare": "pharmacy", "healthcare:speciality": null, "operator:type": null, "capacity:persons": null, "addr:full": null, "addr:city": null, "source": null, "osm_id": 4726284835, "osm_type": "nodes" }, "geometry": { "type": "Point", "coordinates": [ 115.8611499, -32.1571107 ] } },
{ "type": "Feature", "properties": { "name": "chemist", "name:en": "chemist", "amenity": "pharmacy", "building": null, "healthcare": "pharmacy", "healthcare:speciality": null, "operator:type": null, "capacity:persons": null, "addr:full": null, "addr:city": null, "source": null, "osm_id": 4907027324, "osm_type": "nodes" }, "geometry": { "type": "Point", "coordinates": [ 146.025668700000011, -18.2639774 ] } },
{ "type": "Feature", "properties": { "name": null, "name:en": null, "amenity": "pharmacy", "building": null, "healthcare": "pharmacy", "healthcare:speciality": null, "operator:type": null, "capacity:persons": null, "addr:full": null, "addr:city": null, "source": null, "osm_id": 1494017080, "osm_type": "nodes" }, "geometry": { "type": "Point", "coordinates": [ 145.5826672, -17.2708647 ] } },
{ "type": "Feature", "properties": { "name": "Island Pharmacy and News", "name:en": null, "amenity": "pharmacy", "building": null, "healthcare": "pharmacy", "healthcare:speciality": null, "operator:type": null, "capacity:persons": null, "addr:full": null, "addr:city": null, "source": "survey", "osm_id": 2119308067, "osm_type": "nodes" }, "geometry": { "type": "Point", "coordinates": [ 105.6737804, -10.4205054 ] } },
{ "type": "Feature", "properties": { "name": "ChemMart", "name:en": null, "amenity": "pharmacy", "building": null, "healthcare": "pharmacy", "healthcare:speciality": null, "operator:type": null, "capacity:persons": null, "addr:full": null, "addr:city": null, "source": null, "osm_id": 2491856141, "osm_type": "nodes" }, "geometry": { "type": "Point", "coordinates": [ 115.7209624, -32.5325149 ] } },
{ "type": "Feature", "properties": { "name": "Chemist Warehouse", "name:en": null, "amenity": "pharmacy", "building": null, "healthcare": "pharmacy", "healthcare:speciality": null, "operator:type": null, "capacity:persons": null, "addr:full": null, "addr:city": null, "source": null, "osm_id": 2179164266, "osm_type": "nodes" }, "geometry": { "type": "Point", "coordinates": [ 150.8042873, -34.0724042 ] } },
{ "type": "Feature", "properties": { "name": "Dentistry By Design", "name:en": null, "amenity": "dentist", "building": null, "healthcare": "dentist", "healthcare:speciality": null, "operator:type": null, "capacity:persons": null, "addr:full": null, "addr:city": null, "source": null, "osm_id": 11369885482, "osm_type": "nodes" }, "geometry": { "type": "Point", "coordinates": [ 151.178807, -33.8548432 ] } },
{ "type": "Feature", "properties": { "name": "Smile Dentistry", "name:en": null, "amenity": "dentist", "building": null, "healthcare": "dentist", "healthcare:speciality": null, "operator:type": null, "capacity:persons": null, "addr:full": null, "addr:city": null, "source": null, "osm_id": 11369885483, "osm_type": "nodes" }, "geometry": { "type": "Point", "coordinates": [ 151.1787071, -33.855064 ] } },
{ "type": "Feature", "properties": { "name": "Newport Specialised Therapies", "name:en": null, "amenity": null, "building": null, "healthcare": "yes", "healthcare:speciality": null, "operator:type": null, "capacity:persons": null, "addr:full": null, "addr:city": "Newport", "source": null, "osm_id": 6869002587, "osm_type": "nodes" }, "geometry": { "type": "Point", "coordinates": [ 144.882876, -37.8416705 ] } },
{ "type": "Feature", "properties": { "name": "PharmaSave", "name:en": null, "amenity": "pharmacy", "building": null, "healthcare": "pharmacy", "healthcare:speciality": null, "operator:type": null, "capacity:persons": null, "addr:full": null, "addr:city": null, "source": null, "osm_id": 10727088786, "osm_type": "nodes" }, "geometry": { "type": "Point", "coordinates": [ 150.842912399999989, -33.7699367 ] } },
{ "type": "Feature", "properties": { "name": "Chemist Warehouse", "name:en": null, "amenity": "pharmacy", "building": null, "healthcare": "pharmacy", "healthcare:speciality": null, "operator:type": null, "capacity:persons": null, "addr:full": null, "addr:city": null, "source": null, "osm_id": 10727088787, "osm_type": "nodes" }, "geometry": { "type": "Point", "coordinates": [ 150.8435145, -33.7705655 ] } },
{ "type": "Feature", "properties": { "name": "Mount Eliza Natural Therapies", "name:en": null, "amenity": null, "building": null, "healthcare": "alternative", "healthcare:speciality": "naturopathy", "operator:type": null, "capacity:persons": null, "addr:full": null, "addr:city": null, "source": null, "osm_id": 4880947474, "osm_type": "nodes" }, "geometry": { "type": "Point", "coordinates": [ 145.091182, -38.1833278 ] } },
{ "type": "Feature", "properties": { "name": "Narrandera Dental Centre", "name:en": null, "amenity": "dentist", "building": null, "healthcare": "dentist", "healthcare:speciality": null, "operator:type": null, "capacity:persons": null, "addr:full": null, "addr:city": null, "source": null, "osm_id": 10726979796, "osm_type": "nodes" }, "geometry": { "type": "Point", "coordinates": [ 146.553388899999987, -34.7436214 ] } },
{ "type": "Feature", "properties": { "name": "Laverty Pathology", "name:en": null, "amenity": null, "building": null, "healthcare": "sample_collection", "healthcare:speciality": null, "operator:type": null, "capacity:persons": null, "addr:full": null, "addr:city": null, "source": null, "osm_id": 10726962495, "osm_type": "nodes" }, "geometry": { "type": "Point", "coordinates": [ 146.55346560000001, -34.746866 ] } },
{ "type": "Feature", "properties": { "name": "Capital Chemist", "name:en": null, "amenity": "pharmacy", "building": null, "healthcare": "pharmacy", "healthcare:speciality": null, "operator:type": null, "capacity:persons": null, "addr:full": null, "addr:city": null, "source": null, "osm_id": 10726962496, "osm_type": "nodes" }, "geometry": { "type": "Point", "coordinates": [ 146.553444500000012, -34.7463387 ] } },
{ "type": "Feature", "properties": { "name": "TerryWhite Chemmart", "name:en": null, "amenity": "pharmacy", "building": null, "healthcare": "pharmacy", "healthcare:speciality": null, "operator:type": null, "capacity:persons": null, "addr:full": null, "addr:city": null, "source": null, "osm_id": 10726962502, "osm_type": "nodes" }, "geometry": { "type": "Point", "coordinates": [ 146.5534494, -34.7439548 ] } },
{ "type": "Feature", "properties": { "name": "Marilyn's", "name:en": null, "amenity": "pharmacy", "building": null, "healthcare": "pharmacy", "healthcare:speciality": null, "operator:type": null, "capacity:persons": null, "addr:full": null, "addr:city": null, "source": null, "osm_id": 873159297, "osm_type": "nodes" }, "geometry": { "type": "Point", "coordinates": [ 145.8806665, -34.8061633 ] } },
{ "type": "Feature", "properties": { "name": null, "name:en": null, "amenity": "doctors", "building": null, "healthcare": "doctor", "healthcare:speciality": null, "operator:type": null, "capacity:persons": null, "addr:full": null, "addr:city": null, "source": null, "osm_id": 1982390973, "osm_type": "nodes" }, "geometry": { "type": "Point", "coordinates": [ 145.309262600000011, -38.0109479 ] } },
{ "type": "Feature", "properties": { "name": "Fountain Gate Medical Centre", "name:en": null, "amenity": "doctors", "building": null, "healthcare": "doctor", "healthcare:speciality": null, "operator:type": null, "capacity:persons": null, "addr:full": null, "addr:city": null, "source": "local knowledge", "osm_id": 2588944471, "osm_type": "nodes" }, "geometry": { "type": "Point", "coordinates": [ 145.3120022, -38.0024219 ] } },
{ "type": "Feature", "properties": { "name": "Birkenhead Medical Centre", "name:en": null, "amenity": "doctors", "building": null, "healthcare": "doctor", "healthcare:speciality": null, "operator:type": null, "capacity:persons": null, "addr:full": null, "addr:city": null, "source": null, "osm_id": 10724720796, "osm_type": "nodes" }, "geometry": { "type": "Point", "coordinates": [ 151.1632357, -33.8555087 ] } },
{ "type": "Feature", "properties": { "name": "Mitcham Road Pharmacy", "name:en": null, "amenity": "pharmacy", "building": null, "healthcare": "pharmacy", "healthcare:speciality": null, "operator:type": null, "capacity:persons": null, "addr:full": null, "addr:city": null, "source": null, "osm_id": 1166135962, "osm_type": "nodes" }, "geometry": { "type": "Point", "coordinates": [ 145.1943842, -37.8276083 ] } },
{ "type": "Feature", "properties": { "name": "Rangeview Pharmacy", "name:en": null, "amenity": "pharmacy", "building": null, "healthcare": "pharmacy", "healthcare:speciality": null, "operator:type": null, "capacity:persons": null, "addr:full": null, "addr:city": null, "source": null, "osm_id": 10724774962, "osm_type": "nodes" }, "geometry": { "type": "Point", "coordinates": [ 145.1943886, -37.8275419 ] } },
{ "type": "Feature", "properties": { "name": "Chemist Warehouse", "name:en": null, "amenity": "pharmacy", "building": null, "healthcare": "pharmacy", "healthcare:speciality": null, "operator:type": null, "capacity:persons": null, "addr:full": null, "addr:city": null, "source": null, "osm_id": 1530420310, "osm_type": "nodes" }, "geometry": { "type": "Point", "coordinates": [ 145.1758374, -37.9678399 ] } },
{ "type": "Feature", "properties": { "name": "Genisis Care", "name:en": null, "amenity": "clinic", "building": null, "healthcare": "clinic", "healthcare:speciality": null, "operator:type": null, "capacity:persons": null, "addr:full": null, "addr:city": null, "source": null, "osm_id": 10723068489, "osm_type": "nodes" }, "geometry": { "type": "Point", "coordinates": [ 115.8225337, -31.9417663 ] } },
{ "type": "Feature", "properties": { "name": "Health Matters", "name:en": null, "amenity": "clinic", "building": null, "healthcare": "clinic", "healthcare:speciality": "general", "operator:type": null, "capacity:persons": null, "addr:full": null, "addr:city": null, "source": null, "osm_id": 9196168351, "osm_type": "nodes" }, "geometry": { "type": "Point", "coordinates": [ 152.7956283, -27.5709037 ] } },
{ "type": "Feature", "properties": { "name": "Centro Eye Clinic", "name:en": null, "amenity": "doctors", "building": null, "healthcare": "doctor", "healthcare:speciality": null, "operator:type": null, "capacity:persons": null, "addr:full": null, "addr:city": null, "source": null, "osm_id": 10720800638, "osm_type": "nodes" }, "geometry": { "type": "Point", "coordinates": [ 115.8202882, -31.944837 ] } },
{ "type": "Feature", "properties": { "name": "West Cessnock Medical Practice", "name:en": null, "amenity": "doctors", "building": null, "healthcare": "doctor", "healthcare:speciality": null, "operator:type": null, "capacity:persons": null, "addr:full": null, "addr:city": null, "source": null, "osm_id": 10720800885, "osm_type": "nodes" }, "geometry": { "type": "Point", "coordinates": [ 151.3433911, -32.838613 ] } },
{ "type": "Feature", "properties": { "name": "Campus Pharmacy", "name:en": null, "amenity": "pharmacy", "building": null, "healthcare": "pharmacy", "healthcare:speciality": null, "operator:type": null, "capacity:persons": null, "addr:full": null, "addr:city": null, "source": "local_knowledge", "osm_id": 3413754050, "osm_type": "nodes" }, "geometry": { "type": "Point", "coordinates": [ 145.1326009, -37.9117198 ] } },
{ "type": "Feature", "properties": { "name": null, "name:en": null, "amenity": "doctors", "building": null, "healthcare": "doctor", "healthcare:speciality": null, "operator:type": null, "capacity:persons": null, "addr:full": null, "addr:city": null, "source": null, "osm_id": 604178951, "osm_type": "nodes" }, "geometry": { "type": "Point", "coordinates": [ 145.1439384, -37.9003423 ] } },
{ "type": "Feature", "properties": { "name": "Hazelbrook Pharmacy", "name:en": null, "amenity": "pharmacy", "building": null, "healthcare": "pharmacy", "healthcare:speciality": null, "operator:type": null, "capacity:persons": null, "addr:full": null, "addr:city": null, "source": null, "osm_id": 5237774310, "osm_type": "nodes" }, "geometry": { "type": "Point", "coordinates": [ 150.45303530000001, -33.722098 ] } },
{ "type": "Feature", "properties": { "name": "Australian Red Cross Blood Service", "name:en": null, "amenity": null, "building": null, "healthcare": "blood_donation", "healthcare:speciality": null, "operator:type": null, "capacity:persons": null, "addr:full": null, "addr:city": "Perth", "source": null, "osm_id": 4347308504, "osm_type": "nodes" }, "geometry": { "type": "Point", "coordinates": [ 115.8582246, -31.9524141 ] } },
{ "type": "Feature", "properties": { "name": "Waverley Podiatry Centre", "name:en": null, "amenity": null, "building": null, "healthcare": "podiatrist", "healthcare:speciality": null, "operator:type": null, "capacity:persons": null, "addr:full": null, "addr:city": null, "source": null, "osm_id": 2820066270, "osm_type": "nodes" }, "geometry": { "type": "Point", "coordinates": [ 145.1837501, -37.9211932 ] } },
{ "type": "Feature", "properties": { "name": "Park Avenue Pharmacy", "name:en": null, "amenity": "pharmacy", "building": null, "healthcare": "pharmacy", "healthcare:speciality": null, "operator:type": null, "capacity:persons": null, "addr:full": null, "addr:city": null, "source": null, "osm_id": 2953650596, "osm_type": "nodes" }, "geometry": { "type": "Point", "coordinates": [ 145.2931615, -38.0931603 ] } },
{ "type": "Feature", "properties": { "name": null, "name:en": null, "amenity": "clinic", "building": null, "healthcare": "clinic", "healthcare:speciality": null, "operator:type": null, "capacity:persons": null, "addr:full": null, "addr:city": null, "source": null, "osm_id": 8527263133, "osm_type": "nodes" }, "geometry": { "type": "Point", "coordinates": [ 145.3428313, -38.0344715 ] } },
{ "type": "Feature", "properties": { "name": "PharmaSave", "name:en": null, "amenity": "pharmacy", "building": null, "healthcare": "pharmacy", "healthcare:speciality": null, "operator:type": null, "capacity:persons": null, "addr:full": null, "addr:city": null, "source": null, "osm_id": 1955890105, "osm_type": "nodes" }, "geometry": { "type": "Point", "coordinates": [ 145.346505400000012, -38.0309962 ] } },
{ "type": "Feature", "properties": { "name": "Maxwell Medical Group", "name:en": null, "amenity": "doctors", "building": null, "healthcare": "doctor", "healthcare:speciality": null, "operator:type": null, "capacity:persons": null, "addr:full": null, "addr:city": null, "source": null, "osm_id": 10716155579, "osm_type": "nodes" }, "geometry": { "type": "Point", "coordinates": [ 144.8608304, -37.793822 ] } },
{ "type": "Feature", "properties": { "name": "Altona Chiropractic", "name:en": null, "amenity": null, "building": null, "healthcare": "alternative", "healthcare:speciality": "chiropractic", "operator:type": null, "capacity:persons": null, "addr:full": null, "addr:city": null, "source": null, "osm_id": 10713231678, "osm_type": "nodes" }, "geometry": { "type": "Point", "coordinates": [ 144.8127694, -37.8643873 ] } },
{ "type": "Feature", "properties": { "name": "Specsavers", "name:en": null, "amenity": null, "building": null, "healthcare": "optometrist", "healthcare:speciality": null, "operator:type": null, "capacity:persons": null, "addr:full": null, "addr:city": null, "source": null, "osm_id": 10711723858, "osm_type": "nodes" }, "geometry": { "type": "Point", "coordinates": [ 144.3639176, -38.1476146 ] } },
{ "type": "Feature", "properties": { "name": null, "name:en": null, "amenity": "pharmacy", "building": null, "healthcare": "pharmacy", "healthcare:speciality": null, "operator:type": null, "capacity:persons": null, "addr:full": null, "addr:city": null, "source": null, "osm_id": 2099887162, "osm_type": "nodes" }, "geometry": { "type": "Point", "coordinates": [ 115.7548033, -32.3531857 ] } },
{ "type": "Feature", "properties": { "name": "Balranald Pharmacy", "name:en": null, "amenity": "pharmacy", "building": null, "healthcare": "pharmacy", "healthcare:speciality": null, "operator:type": null, "capacity:persons": null, "addr:full": null, "addr:city": null, "source": null, "osm_id": 2000594400, "osm_type": "nodes" }, "geometry": { "type": "Point", "coordinates": [ 143.5625616, -34.6389358 ] } },
{ "type": "Feature", "properties": { "name": "Nutrition Wisdom Paddington", "name:en": null, "amenity": null, "building": null, "healthcare": "yes", "healthcare:speciality": "nutritionist;dietetics", "operator:type": null, "capacity:persons": null, "addr:full": null, "addr:city": null, "source": null, "osm_id": 10685760435, "osm_type": "nodes" }, "geometry": { "type": "Point", "coordinates": [ 153.0068985, -27.4617734 ] } },
{ "type": "Feature", "properties": { "name": "TerryWhite Chemmart", "name:en": null, "amenity": "pharmacy", "building": null, "healthcare": "pharmacy", "healthcare:speciality": null, "operator:type": null, "capacity:persons": null, "addr:full": null, "addr:city": null, "source": null, "osm_id": 158456743, "osm_type": "nodes" }, "geometry": { "type": "Point", "coordinates": [ 153.0119699, -27.4114114 ] } },
{ "type": "Feature", "properties": { "name": "Nyah West Pharmacy Depot", "name:en": null, "amenity": "pharmacy", "building": null, "healthcare": "pharmacy", "healthcare:speciality": null, "operator:type": null, "capacity:persons": null, "addr:full": null, "addr:city": null, "source": null, "osm_id": 10708009207, "osm_type": "nodes" }, "geometry": { "type": "Point", "coordinates": [ 142.8826446, -35.0529601 ] } },
{ "type": "Feature", "properties": { "name": "Ouyen Pharmacy", "name:en": null, "amenity": "pharmacy", "building": null, "healthcare": "pharmacy", "healthcare:speciality": null, "operator:type": null, "capacity:persons": null, "addr:full": null, "addr:city": null, "source": null, "osm_id": 10707768703, "osm_type": "nodes" }, "geometry": { "type": "Point", "coordinates": [ 142.315162500000014, -35.070555 ] } },
{ "type": "Feature", "properties": { "name": "Clifton Hill Therapies", "name:en": null, "amenity": null, "building": null, "healthcare": "alternative", "healthcare:speciality": null, "operator:type": null, "capacity:persons": null, "addr:full": null, "addr:city": null, "source": null, "osm_id": 10707982358, "osm_type": "nodes" }, "geometry": { "type": "Point", "coordinates": [ 144.9897618, -37.789439 ] } },
{ "type": "Feature", "properties": { "name": null, "name:en": null, "amenity": null, "building": null, "healthcare": "doctor", "healthcare:speciality": "general", "operator:type": null, "capacity:persons": null, "addr:full": null, "addr:city": null, "source": null, "osm_id": 10708009211, "osm_type": "nodes" }, "geometry": { "type": "Point", "coordinates": [ 142.8809795, -35.0508764 ] } },
{ "type": "Feature", "properties": { "name": "QML Pathology", "name:en": null, "amenity": "doctors", "building": null, "healthcare": "doctor", "healthcare:speciality": "pathology", "operator:type": null, "capacity:persons": null, "addr:full": null, "addr:city": null, "source": null, "osm_id": 10707952226, "osm_type": "nodes" }, "geometry": { "type": "Point", "coordinates": [ 153.3854021, -27.8997167 ] } },
{ "type": "Feature", "properties": { "name": "Leslie Chan Herbalist", "name:en": null, "amenity": "clinic", "building": null, "healthcare": "clinic", "healthcare:speciality": null, "operator:type": null, "capacity:persons": null, "addr:full": null, "addr:city": null, "source": null, "osm_id": 5240187414, "osm_type": "nodes" }, "geometry": { "type": "Point", "coordinates": [ 151.2052108, -33.8805566 ] } },
{ "type": "Feature", "properties": { "name": "Mullein Pharmacy", "name:en": null, "amenity": "pharmacy", "building": null, "healthcare": "pharmacy", "healthcare:speciality": null, "operator:type": null, "capacity:persons": null, "addr:full": null, "addr:city": null, "source": null, "osm_id": 5509617949, "osm_type": "nodes" }, "geometry": { "type": "Point", "coordinates": [ 152.9007056, -27.6776329 ] } },
{ "type": "Feature", "properties": { "name": "Smiles on South", "name:en": null, "amenity": "dentist", "building": null, "healthcare": "dentist", "healthcare:speciality": null, "operator:type": null, "capacity:persons": null, "addr:full": null, "addr:city": null, "source": null, "osm_id": 4691628547, "osm_type": "nodes" }, "geometry": { "type": "Point", "coordinates": [ 151.1046589, -33.9105486 ] } },
{ "type": "Feature", "properties": { "name": "MTHCS Dr R.W. Pattinson Aged Hostel", "name:en": null, "amenity": null, "building": null, "healthcare": "yes", "healthcare:speciality": null, "operator:type": null, "capacity:persons": null, "addr:full": null, "addr:city": null, "source": null, "osm_id": 10707895712, "osm_type": "nodes" }, "geometry": { "type": "Point", "coordinates": [ 142.3274257, -35.0713383 ] } },
{ "type": "Feature", "properties": { "name": "Priceline Pharmacy", "name:en": null, "amenity": "pharmacy", "building": null, "healthcare": "pharmacy", "healthcare:speciality": null, "operator:type": null, "capacity:persons": null, "addr:full": null, "addr:city": null, "source": null, "osm_id": 3637147193, "osm_type": "nodes" }, "geometry": { "type": "Point", "coordinates": [ 152.318504, -24.8867536 ] } },
{ "type": "Feature", "properties": { "name": "Childers Pharmacy", "name:en": null, "amenity": "pharmacy", "building": null, "healthcare": "pharmacy", "healthcare:speciality": null, "operator:type": null, "capacity:persons": null, "addr:full": null, "addr:city": null, "source": null, "osm_id": 3823895204, "osm_type": "nodes" }, "geometry": { "type": "Point", "coordinates": [ 152.270338400000014, -25.2322462 ] } },
{ "type": "Feature", "properties": { "name": "Chemist Warehouse", "name:en": null, "amenity": "pharmacy", "building": null, "healthcare": "pharmacy", "healthcare:speciality": null, "operator:type": null, "capacity:persons": null, "addr:full": null, "addr:city": null, "source": null, "osm_id": 5703461280, "osm_type": "nodes" }, "geometry": { "type": "Point", "coordinates": [ 151.2269182, -23.8769196 ] } },
{ "type": "Feature", "properties": { "name": "Priceline Pharmacy", "name:en": null, "amenity": "pharmacy", "building": null, "healthcare": "pharmacy", "healthcare:speciality": null, "operator:type": null, "capacity:persons": null, "addr:full": null, "addr:city": null, "source": null, "osm_id": 5703461270, "osm_type": "nodes" }, "geometry": { "type": "Point", "coordinates": [ 151.24273740000001, -23.8703316 ] } },
{ "type": "Feature", "properties": { "name": "Canley Heights Pharmacy", "name:en": null, "amenity": "pharmacy", "building": null, "healthcare": "pharmacy", "healthcare:speciality": null, "operator:type": null, "capacity:persons": null, "addr:full": null, "addr:city": null, "source": null, "osm_id": 5298897292, "osm_type": "nodes" }, "geometry": { "type": "Point", "coordinates": [ 150.9257882, -33.8837531 ] } },
{ "type": "Feature", "properties": { "name": "Clifton Hill Pharmacy", "name:en": null, "amenity": "pharmacy", "building": null, "healthcare": "pharmacy", "healthcare:speciality": null, "operator:type": null, "capacity:persons": null, "addr:full": null, "addr:city": null, "source": null, "osm_id": 2355625420, "osm_type": "nodes" }, "geometry": { "type": "Point", "coordinates": [ 144.991080899999986, -37.7882248 ] } },
{ "type": "Feature", "properties": { "name": "Clifton Hill Podiatry", "name:en": null, "amenity": null, "building": null, "healthcare": "podiatrist", "healthcare:speciality": null, "operator:type": null, "capacity:persons": null, "addr:full": null, "addr:city": null, "source": null, "osm_id": 10705961371, "osm_type": "nodes" }, "geometry": { "type": "Point", "coordinates": [ 144.989298100000013, -37.7889639 ] } },
{ "type": "Feature", "properties": { "name": "MTHCS Underbool Centre", "name:en": null, "amenity": null, "building": null, "healthcare": "yes", "healthcare:speciality": null, "operator:type": null, "capacity:persons": null, "addr:full": null, "addr:city": null, "source": null, "osm_id": 10705874676, "osm_type": "nodes" }, "geometry": { "type": "Point", "coordinates": [ 141.809700600000014, -35.1711266 ] } },
{ "type": "Feature", "properties": { "name": "Mallee Pharmacies Pinnaroo", "name:en": null, "amenity": "pharmacy", "building": null, "healthcare": "pharmacy", "healthcare:speciality": null, "operator:type": null, "capacity:persons": null, "addr:full": null, "addr:city": null, "source": null, "osm_id": 10705548975, "osm_type": "nodes" }, "geometry": { "type": "Point", "coordinates": [ 140.9080227, -35.2606728 ] } },
{ "type": "Feature", "properties": { "name": "Murrayville Pharmacy", "name:en": null, "amenity": "pharmacy", "building": null, "healthcare": "pharmacy", "healthcare:speciality": null, "operator:type": null, "capacity:persons": null, "addr:full": null, "addr:city": null, "source": null, "osm_id": 10705702383, "osm_type": "nodes" }, "geometry": { "type": "Point", "coordinates": [ 141.1826699, -35.2631334 ] } },
{ "type": "Feature", "properties": { "name": "Coburg Medical & Dental", "name:en": null, "amenity": "dentist", "building": null, "healthcare": "dentist", "healthcare:speciality": null, "operator:type": null, "capacity:persons": null, "addr:full": null, "addr:city": null, "source": null, "osm_id": 6262911191, "osm_type": "nodes" }, "geometry": { "type": "Point", "coordinates": [ 144.966008, -37.7411372 ] } },
{ "type": "Feature", "properties": { "name": "Clare Valley Family Pharmacy", "name:en": null, "amenity": "pharmacy", "building": null, "healthcare": "pharmacy", "healthcare:speciality": null, "operator:type": null, "capacity:persons": null, "addr:full": null, "addr:city": null, "source": null, "osm_id": 3114086586, "osm_type": "nodes" }, "geometry": { "type": "Point", "coordinates": [ 138.6857383, -34.0259698 ] } },
{ "type": "Feature", "properties": { "name": "MTHCS Murrayville Centre", "name:en": null, "amenity": null, "building": null, "healthcare": "yes", "healthcare:speciality": null, "operator:type": null, "capacity:persons": null, "addr:full": null, "addr:city": null, "source": null, "osm_id": 10705702382, "osm_type": "nodes" }, "geometry": { "type": "Point", "coordinates": [ 141.180682499999989, -35.2625434 ] } },
{ "type": "Feature", "properties": { "name": "Newcastle Dermatology", "name:en": null, "amenity": "doctors", "building": null, "healthcare": "doctor", "healthcare:speciality": "dermatology", "operator:type": null, "capacity:persons": null, "addr:full": null, "addr:city": null, "source": null, "osm_id": 3376254961, "osm_type": "nodes" }, "geometry": { "type": "Point", "coordinates": [ 151.7308376, -32.9114749 ] } },
{ "type": "Feature", "properties": { "name": "Priceline Pharmacy", "name:en": null, "amenity": "pharmacy", "building": null, "healthcare": "pharmacy", "healthcare:speciality": null, "operator:type": null, "capacity:persons": null, "addr:full": null, "addr:city": null, "source": null, "osm_id": 8697183686, "osm_type": "nodes" }, "geometry": { "type": "Point", "coordinates": [ 145.2405582, -37.868833 ] } },
{ "type": "Feature", "properties": { "name": "QML Pathology", "name:en": null, "amenity": "doctors", "building": null, "healthcare": "doctor", "healthcare:speciality": "pathology", "operator:type": null, "capacity:persons": null, "addr:full": null, "addr:city": null, "source": null, "osm_id": 10690356455, "osm_type": "nodes" }, "geometry": { "type": "Point", "coordinates": [ 153.323044, -27.9460002 ] } },
{ "type": "Feature", "properties": { "name": "Chempro Chemist Eagleby", "name:en": null, "amenity": "pharmacy", "building": null, "healthcare": "pharmacy", "healthcare:speciality": null, "operator:type": null, "capacity:persons": null, "addr:full": null, "addr:city": null, "source": null, "osm_id": 10864076017, "osm_type": "nodes" }, "geometry": { "type": "Point", "coordinates": [ 153.2125936, -27.7011414 ] } },
{ "type": "Feature", "properties": { "name": "Eagleby Medical Centre", "name:en": null, "amenity": "clinic", "building": null, "healthcare": "clinic", "healthcare:speciality": "general", "operator:type": null, "capacity:persons": null, "addr:full": null, "addr:city": null, "source": null, "osm_id": 10864076019, "osm_type": "nodes" }, "geometry": { "type": "Point", "coordinates": [ 153.2126113, -27.7010769 ] } },
{ "type": "Feature", "properties": { "name": "Dr Michael Tong", "name:en": null, "amenity": "doctors", "building": null, "healthcare": "doctor", "healthcare:speciality": "orthopaedics", "operator:type": null, "capacity:persons": null, "addr:full": null, "addr:city": null, "source": null, "osm_id": 9325978359, "osm_type": "nodes" }, "geometry": { "type": "Point", "coordinates": [ 153.471031399999987, -28.1187368 ] } },
{ "type": "Feature", "properties": { "name": "Varsity Smiles", "name:en": null, "amenity": "dentist", "building": null, "healthcare": "dentist", "healthcare:speciality": null, "operator:type": null, "capacity:persons": null, "addr:full": null, "addr:city": null, "source": null, "osm_id": 9406582348, "osm_type": "nodes" }, "geometry": { "type": "Point", "coordinates": [ 153.42363, -28.0855828 ] } },
{ "type": "Feature", "properties": { "name": "Gold Coast Dental", "name:en": null, "amenity": "dentist", "building": null, "healthcare": "dentist", "healthcare:speciality": null, "operator:type": null, "capacity:persons": null, "addr:full": null, "addr:city": null, "source": null, "osm_id": 6601857064, "osm_type": "nodes" }, "geometry": { "type": "Point", "coordinates": [ 153.4132701, -27.9922817 ] } },
{ "type": "Feature", "properties": { "name": "Priceline Pharmacy", "name:en": null, "amenity": "pharmacy", "building": null, "healthcare": "pharmacy", "healthcare:speciality": null, "operator:type": null, "capacity:persons": null, "addr:full": null, "addr:city": null, "source": null, "osm_id": 9729952431, "osm_type": "nodes" }, "geometry": { "type": "Point", "coordinates": [ 153.313490300000012, -27.8520749 ] } },
{ "type": "Feature", "properties": { "name": null, "name:en": null, "amenity": "dentist", "building": null, "healthcare": null, "healthcare:speciality": null, "operator:type": null, "capacity:persons": null, "addr:full": null, "addr:city": null, "source": null, "osm_id": 7138949404, "osm_type": "nodes" }, "geometry": { "type": "Point", "coordinates": [ 151.1175539, -33.7186659 ] } },
{ "type": "Feature", "properties": { "name": "Lock Pharmacy", "name:en": null, "amenity": "pharmacy", "building": null, "healthcare": "pharmacy", "healthcare:speciality": null, "operator:type": null, "capacity:persons": null, "addr:full": null, "addr:city": null, "source": null, "osm_id": 10684673393, "osm_type": "nodes" }, "geometry": { "type": "Point", "coordinates": [ 135.7558277, -33.5677488 ] } },
{ "type": "Feature", "properties": { "name": "Eucla Health Centre", "name:en": null, "amenity": "clinic", "building": null, "healthcare": null, "healthcare:speciality": null, "operator:type": null, "capacity:persons": null, "addr:full": null, "addr:city": null, "source": null, "osm_id": 2746955843, "osm_type": "nodes" }, "geometry": { "type": "Point", "coordinates": [ 128.8887025, -31.6763999 ] } },
{ "type": "Feature", "properties": { "name": "Lock Community Health and Welfare Centre", "name:en": null, "amenity": null, "building": null, "healthcare": "doctor", "healthcare:speciality": "general", "operator:type": null, "capacity:persons": null, "addr:full": null, "addr:city": null, "source": null, "osm_id": 10687393495, "osm_type": "nodes" }, "geometry": { "type": "Point", "coordinates": [ 135.7558367, -33.5654624 ] } },
{ "type": "Feature", "properties": { "name": "Eyre Eye Centre", "name:en": null, "amenity": null, "building": null, "healthcare": "optometrist", "healthcare:speciality": null, "operator:type": null, "capacity:persons": null, "addr:full": null, "addr:city": null, "source": null, "osm_id": 10684579854, "osm_type": "nodes" }, "geometry": { "type": "Point", "coordinates": [ 133.674024300000013, -32.1231508 ] } },
{ "type": "Feature", "properties": { "name": "West Coast Active Living and Physiotherapy", "name:en": null, "amenity": null, "building": null, "healthcare": "physiotherapist", "healthcare:speciality": null, "operator:type": null, "capacity:persons": null, "addr:full": null, "addr:city": null, "source": null, "osm_id": 10684579860, "osm_type": "nodes" }, "geometry": { "type": "Point", "coordinates": [ 133.674050099999988, -32.1256362 ] } },
{ "type": "Feature", "properties": { "name": "Eyre Health", "name:en": null, "amenity": null, "building": null, "healthcare": "doctor", "healthcare:speciality": "general;naturopathy", "operator:type": null, "capacity:persons": null, "addr:full": null, "addr:city": null, "source": null, "osm_id": 10684579861, "osm_type": "nodes" }, "geometry": { "type": "Point", "coordinates": [ 133.673975, -32.125852 ] } },
{ "type": "Feature", "properties": { "name": "Silverchain Eucla", "name:en": null, "amenity": null, "building": null, "healthcare": "nurse", "healthcare:speciality": "general;emergency", "operator:type": null, "capacity:persons": null, "addr:full": null, "addr:city": null, "source": null, "osm_id": 10684251638, "osm_type": "nodes" }, "geometry": { "type": "Point", "coordinates": [ 128.889391499999988, -31.6763866 ] } },
{ "type": "Feature", "properties": { "name": "Amcal", "name:en": null, "amenity": "pharmacy", "building": null, "healthcare": "pharmacy", "healthcare:speciality": null, "operator:type": null, "capacity:persons": null, "addr:full": null, "addr:city": null, "source": null, "osm_id": 10682977539, "osm_type": "nodes" }, "geometry": { "type": "Point", "coordinates": [ 115.9862812, -32.1477184 ] } },
{ "type": "Feature", "properties": { "name": "Haynes Medical Centre", "name:en": null, "amenity": "doctors", "building": null, "healthcare": "doctor", "healthcare:speciality": null, "operator:type": null, "capacity:persons": null, "addr:full": null, "addr:city": null, "source": null, "osm_id": 10682977544, "osm_type": "nodes" }, "geometry": { "type": "Point", "coordinates": [ 115.9860794, -32.1478762 ] } },
{ "type": "Feature", "properties": { "name": null, "name:en": null, "amenity": "pharmacy", "building": null, "healthcare": "pharmacy", "healthcare:speciality": null, "operator:type": null, "capacity:persons": null, "addr:full": null, "addr:city": null, "source": null, "osm_id": 2381880661, "osm_type": "nodes" }, "geometry": { "type": "Point", "coordinates": [ 145.0932526, -37.8355553 ] } },
{ "type": "Feature", "properties": { "name": null, "name:en": null, "amenity": "doctors", "building": null, "healthcare": "doctor", "healthcare:speciality": null, "operator:type": null, "capacity:persons": null, "addr:full": null, "addr:city": null, "source": null, "osm_id": 2381880667, "osm_type": "nodes" }, "geometry": { "type": "Point", "coordinates": [ 145.093113100000011, -37.8355384 ] } },
{ "type": "Feature", "properties": { "name": "Ravensthorpe Pharmacy", "name:en": null, "amenity": "pharmacy", "building": null, "healthcare": "pharmacy", "healthcare:speciality": null, "operator:type": null, "capacity:persons": null, "addr:full": null, "addr:city": null, "source": null, "osm_id": 10647978490, "osm_type": "nodes" }, "geometry": { "type": "Point", "coordinates": [ 120.0485126, -33.5818048 ] } },
{ "type": "Feature", "properties": { "name": "Balmoral Dental Centre - Dentist Bulimba", "name:en": null, "amenity": "dentist", "building": null, "healthcare": "dentist", "healthcare:speciality": "dentistry", "operator:type": null, "capacity:persons": null, "addr:full": null, "addr:city": "Brisbane", "source": "Brisbane City Council;osm notes", "osm_id": 6329990930, "osm_type": "nodes" }, "geometry": { "type": "Point", "coordinates": [ 153.061432599999989, -27.4513361 ] } },
{ "type": "Feature", "properties": { "name": "Eli's Place Allied Health", "name:en": null, "amenity": "clinic", "building": null, "healthcare": "clinic", "healthcare:speciality": null, "operator:type": null, "capacity:persons": null, "addr:full": null, "addr:city": null, "source": null, "osm_id": 11368278353, "osm_type": "nodes" }, "geometry": { "type": "Point", "coordinates": [ 153.1846746, -27.6734243 ] } },
{ "type": "Feature", "properties": { "name": "M1 Psychology", "name:en": null, "amenity": "clinic", "building": null, "healthcare": "clinic", "healthcare:speciality": "psychiatry", "operator:type": null, "capacity:persons": null, "addr:full": null, "addr:city": null, "source": null, "osm_id": 11303824828, "osm_type": "nodes" }, "geometry": { "type": "Point", "coordinates": [ 153.184537799999987, -27.6734802 ] } },
{ "type": "Feature", "properties": { "name": "M+M Fitness", "name:en": null, "amenity": null, "building": null, "healthcare": "alternative", "healthcare:speciality": "naturopathy", "operator:type": null, "capacity:persons": null, "addr:full": null, "addr:city": null, "source": null, "osm_id": 11368278348, "osm_type": "nodes" }, "geometry": { "type": "Point", "coordinates": [ 153.1849072, -27.6736114 ] } },
{ "type": "Feature", "properties": { "name": "Great Wall", "name:en": null, "amenity": null, "building": null, "healthcare": "alternative", "healthcare:speciality": null, "operator:type": null, "capacity:persons": null, "addr:full": null, "addr:city": null, "source": null, "osm_id": 10677199278, "osm_type": "nodes" }, "geometry": { "type": "Point", "coordinates": [ 151.0878148, -33.9647368 ] } },
{ "type": "Feature", "properties": { "name": "Penshurst Physiotherapy", "name:en": null, "amenity": null, "building": null, "healthcare": "physiotherapist", "healthcare:speciality": null, "operator:type": null, "capacity:persons": null, "addr:full": null, "addr:city": null, "source": null, "osm_id": 10677199289, "osm_type": "nodes" }, "geometry": { "type": "Point", "coordinates": [ 151.0874053, -33.9642611 ] } },
{ "type": "Feature", "properties": { "name": "Norseman Gold Pharmacy", "name:en": null, "amenity": "pharmacy", "building": null, "healthcare": "pharmacy", "healthcare:speciality": null, "operator:type": null, "capacity:persons": null, "addr:full": null, "addr:city": null, "source": null, "osm_id": 10239555343, "osm_type": "nodes" }, "geometry": { "type": "Point", "coordinates": [ 121.7801211, -32.198632 ] } },
{ "type": "Feature", "properties": { "name": null, "name:en": null, "amenity": "pharmacy", "building": null, "healthcare": "pharmacy", "healthcare:speciality": null, "operator:type": null, "capacity:persons": null, "addr:full": null, "addr:city": null, "source": null, "osm_id": 10669515878, "osm_type": "nodes" }, "geometry": { "type": "Point", "coordinates": [ 115.9658719, -32.0136347 ] } },
{ "type": "Feature", "properties": { "name": "Bradshaws Pharmacy", "name:en": null, "amenity": "pharmacy", "building": null, "healthcare": "pharmacy", "healthcare:speciality": null, "operator:type": null, "capacity:persons": null, "addr:full": null, "addr:city": null, "source": null, "osm_id": 10656636002, "osm_type": "nodes" }, "geometry": { "type": "Point", "coordinates": [ 121.8914125, -33.8619129 ] } },
{ "type": "Feature", "properties": { "name": "Forrest Road GP", "name:en": null, "amenity": "doctors", "building": null, "healthcare": "doctor", "healthcare:speciality": "general", "operator:type": null, "capacity:persons": null, "addr:full": null, "addr:city": null, "source": null, "osm_id": 10657636154, "osm_type": "nodes" }, "geometry": { "type": "Point", "coordinates": [ 116.0080312, -32.1530161 ] } },
{ "type": "Feature", "properties": { "name": "Esperance Bay Dental", "name:en": null, "amenity": "dentist", "building": null, "healthcare": "dentist", "healthcare:speciality": null, "operator:type": null, "capacity:persons": null, "addr:full": null, "addr:city": null, "source": null, "osm_id": 10656531619, "osm_type": "nodes" }, "geometry": { "type": "Point", "coordinates": [ 121.8986639, -33.8537581 ] } },
{ "type": "Feature", "properties": { "name": "Banksia Medical and Health", "name:en": null, "amenity": "dentist", "building": null, "healthcare": "dentist", "healthcare:speciality": null, "operator:type": null, "capacity:persons": null, "addr:full": null, "addr:city": null, "source": null, "osm_id": 10656531620, "osm_type": "nodes" }, "geometry": { "type": "Point", "coordinates": [ 121.895121, -33.8568225 ] } },
{ "type": "Feature", "properties": { "name": "Bannockburn Surgery", "name:en": null, "amenity": "doctors", "building": null, "healthcare": "doctor", "healthcare:speciality": null, "operator:type": null, "capacity:persons": null, "addr:full": null, "addr:city": "Bannockburn", "source": null, "osm_id": 2670887497, "osm_type": "nodes" }, "geometry": { "type": "Point", "coordinates": [ 144.171335199999987, -38.045763 ] } },
{ "type": "Feature", "properties": { "name": "Options Optometrist Belmont", "name:en": null, "amenity": null, "building": null, "healthcare": "optometrist", "healthcare:speciality": "optometry", "operator:type": null, "capacity:persons": null, "addr:full": null, "addr:city": null, "source": null, "osm_id": 10672347384, "osm_type": "nodes" }, "geometry": { "type": "Point", "coordinates": [ 115.9353316, -31.9638441 ] } },
{ "type": "Feature", "properties": { "name": "Options Optometrists Livingston Marketplace", "name:en": null, "amenity": null, "building": null, "healthcare": "optometrist", "healthcare:speciality": "optometry", "operator:type": null, "capacity:persons": null, "addr:full": null, "addr:city": null, "source": null, "osm_id": 10672521697, "osm_type": "nodes" }, "geometry": { "type": "Point", "coordinates": [ 115.9176878, -32.0855754 ] } },
{ "type": "Feature", "properties": { "name": "Options Optometrists Joondalup", "name:en": null, "amenity": null, "building": null, "healthcare": "optometrist", "healthcare:speciality": "optometry", "operator:type": null, "capacity:persons": null, "addr:full": null, "addr:city": null, "source": null, "osm_id": 10672525660, "osm_type": "nodes" }, "geometry": { "type": "Point", "coordinates": [ 115.7656013, -31.7436006 ] } },
{ "type": "Feature", "properties": { "name": "Options Optometrists Clarkson Ocean Keys", "name:en": null, "amenity": null, "building": null, "healthcare": "optometrist", "healthcare:speciality": "optometry", "operator:type": null, "capacity:persons": null, "addr:full": null, "addr:city": null, "source": null, "osm_id": 10672527227, "osm_type": "nodes" }, "geometry": { "type": "Point", "coordinates": [ 115.717767, -31.6900111 ] } },
{ "type": "Feature", "properties": { "name": "Options Optometrists Midland Gate", "name:en": null, "amenity": null, "building": null, "healthcare": "optometrist", "healthcare:speciality": "optometry", "operator:type": null, "capacity:persons": null, "addr:full": null, "addr:city": null, "source": null, "osm_id": 10672545663, "osm_type": "nodes" }, "geometry": { "type": "Point", "coordinates": [ 116.0097512, -31.8896557 ] } },
{ "type": "Feature", "properties": { "name": "Options Optometrists Morley Galleria", "name:en": null, "amenity": null, "building": null, "healthcare": "optometrist", "healthcare:speciality": "optometry", "operator:type": null, "capacity:persons": null, "addr:full": null, "addr:city": null, "source": null, "osm_id": 10672539193, "osm_type": "nodes" }, "geometry": { "type": "Point", "coordinates": [ 115.8982254, -31.8968381 ] } },
{ "type": "Feature", "properties": { "name": "Donnybrook Physiotherapy", "name:en": null, "amenity": null, "building": null, "healthcare": "physiotherapist", "healthcare:speciality": null, "operator:type": null, "capacity:persons": null, "addr:full": null, "addr:city": null, "source": null, "osm_id": 5968259605, "osm_type": "nodes" }, "geometry": { "type": "Point", "coordinates": [ 115.8250034, -33.5746462 ] } },
{ "type": "Feature", "properties": { "name": "Podiatrist", "name:en": null, "amenity": null, "building": null, "healthcare": "podiatrist", "healthcare:speciality": null, "operator:type": null, "capacity:persons": null, "addr:full": null, "addr:city": null, "source": null, "osm_id": 5968260553, "osm_type": "nodes" }, "geometry": { "type": "Point", "coordinates": [ 115.8250382, -33.5747193 ] } },
{ "type": "Feature", "properties": { "name": "Donnybrook Chiropratic Clinic", "name:en": null, "amenity": null, "building": null, "healthcare": "alternative", "healthcare:speciality": "chiropractic", "operator:type": null, "capacity:persons": null, "addr:full": null, "addr:city": null, "source": null, "osm_id": 1836140011, "osm_type": "nodes" }, "geometry": { "type": "Point", "coordinates": [ 115.8227878, -33.5704571 ] } },
{ "type": "Feature", "properties": { "name": "Donnybrook Family Doctors", "name:en": null, "amenity": null, "building": null, "healthcare": "doctor", "healthcare:speciality": "general", "operator:type": null, "capacity:persons": null, "addr:full": null, "addr:city": null, "source": null, "osm_id": 10660028587, "osm_type": "nodes" }, "geometry": { "type": "Point", "coordinates": [ 115.8248221, -33.5742652 ] } },
{ "type": "Feature", "properties": { "name": "Esperance Family Practice", "name:en": null, "amenity": null, "building": null, "healthcare": "doctor", "healthcare:speciality": "general", "operator:type": null, "capacity:persons": null, "addr:full": null, "addr:city": null, "source": null, "osm_id": 10656636008, "osm_type": "nodes" }, "geometry": { "type": "Point", "coordinates": [ 121.8908318, -33.8645622 ] } },
{ "type": "Feature", "properties": { "name": "Dr C Harris and Associates - Dental Surgery", "name:en": null, "amenity": null, "building": null, "healthcare": "dentist", "healthcare:speciality": "dentist;orthodontics", "operator:type": null, "capacity:persons": null, "addr:full": null, "addr:city": null, "source": null, "osm_id": 10656636009, "osm_type": "nodes" }, "geometry": { "type": "Point", "coordinates": [ 121.890889, -33.8645701 ] } },
{ "type": "Feature", "properties": { "name": null, "name:en": null, "amenity": null, "building": null, "healthcare": "physiotherapist", "healthcare:speciality": null, "operator:type": null, "capacity:persons": null, "addr:full": null, "addr:city": null, "source": null, "osm_id": 10656815983, "osm_type": "nodes" }, "geometry": { "type": "Point", "coordinates": [ 152.4994159, -32.1742795 ] } },
{ "type": "Feature", "properties": { "name": "Esperance Podiatry", "name:en": null, "amenity": null, "building": null, "healthcare": "podiatrist", "healthcare:speciality": "podiatry", "operator:type": null, "capacity:persons": null, "addr:full": null, "addr:city": null, "source": null, "osm_id": 10656699114, "osm_type": "nodes" }, "geometry": { "type": "Point", "coordinates": [ 121.891186, -33.8646114 ] } },
{ "type": "Feature", "properties": { "name": "Connect Hearing", "name:en": null, "amenity": null, "building": null, "healthcare": "audiologist", "healthcare:speciality": null, "operator:type": null, "capacity:persons": null, "addr:full": null, "addr:city": null, "source": null, "osm_id": 10656699115, "osm_type": "nodes" }, "geometry": { "type": "Point", "coordinates": [ 121.8911032, -33.8645999 ] } },
{ "type": "Feature", "properties": { "name": "Main St Medical Centre - Bulk Bill Available", "name:en": null, "amenity": "doctors", "building": null, "healthcare": null, "healthcare:speciality": null, "operator:type": null, "capacity:persons": null, "addr:full": null, "addr:city": "Beenleigh", "source": null, "osm_id": 745975101, "osm_type": "nodes" }, "geometry": { "type": "Point", "coordinates": [ 153.2136812, -27.7242196 ] } },
{ "type": "Feature", "properties": { "name": "TerryWhite Chemmart", "name:en": null, "amenity": "pharmacy", "building": null, "healthcare": "pharmacy", "healthcare:speciality": null, "operator:type": null, "capacity:persons": null, "addr:full": null, "addr:city": null, "source": null, "osm_id": 9215820610, "osm_type": "nodes" }, "geometry": { "type": "Point", "coordinates": [ 153.213733100000013, -27.7241447 ] } },
{ "type": "Feature", "properties": { "name": "Hopetoun Beachfront Chemist", "name:en": null, "amenity": "pharmacy", "building": null, "healthcare": "pharmacy", "healthcare:speciality": null, "operator:type": null, "capacity:persons": null, "addr:full": null, "addr:city": null, "source": null, "osm_id": 2428758442, "osm_type": "nodes" }, "geometry": { "type": "Point", "coordinates": [ 120.1261308, -33.9501946 ] } },
{ "type": "Feature", "properties": { "name": "Campus Health Clinic Wollongong University", "name:en": null, "amenity": "doctors", "building": null, "healthcare": "doctor", "healthcare:speciality": null, "operator:type": null, "capacity:persons": null, "addr:full": null, "addr:city": null, "source": null, "osm_id": 1345463400, "osm_type": "nodes" }, "geometry": { "type": "Point", "coordinates": [ 150.879359, -34.4077709 ] } },
{ "type": "Feature", "properties": { "name": "ihear", "name:en": null, "amenity": null, "building": null, "healthcare": "audiologist", "healthcare:speciality": null, "operator:type": null, "capacity:persons": null, "addr:full": null, "addr:city": null, "source": null, "osm_id": 10650775749, "osm_type": "nodes" }, "geometry": { "type": "Point", "coordinates": [ 120.1164746, -33.9422961 ] } },
{ "type": "Feature", "properties": { "name": "Livingston Medical - Hopetoun Medical Centre", "name:en": null, "amenity": null, "building": null, "healthcare": "doctor", "healthcare:speciality": "general", "operator:type": null, "capacity:persons": null, "addr:full": null, "addr:city": null, "source": null, "osm_id": 2428758437, "osm_type": "nodes" }, "geometry": { "type": "Point", "coordinates": [ 120.1269773, -33.9478685 ] } },
{ "type": "Feature", "properties": { "name": "Livingston Medical - Ravensthorpe Medical Centre", "name:en": null, "amenity": null, "building": null, "healthcare": "doctor", "healthcare:speciality": "general", "operator:type": null, "capacity:persons": null, "addr:full": null, "addr:city": null, "source": null, "osm_id": 10648211359, "osm_type": "nodes" }, "geometry": { "type": "Point", "coordinates": [ 120.0453873, -33.5842647 ] } },
{ "type": "Feature", "properties": { "name": "Action Psychology SA", "name:en": null, "amenity": null, "building": null, "healthcare": "psychotherapist", "healthcare:speciality": null, "operator:type": null, "capacity:persons": null, "addr:full": null, "addr:city": null, "source": null, "osm_id": 11368135564, "osm_type": "nodes" }, "geometry": { "type": "Point", "coordinates": [ 138.7485642, -34.6036542 ] } },
{ "type": "Feature", "properties": { "name": "Newdegate Medical Centre", "name:en": null, "amenity": null, "building": null, "healthcare": "doctor", "healthcare:speciality": "general", "operator:type": null, "capacity:persons": null, "addr:full": null, "addr:city": null, "source": null, "osm_id": 10629721598, "osm_type": "nodes" }, "geometry": { "type": "Point", "coordinates": [ 119.0252037, -33.0945955 ] } },
{ "type": "Feature", "properties": { "name": "Priceline Pharmacy", "name:en": null, "amenity": "pharmacy", "building": null, "healthcare": "pharmacy", "healthcare:speciality": null, "operator:type": null, "capacity:persons": null, "addr:full": null, "addr:city": null, "source": null, "osm_id": 10617374036, "osm_type": "nodes" }, "geometry": { "type": "Point", "coordinates": [ 150.176274799999987, -35.7060981 ] } },
{ "type": "Feature", "properties": { "name": "Glenelg 7 day pharmacy", "name:en": null, "amenity": "pharmacy", "building": null, "healthcare": "pharmacy", "healthcare:speciality": null, "operator:type": null, "capacity:persons": null, "addr:full": null, "addr:city": null, "source": null, "osm_id": 4784302835, "osm_type": "nodes" }, "geometry": { "type": "Point", "coordinates": [ 138.5149963, -34.9803915 ] } },
{ "type": "Feature", "properties": { "name": "Mt Barker Country Chemist", "name:en": null, "amenity": "pharmacy", "building": null, "healthcare": "pharmacy", "healthcare:speciality": null, "operator:type": null, "capacity:persons": null, "addr:full": null, "addr:city": null, "source": null, "osm_id": 10610380576, "osm_type": "nodes" }, "geometry": { "type": "Point", "coordinates": [ 117.6619526, -34.6267725 ] } },
{ "type": "Feature", "properties": { "name": "Community and Child Health Services", "name:en": null, "amenity": null, "building": null, "healthcare": "yes", "healthcare:speciality": null, "operator:type": null, "capacity:persons": null, "addr:full": null, "addr:city": null, "source": null, "osm_id": 10613753961, "osm_type": "nodes" }, "geometry": { "type": "Point", "coordinates": [ 118.0069549, -33.9364416 ] } },
{ "type": "Feature", "properties": { "name": "Kingston Hospital", "name:en": null, "amenity": "hospital", "building": null, "healthcare": "hospital", "healthcare:speciality": null, "operator:type": null, "capacity:persons": null, "addr:full": null, "addr:city": null, "source": null, "osm_id": 10605391727, "osm_type": "nodes" }, "geometry": { "type": "Point", "coordinates": [ 139.848552, -36.8355308 ] } },
{ "type": "Feature", "properties": { "name": "Gawler GP Access Afterhours", "name:en": null, "amenity": "doctors", "building": null, "healthcare": "doctor", "healthcare:speciality": null, "operator:type": null, "capacity:persons": null, "addr:full": null, "addr:city": null, "source": null, "osm_id": 11368192071, "osm_type": "nodes" }, "geometry": { "type": "Point", "coordinates": [ 138.7495203, -34.6000289 ] } },
{ "type": "Feature", "properties": { "name": "Medicines R Us", "name:en": null, "amenity": "pharmacy", "building": null, "healthcare": "pharmacy", "healthcare:speciality": null, "operator:type": null, "capacity:persons": null, "addr:full": null, "addr:city": null, "source": null, "osm_id": 10603941829, "osm_type": "nodes" }, "geometry": { "type": "Point", "coordinates": [ 150.6730059, -33.7698523 ] } },
{ "type": "Feature", "properties": { "name": "Gordonvale Family Medical Centre", "name:en": null, "amenity": "doctors", "building": null, "healthcare": "doctor", "healthcare:speciality": null, "operator:type": null, "capacity:persons": null, "addr:full": null, "addr:city": null, "source": null, "osm_id": 10239479465, "osm_type": "nodes" }, "geometry": { "type": "Point", "coordinates": [ 145.78662, -17.0904767 ] } },
{ "type": "Feature", "properties": { "name": "Pemberton Phamacy", "name:en": null, "amenity": "pharmacy", "building": null, "healthcare": "pharmacy", "healthcare:speciality": null, "operator:type": null, "capacity:persons": null, "addr:full": null, "addr:city": null, "source": null, "osm_id": 10600782935, "osm_type": "nodes" }, "geometry": { "type": "Point", "coordinates": [ 116.0339704, -34.4453439 ] } },
{ "type": "Feature", "properties": { "name": "Savage Xray", "name:en": null, "amenity": "clinic", "building": null, "healthcare": "clinic", "healthcare:speciality": null, "operator:type": null, "capacity:persons": null, "addr:full": null, "addr:city": null, "source": null, "osm_id": 7816502219, "osm_type": "nodes" }, "geometry": { "type": "Point", "coordinates": [ 153.041088, -27.4560508 ] } },
{ "type": "Feature", "properties": { "name": "4Lane Phisiotherapy", "name:en": null, "amenity": null, "building": null, "healthcare": "physiotherapist", "healthcare:speciality": "physiotherapy", "operator:type": null, "capacity:persons": null, "addr:full": null, "addr:city": null, "source": null, "osm_id": 8193413158, "osm_type": "nodes" }, "geometry": { "type": "Point", "coordinates": [ 115.7643409, -33.9799985 ] } },
{ "type": "Feature", "properties": { "name": "Pemberton Infant Healthcare Centre", "name:en": null, "amenity": null, "building": null, "healthcare": "yes", "healthcare:speciality": null, "operator:type": null, "capacity:persons": null, "addr:full": null, "addr:city": null, "source": null, "osm_id": 10600868217, "osm_type": "nodes" }, "geometry": { "type": "Point", "coordinates": [ 116.0345102, -34.4446491 ] } },
{ "type": "Feature", "properties": { "name": "Country Living Chiropractic", "name:en": null, "amenity": null, "building": null, "healthcare": "alternative", "healthcare:speciality": "chiropractic", "operator:type": null, "capacity:persons": null, "addr:full": null, "addr:city": null, "source": null, "osm_id": 10600427713, "osm_type": "nodes" }, "geometry": { "type": "Point", "coordinates": [ 115.7651678, -33.9832704 ] } },
{ "type": "Feature", "properties": { "name": "Clinipath Pathology", "name:en": null, "amenity": null, "building": null, "healthcare": "sample_collection", "healthcare:speciality": null, "operator:type": null, "capacity:persons": null, "addr:full": null, "addr:city": null, "source": null, "osm_id": 10600230746, "osm_type": "nodes" }, "geometry": { "type": "Point", "coordinates": [ 116.1371293, -33.9585996 ] } },