name,longitude,latitude
BANGGANOO HERITAGE AREA,145.18973000001,-38.0038799991368
LES ERDI PLAZA,144.963889999774,-37.8194299988405
WANNARKLADDIN WETLANDS,145.139729999477,-38.063039998684
COMMUNITY BANK OVAL,144.195279999668,-38.2180399995183
PAYNES PLACE,145.040520000054,-38.2247999989533
PEANUT FARM RESERVE,144.978500000256,-37.8699499989997
PEARCEDALE RESERVE,145.229869999792,-38.2037399987916
DOMENEY RESERVE,145.218399999469,-37.7748899991243
CHURCHILL RESERVE,144.813949999539,-37.7325699993854
CHURCHILL RESERVOIR PARK,146.416260000027,-38.3215099993196
CITY SQUARE,144.967109999941,-37.8159299990253
CIVIC PARK,145.93460000008,-38.1578899987156
CHARLES MUTTON RESERVE,144.970680000288,-37.7142599991353
CHARLES WALKER RESERVE,145.400199999771,-37.9213399992449
RUSSELL SQUARE,143.88476000003,-37.5557399988256
TOLMER REST AREA,140.967920000157,-36.3431799994653
KIATA LOWAN SANTUARY,141.764309999862,-36.4345699992643
KINGSFORD-SMITH ULM RESERVE,144.901259999823,-37.7109599991907
KILLINGWORTH RIVER RESERVE,145.426020000446,-37.1635499989748
KILMANY RECREATION RESERVE,146.914849999568,-38.1067399995263
SHADY CREEK BUSHLAND RESERVE,149.747369999711,-37.5531799989109
SCHRAMMS RESERVE,145.133700000087,-37.7829299987403
MYRTLEFORD SHOWGROUNDS,146.726259999816,-36.5445699995102
NAGAMBIE SPORTS GROUND,145.155700000101,-36.7853999994575
NAMATIJIRA PARK,145.11237000007,-37.9306799986451
NAPIER PARK,144.918949999552,-37.7414099993348
NAPIER PARK RESERVE,145.189869999843,-37.8778999994332
FORD ESTATE RESERVE,144.987090000503,-37.7231799988995
ROCHESTER GOLF COURSE,144.651809999949,-36.3931799995364
ROCHESTER RECREATION RESERVE,144.707360000242,-36.3632799994459
ROCK CREEK PICNIC AREA,147.338759999699,-37.6020699992161
ROCKBEARE PARK,145.035739999936,-37.7741099986666
CHINAMANS GARDEN RESERVE,145.367639999527,-36.3923499986912
HEDGELEY DENE GARDENS,145.058000000286,-37.8673999994701
HAROLD BOX RESERVE,145.158760000273,-37.9909599992325
GOONMIRK ROCKS SCENIC RESERVE,148.884870000409,-37.277349999315
GLENALADALE NATIONAL PARK,147.347370000049,-37.7101299988229
DOBIE HIGHWAY PARK,143.013479999796,-37.3131799991919
MEMORIAL PARK,145.202370000394,-37.9773499994317
J  MURPHY RESERVE,144.782640000352,-37.884569998904
J L MURPHY RESERVE,144.928579999895,-37.8337199990052
MOUNT WORTH PARK,145.995139999514,-38.2867899993346
MOUNT WORTH PICNIC PARK,146.056259999877,-38.2948499987488
GODFREY BALDWIN PARK,147.090139999588,-38.1001299988703
GLENEWART RESERVE,145.589310000429,-37.7345699990171
GLENFERN PARK,145.285669999719,-37.8896299986402
PRINCES PARK OVAL,143.741260000085,-37.0428999986643
SAMUEL SHERLOCK RESERVE,145.128309999778,-38.1443999990358
TALBOT PARK,145.104320000488,-37.9259899992508
TALBOT PICNIC AREA,146.401459999538,-37.8557899986779
TALI KARNG SCENIC RESERVE,146.695420000333,-37.5606799990858
CONNOLLY AVENUE RESERVE,144.978759999855,-37.7392899990952
COHUNA PONY CLUB RESERVE,144.223479999653,-35.8062399988647
COHUNA RECREATION RESERVE,144.222189999705,-35.805069999473
CHELSWORTH PARK,145.049350000319,-37.7767799989902
CHEONG PARK,145.268290000402,-37.8092799994736
THE GRANITES SCENIC RESERVE,143.684870000071,-36.2931799995267
THE SANCTUARY,143.7095900005,-38.249849998951
HEATHMONT PARK,145.237049999798,-37.8333099987706
CLARRIE ARDERN RESERVE,146.727370000173,-36.5512399992943
LAKE MUNDI STATE GAME RESERVE,141.009309999706,-37.4998499991095
LAKE MURPHY GAME RESERVE,143.879590000092,-35.8020699991309
LALBERT RECREATION RESERVE,143.378879999984,-35.6719899991936
LINDSAY PARK,143.882919999484,-37.4212399986713
LAKE ESMOND BOTANICAL PARK,143.874010000085,-37.5748199994038
BANKSIA PARK,145.079780000229,-37.7566099993495
BARCLAY RESERVE,144.82588999982,-37.781409998908
BELMONT PARK,144.35569999982,-38.1837399986947
BELVEDERE RESERVE,145.156390000203,-38.1062699991199
BEMM RIVER RESERVE,148.96153000007,-37.7565099987779
BENAMBRA RECREATION RESERVE,147.699560000159,-36.9434699986671
SOUTHCOMBE PARK,142.236440000194,-38.3903499990389
LIMESTONE CREEK SCENIC RESERVE,148.051260000432,-36.8551299986956
SOUTH SURREY PARK,145.093440000369,-37.8331999988906
SMART STREET RESERVE,145.022709999488,-37.8160799993655
GRANT RESERVE,144.829869999432,-37.862899999495
D K  GRANT RESERVE,144.807919999537,-37.8787399994746
GRASS TREE RESERVE,145.812920000461,-38.0165099990178
MORNING MIST RECREATION RESERVE,145.233610000265,-38.1486199992147
MACLEAY PARK,145.07619000048,-37.7999599995005
PETER FRANKE RESERVE,145.273779999495,-37.619519999201
PETER SCULLIN RESERVE,145.085169999455,-38.0087999986718
SCORESBY RECREATION RESERVE,145.227089999975,-37.8965099993756
SCOVELL RESERVE,144.877990000436,-37.7842499987988
TALLINTYRE RESERVE,144.812160000344,-37.7993699993548
PETERSON STREET RESERVE,145.026019999809,-37.9459799994346
PETRIE PARK,145.125759999636,-37.7171999987149
LUNA PARK,144.977639999722,-37.8681799992196
LOOKOUT RESERVE,144.32181000033,-38.1415099994673
LORNAS TRIANGLE BUSHLAND RESERVE,145.170139999946,-38.3501299995148
LOUGHIES BUSHLAND,145.219260000209,-37.7961799987823
GAVIN PARK,144.93513999961,-37.7223499990948
Geelong Cricket Ground,144.354200000116,-38.1563099989781
GEELONG GOLF CLUB,144.342520000209,-38.1301199988318
BERRYS GREEN,145.02459000003,-36.6423499992045
FREGON RESERVE,145.126829999849,-37.9177099986824
FRIER OVAL,144.339590000541,-38.1598499991094
SERENDIP WILDLIFE RESEARCH STATION,144.406810000487,-38.0028999994642
WILLIAM HOVELL RESERVE,145.581810000563,-38.6628999987594
WILLIAM HUNTER FLORA RESERVE,148.551530000028,-37.7912399987103
NORM RAVEN RESERVE,144.7159900004,-37.6261599992214
NORMAN AINSWORTH RESERVE,144.80041999972,-37.7865099994976
NORMAN BROOKS PARK,146.405179999936,-38.2333199994557
NORMAN RESERVE,145.203479999881,-37.7401299987478
NORTH ALPHINGTON PARK,145.025420000273,-37.7762399992183
COLUMBIA PARK RESERVE,145.186020000424,-37.9147499990631
COMO PARK,145.003940000445,-37.8360399993877
BEAUTY PARK,145.123659999496,-38.1487899987645
BECKETT PARK,145.092350000084,-37.8105599989401
VICTORIA MILL SCENIC RESERVE,143.228479999456,-37.2642899988233
VICTORIA PARK,143.823820000504,-37.5643699986732
TIMBEROO FOREST RESERVE,142.160149999693,-35.1881799989646
HIGHVIEW PARK,145.167689999586,-37.8640499994953
HINNOMUNJIE RECREATION RESERVE,147.673019999525,-37.0061599994072
RIVIERA PARK,145.13237000021,-38.0870699989671
ROBERT BRUCE RESERVE,144.776260000161,-37.7537399993319
ROBERT HEATLEY RESERVE,144.892339999539,-37.7896799989065
ROBERTSON RECREATION RESERVE,145.123480000509,-38.3903999993986
J ROBINSON RESERVE,144.959309999581,-37.7470699990984
REGENTS PARK,145.109060000059,-38.0317599991643
REEDS PICNIC AREA,142.448280000421,-37.1444599993455
GORDON O'KEEFFE RESERVE,144.628479999455,-37.9040099992682
GOULBURN PARK CARAVAN PARK,145.131529999937,-37.0306799994487
LOWER TEMPLESTOWE RESERVE,145.105140000096,-37.7684599994393
SEBASTOPOL OVAL,143.843480000413,-37.6034599992466
HISTORIC PINDI MILL SITE PICNIC AREA,145.555419999623,-37.4778999989977
DEMPSTER PARK,144.837810000216,-37.7752099987134
DENDY PARK,145.023379999472,-37.9255499993754
DENZIL DON RESERVE,144.938970000397,-37.7648399988118
RESERVOIR RESERVE,145.05822999962,-37.8110499986856
RICHARDS RESERVE,144.955580000363,-37.7295799987696
PARLIAMENT GARDENS,144.973500000415,-37.8098299993179
J.R. PARSONS RESERVE,144.835419999642,-37.7942899987404
COAL CREEK HISTORICAL PARK,145.834589999562,-38.4440099990105
R K RICHARDS RESERVE,144.78161000013,-37.8829299989576
DEVILBEND GOLF COURSE,145.109309999784,-38.2703999990336
BLACK FLAT,145.235420000534,-37.7342899989425
NEWTOWN PARK,144.321530000076,-38.1559599993543
LOGAN PARK,145.935209999647,-38.1689499991946
LOGAN RESERVE,144.830619999741,-37.8703199991688
S GANDOLFO GARDENS,144.962639999712,-37.7526299993864
GARDEN SQUARE,145.160979999521,-38.3920699988998
GARDINER PARK,145.049320000534,-37.8512499993903
GARDINERS CREEK RESERVE,145.102639999911,-37.8676299989217
FREDERICK MORETON RESERVE,144.332369999464,-38.1662399991982
FREEWAY RESERVE,145.168690000178,-37.9179999987674
FRANK GIBSON RESERVE,144.769090000239,-37.8609299991139
FRANK JONES RESERVE,147.058949999743,-38.0998799990218
FRANKSTON CARAVAN PARK,145.140419999595,-38.1745699987922
FRANKSTON PARK,145.120419999972,-38.1470699991433
FRASER NATIONAL PARK,145.830140000281,-37.1515099987164
FRASER RESERVE,145.354030000211,-37.8028999990306
R J FRASER RESERVE,144.936260000077,-37.7556799990657
GALVIN PARK,144.650579999639,-37.8864599991616
GARFIELD RECREATION RESERVE,145.677879999618,-38.0953599989216
GARY GREELISH OVAL,144.899589999709,-37.8137399987459
GASKIN PARK RESERVE,146.408200000369,-38.3095699988045
GAUDION RESERVE,144.869470000226,-37.7961699991676
FROG HOLLOW RESERVE,145.271849999786,-37.9925199986398
H W FOLETTA RESERVE,144.965219999966,-37.772149999376
CENTENARY PARK,145.067560000297,-37.9265799989162
CENTENARY PARK PUBLIC GOLF COURSE,145.176810000274,-38.1273499992536
CENTENARY PARK,145.175500000449,-38.1388099988329
CENTRAL GARDENS,145.041460000166,-37.8212199988276
GEORGE BATES RESERVE,146.345189999485,-38.1584199994675
GEORGE GRIFFIN RESERVE,144.89376000004,-37.8131799994007
GEORGE PENTLAND GARDENS,145.129590000302,-38.1526299987187
R J PHELAN RESERVE,144.232379999629,-36.2108799988505
THE 100 ACRES,145.224309999809,-37.7748499994487
THE ALBERT RICHARDSON RESERVE,144.260149999604,-36.7570699988495
PHILLIP STOKES PLANTATION,144.913199999909,-37.7487399994065
CENTRAL PARK,145.104550000317,-37.7158799988685
VICTORY PARK,144.912350000489,-37.7795699987012
VIEW BANK RESERVE,145.093479999848,-37.7412399991054
VIVA STREET RESERVE,145.040929999487,-37.8615499989869
CREIGHTONS CREEK RECREATION RESERVE,145.528229999665,-36.8793099991004
CRINIGAN ROAD NORTH RESERVE,146.428729999797,-38.2166399988633
CRINIGAN ROAD PUBLIC RESERVE,146.422639999889,-38.2140499988821
PATTERSON PARK,147.854309999912,-37.8887399993884
PAUL HUCKIN PARK,144.936370000542,-37.7518899986662
PAULINE TONER BUTTERFLY RESERVE,145.164269999965,-37.7176899992842
CRISPE PARK,144.997559999669,-37.7219499989044
TARWIN RECREATION RESERVE,145.866529999676,-38.705679998644
TATE RESERVE,144.979590000435,-37.748179999127
PICOLA RECREATION RESERVE,145.109600000091,-35.9968499987392
WA Wurrong Reserve,145.215060000372,-37.8043499991805
WABONGA PLATEAU PARK,146.48570000035,-36.9551299991657
BAULKAMAUGH RECREATION RESERVE,145.391260000062,-36.0590099992176
BAW BAW ALPINE RESERVE,146.27486999962,-37.8445699990635
BAW BAW NATIONAL PARK,146.319029999603,-37.8717899991085
BAYSWATER ROAD PARK,144.923780000091,-37.7937199988459
PENDERS PARK,145.00729999963,-37.7546099991437
PENGUIN ROOKERY RESERVE,145.150140000161,-38.5106799994045
PENINSULA COUNTRY GOLF CLUB,145.152919999848,-38.1295699986763
FRANK STREET RESERVE,145.14463999973,-38.1407699989814
PENINSULA RESERVE,145.14463999973,-38.1407699989814
PENNELL RESERVE,144.851369999905,-37.7763399986663
PENNINGTON RESERVE,144.343199999581,-36.6534099993761
PERCE ALLISON OVAL,145.368200000041,-38.0401299988153
PERCY TREWIN RESERVE,145.30944000023,-38.0255599988314
PERCY TREYVAUD MEMORIAL PARK,145.080189999789,-37.8826599986709
MACARTHUR SQUARE,144.971570000283,-37.7983699990096
CHIRNSIDE RESERVE,144.391260000293,-38.0206799993122
SEA LAKE RECREATION RESERVE,142.857000000327,-35.5102899995631
SHELIS RESERVE,144.939590000525,-37.7601299987229
SELBY PARK,145.369200000246,-37.9134399992064
SELWYN PARK,144.813590000012,-37.7820299989651
EDWARD HUNTER HERITAGE BUSHLAND RESERVE,146.261259999519,-38.1931799986574
EDWIN FLACK RESERVE,145.365019999474,-38.0288099989462
EGLINTON RESERVE,145.039040000062,-37.7996999986815
BULGA NATIONAL PARK,146.576260000354,-38.4209599991339
M B LYNCH GARDENS,144.833480000293,-37.7798499987641
LYNDEN PARK,145.086739999712,-37.8437499992613
WESTERN PORT STATE WILDLIFE RESERVE,145.290699999788,-38.2398499989128
WESTGATE PARK,144.910420000312,-37.831789998866
WESTLANDS,146.856810000087,-36.1276299993897
WYCHITELLA FLORA & FAUNA RESERVE,143.614870000068,-36.3509599993647
LORNA WILSON RESERVE,145.295139999747,-38.0126199994263
KIRSTY LOTTKOWITZ RESERVE,145.32764000016,-38.0223499991081
WIRIDJIL RECREATION RESERVE,143.150620000092,-38.620849998756
WONDERLAND TURNTABLE,142.503479999647,-37.1503999991585
WONGA FLORA AND FAUNA RESERVE,143.497919999545,-38.507899999323
KALORAMA MEMORIAL RESERVE,145.379569999645,-37.8164499993759
KALPARRIN GARDENS,145.100619999816,-37.6985399987524
KAMAROOKA RECREATION RESERVE,144.379020000298,-36.4567199991322
KAMAROOKA STATE PARK,144.421260000144,-36.5209599990723
KANANOOK CREEK RESERVE,145.127820000242,-38.0977599993947
JOHN COUTTS RESERVE,144.899579999691,-37.6949699991868
JOHN EDWIN SCOTT WATER RESERVE,146.244590000483,-36.4698499987572
JOHN WILTON RESERVE,144.911259999878,-37.6831799991802
JOHNSON OVAL,145.041809999845,-37.8484599990062
KEEGAN STREET RECREATION RESERVE,146.392090000306,-38.241789999031
FOSTERS ROAD RESERVE,144.851260000113,-37.7145699993141
KEILOR PARK RECREATION RESERVE,144.851260000113,-37.7145699993141
FINNS RESERVE,145.117570000336,-37.7537199990167
AKOONAH PARK,145.366200000465,-38.0391399987867
ALBERT RESERVE,145.061440000521,-37.7621299992145
ALBERTON RECREATION RESERVE,146.663079999646,-38.617199999351
ALEXANDER PARK,145.007510000534,-37.9380799991914
ALEXANDRA GARDENS,145.033489999756,-37.8076599991613
J I STEWART RESERVE,144.791260000386,-37.8673499987328
SPRING STREET RESERVE,145.020700000526,-37.9562399989995
TRARALGON SOUTH RECREATION RESERVE,146.540630000551,-38.2945099993219
TRICIA MAHON RESERVE,144.79930999972,-37.748739999268
G J  KENNEDY PARK,145.666809999907,-35.9148499991519
RAILWAY RESERVE,144.826529999878,-37.7851299992432
KENNETH GEORGE CHAPLIN RESERVE,144.826529999878,-37.7851299992432
FERNY CREEK RESERVE,145.346810000201,-37.8748499993789
W B FERRARI PARK,145.350489999757,-36.393859998891
GLOUCESTER RESERVE,144.886459999969,-37.8679699987692
CONNEWARRE RESERVE,144.398600000442,-38.2650199990402
CONSERVATION HILL WILDLIFE RESERVE,145.296810000199,-38.4598499990406
PETTYS RESERVE,145.151949999806,-37.7607899992263
KOW SWAMP PICNIC RESERVE,144.315700000482,-35.9534599992283
MARNOO PARK,142.95709000038,-36.6667899992759
MAROONA RECREATION GROUND,142.859589999912,-37.4378999990044
MAROXOMS PARK,142.016259999462,-34.2167899992314
JOHN FIELD RESERVE,146.295540000039,-38.1772699987214
FIRTH ENVIROMENTAL PARK,144.409589999497,-37.4342899987574
COOK RESERVE,144.922089999544,-37.6967899988291
W E CASH RESERVE,144.976809999748,-37.7240099990618
HOLLOW MOUNTAIN PICNIC AREA,142.382649999762,-36.887899999035
YARROWEYAH RECREATION GROUND,145.559870000391,-35.9195699988932
MIDLANDS GOLF COURSE,143.855419999782,-37.5292899994092
CLUNES GOLF CLUB,143.752650000016,-37.2845699990238
MAFEKING RESERVE,142.575419999556,-37.3740099994204
COHUNA SHOWGROUND,144.221260000273,-35.8103999990541
COLCHESTER PARK,145.165930000506,-38.22563999936
S COLE RESERVE,144.940699999585,-37.7206799990538
MERUKA PARK,145.134880000392,-37.7122499993984
MECHANICS RESERVE,145.361309999849,-37.8284799992313
CAPE WOOLAMAI STATE FAUNAL RESERVE,145.348760000571,-38.5515099994721
MOLIAGUL RECREATION GROUND,143.662369999743,-36.7490099990125
SUNSHINE GOLF COURSE,144.774730000213,-37.7930399992229
SUNSHINE RESERVE,145.008479999989,-38.2863599987647
AYSONS RESERVE,144.669299999541,-36.4593699989015
PARKER RESERVE,144.967269999803,-37.7225599992808
H E PARKER RESERVE,145.254849999699,-37.8354099993102
PARKFIELD RESERVE,145.181809999451,-37.9622299988429
ORBOST RECREATION RESERVE,148.45776000017,-37.7042999994839
REDESDALE RECREATION RESERVE,144.530730000552,-37.0221599990253
PRICE PARK,145.08657999992,-37.7362299994608
PRIDMORE PARK,145.015100000129,-37.8159799992964
PRIMROSE PARK PICNIC AREA,146.280980000077,-38.3962399992116
PRINCES PARK,144.962000000429,-37.7837599987743
PRINCES PARK,145.023350000032,-37.8939399989246
PROGRESS PARK,144.981610000173,-36.3958699990081
PROGRESS PARK,146.889309999997,-38.6059599992227
NUG NUG RESERVE,146.705029999576,-36.6611099990201
NORTHERN SUBURBS PARK RESERVE,145.036819999937,-37.710539999197
CARISBROOK SHOWGROUNDS,143.797649999998,-37.0387399990122
LINTON RECREATION RESERVE,143.56792000015,-37.6834599988516
HADDON RECREATION RESERVE,143.721669999879,-37.5875799990864
BULBAN RESERVE,144.49066000044,-37.9605899989479
BULL CREEK PICNIC AREA,145.574589999545,-37.4256799991765
CRINIGAN ROAD RESERVE,146.431259999804,-38.2203999990743
CROFTS RESERVE,144.833260000071,-37.827549999447
BENDIGO WHIPSTICK FOREST PARK,144.406810000446,-36.4970699990479
BENNETT AVENUE RESERVE,145.14819999953,-37.8592899991125
ORCHID GARDEN,143.563199999925,-36.3228999988675
ORNAMENTAL LAKES PARK,142.168489999973,-34.1846799987768
OTWAY NATIONAL PARK,143.54959000015,-38.7373499992587
NIRRANDA SOUTH RECREATION RESERVE,142.801809999779,-38.5362399991734
ARDMONA RECREATION RESERVE,145.29986000019,-36.3846599987364
FRANKLIN CHAPLIN RESERVE,143.875420000183,-36.8353999992596
BRAZENER PARK,143.932090000027,-37.5526299990362
BREE PARK,142.028640000554,-37.7377799991085
BULN BULN RECREATION RESERVE,145.936199999844,-38.0974699992149
BUNARONG PARK,145.157400000534,-38.1574299987925
BUNDALAGUAH RECREATION RESERVE,147.02247000029,-38.0264099991842
TURNER ROAD RESERVE,145.055140000425,-37.9478999990887
BUCKINGHAM PARK,144.917639999799,-38.3778999989672
BUCKLEY NATURE RESERVE,145.090420000393,-38.3412399995063
BUCKLEY PARK,144.896599999671,-37.7442499989717
BRUCE COMBEN RESERVE,144.766079999473,-37.8725699987051
KERGER RESERVE,144.392920000455,-38.2962399993555
KEVIN SHORTEN RESERVE,144.878009999729,-37.7941599988883
KEVIN WHEELAHAN GARDENS,144.838479999864,-37.7862399991588
JOHNSON PARK,145.009480000141,-37.7761799994043
ELSTERNWICK PARK,144.99362999963,-37.8899399992064
ELTHAM LOWER PARK,145.141779999864,-37.7347199986986
ELTHAM NORTH RESERVE,145.15240000037,-37.6949199989559
YARRAMBAT PARK,145.131990000428,-37.6223399988113
WYETH MCNAMARA PARK,145.728199999563,-38.6356799991087
WYLIE RESERVE,144.944080000365,-37.7714899987263
WYNDHAM VALE RESERVE,144.623670000448,-37.8992799991206
WYUNA RECREATION RESERVE,145.055360000504,-36.1962999987618
NULLAWIL RECREATION RESERVE,143.17405000033,-35.8526399991158
EUREKA HISTORIC PARK,143.886260000263,-37.5653999994234
EUREKA STOCKADE,143.88379000026,-37.564949999101
BARRY POWELL ATHLETICS TRACK,145.230419999854,-37.9845699992924
O'POSSUM HISTORIC GOLDFIELD,143.622369999506,-36.4206799988979
OAKLANDS PARK,142.199590000441,-36.7028999994578
NARRAPORT SCHOOL RESERVE,143.335149999677,-35.8776299991158
CARRUM DOWNS RECREATION RESERVE,145.188199999551,-38.0851299988107
PINK LAKES PARK,141.766530000255,-35.0242899993114
PIONEER PARK,143.823460000458,-37.5192099991083
FULTON RESERVE,145.102369999984,-38.1873499988139
FYANS PARK RESERVE,144.322370000151,-38.1587399988892
FOSTER RECREATION RESERVE,146.204819999429,-38.655829998976
SALE PRIMARY SCHOOL,145.189870000189,-38.2970699987182
J A  BABINGTON PARK,145.189870000189,-38.2970699987182
BEAUFORT RECREATION RESERVE,143.3804200004,-37.4398499993124
G R GILPIN RESERVE,144.95180999963,-37.7684599990659
H ROGERS RESERVE,144.938199999875,-37.7267899993505
MILLER PARK,145.306000000401,-37.8474699993482
MILTON GRAY RESERVE,145.035240000073,-37.864519998876
NAR NAR GOON RECREATION RESERVE,145.572790000335,-38.0840799994982
GEORGE TINDALE GARDENS,145.365980000181,-37.8803999993362
CHILTERN VALLEY RECREATION RESERVE,146.545479999756,-36.1429299994581
MYERS CREEK RESERVE,145.517640000495,-37.5851299994617
MEYERS CREEK RESERVE,145.517640000495,-37.5851299994617
MICK JORDAN MEMORIAL GARDEN,144.961129999694,-37.7719699992135
SKIPTON RECREATION RESERVE,143.365629999625,-37.6894199993644
SLATER PARK,143.546190000186,-35.3423199995275
LA TROBE RIVER PICNIC AREA,146.088199999858,-37.9712399992604
FITZROY GARDENS,144.980449999906,-37.8129599990995
PIONEERS RESERVE FOR NATURAL FLORA,145.710699999796,-38.518179998992
ROCKY RANGE STATE FAUNAL RESERVE,148.286809999545,-36.9248499990162
CHILTERN PARK,146.556810000274,-36.1242899992127
JACK KEANE OVAL,142.367090000348,-38.2973499994085
JAMES SWAN RESERVE,142.48460999965,-38.3793999993599
BEN MAJOR FLORA RESERVE,143.393480000075,-37.3087399994064
BEN MORE RESERVE,143.434590000102,-37.2206799990085
BEN NEVIS PICNIC AREA,143.200150000496,-37.2278999994385
W L FLOYD RESERVE,144.863440000159,-37.8406499990584
CHICQUITA PARK,145.074589999558,-37.9842899986795
CEMENT CREEK RESERVE,145.707919999844,-37.7134599991161
HANLON PARK,141.599810000405,-38.3451399986487
GREGSON PARK,141.991219999695,-35.9015899987855
MULBERRY RESERVE,145.160139999589,-38.1153999992133
MULGRAVE RESERVE,145.204029999885,-37.920949999367
MULLUM MULLUM RESERVE,145.238159999709,-37.8049799992193
MALVERN CRICKET GROUND,145.03459000033,-37.8573499993033
MALVERN PUBLIC GARDENS,145.035390000184,-37.8563199990572
SAWPIT PICNIC AREA,141.68680999974,-38.235129999298
SAWYER PARK,142.201820000176,-36.7227099994981
SCOBORIO RESERVE,142.508789999634,-38.3930799988448
MERINDA PARK,145.26830000028,-38.0781199994095
MERRICKS STATION GROUND RESERVE,145.08681000024,-38.3890099991975
MELBOURNE CRICKET GROUND,144.984589999463,-37.8203999991773
BALLAM PARK,145.160530000479,-38.1503799992679
SMITHS BRIDGE PICNIC AREA,143.291530000223,-37.2981799994736
SMITHS MILL PICNIC AREA,142.425699999708,-37.1070699994024
SMITHS PICNIC AREA,142.425980000289,-37.1070699992636
KNOX PARK,145.258339999775,-37.8964599992488
MADDINGLEY PARK,144.436120000051,-37.6847699991517
MAFEKING HILL PARK,146.981810000353,-37.9656799987775
HARTWELL SPORTS GROUND,145.087069999868,-37.8542299990012
DE CHENE RESERVE,144.977879999677,-37.7398699988707
BRIM EAST RECREATION RESERVE,142.561049999882,-36.0979799992491
BRIM GOLF COURSE,142.419310000031,-36.0731799987821
ACACIA PICNIC AREA,145.320419999856,-37.8870699995117
KATE CAMPBELL RESERVE,145.034069999727,-37.7913099992548
KATH ROBERTS RESERVE,145.37268000032,-38.0442299994399
KATUNGA RECREATION RESERVE,145.452710000461,-35.9973999994457
TALLANGATTA RECREATION GROUND,147.173479999737,-36.2178999990046
TALLANGATTA VALLEY RECREATION RESERVE,147.39152999992,-36.2873499986993
TALLYGAROOPNA RECREATION RESERVE,145.4374500005,-36.2410599993895
MALAHANG PARADE RESERVE,145.049030000339,-37.7403999992412
MURRINDINDI FALLS PICNIC AREA,145.575980000244,-37.4542899992604
MURRINDINDI SCENIC RESERVE,145.576810000041,-37.4323499993658
MONBULK RECREATION & PICNIC RESERVE,145.380370000154,-37.8847199987189
KALLISTA NATURAL RESERVE,145.380370000154,-37.8847199987189
EVAN PARK,145.460419999741,-37.6115099989018
EVELYN RESERVE,145.131260000115,-37.9198499994734
SEAFORD NORTH RESERVE,145.129789999761,-38.1016599990527
JUNCTION PICNIC RESERVE,146.404259999485,-38.3442099989158
SEAL ROCKS STATE FAUNAL RESERVE,145.099310000407,-38.5262399988989
SANDY POINT PICNIC GROUND,149.704029999926,-37.5092899993364
RHYMNEY CRICKET GROUND,142.819090000141,-37.2340199989767
RICH AVON RECREATION RESERVE,142.887920000309,-36.48762999907
SEACOMBE PARK,142.239870000089,-38.37650999885
CHIRNSIDE PARK,144.652149999949,-37.9049899993789
CHITTICK PARK,145.147110000107,-37.028379999272
RAGLAN RECREATION RESERVE,143.354519999455,-37.3643699989379
RAY MIDDLETON RESERVE,142.034030000285,-37.7340099992191
JOHN W GARDNER RESERVE,143.570150000259,-38.6367899992376
BEECH FOREST C.W.A. PUBLIC RECREATION RESERVE,143.570150000259,-38.6367899992376
E JOHNSON RESERVE,142.477600000251,-38.3902999987595
APEX PARK,143.884849999455,-35.6869099991986
ARGYLE SQUARE,144.965840000547,-37.8027399993145
SHERBROOKE FOREST PARK,145.363480000383,-37.8937399986517
CHARLES GRIMES RESERVE,144.906529999869,-37.8048499992523
PLENTY PARK,145.119030000008,-37.6695699993159
PLUMRIDGE PARK,144.94958999997,-37.7323499987455
BOMJINNA PICNIC AREA,142.612920000576,-37.2715099986768
BICENTENNARY COMMUNITY PARK,142.029030000521,-36.4567899989414
C BATES RESERVE,146.344870000281,-38.1578999987492
BATMAN PARK,144.992739999466,-37.768059999515
BATMAN PARK,144.956609999618,-37.8217899992523
F W SHORE RESERVE,144.943479999582,-37.7467899993067
SHRUBLANDS CREEK RESERVE,145.08280000034,-37.8221699988309
SID BAKER RESERVE,144.771490000216,-38.3711499988492
SILCOCK RESERVE,145.288430000557,-37.788099998856
SILKSTONE PARK,145.829030000519,-38.4420699991802
NARRE WARREN EAST RESERVE,145.360979999465,-37.962349999474
NATHALIA RECREATION RESERVE,145.213759999879,-36.0528999989885
NATIONAL RHODODENDRON GARDEN,145.37178000011,-37.8466299994708
MYRTLE GULLY RESERVE,145.639870000317,-37.7126299991376
PATTERSON PARK,142.026109999879,-37.7328499986862
G G PAYNE RESERVE,142.438349999763,-38.3570499987059
PEDRINA PARK,142.030149999978,-37.7243499992512
FOOTSCRAY PARK,144.904699999698,-37.7934299989944
KINGFISHER PICNIC AREA,141.468479999886,-37.9328999991387
REES PARK,144.5088200002,-37.9792899994774
REEVES BEACH PICNIC AREA,146.951260000027,-38.5762399992739
RAMSDEN RESERVE,145.002370000521,-37.7937399993636
RAWS RESERVE,145.074760000465,-38.422649999445
TOORONGA PARK,145.040949999499,-37.8473899986407
ALTONA SPORTS PARK,144.852639999496,-37.8631799986813
AMINYA RESERVE,145.07832999958,-37.7126099988338
AMSTEL GOLF CLUB,145.255979999779,-38.1131799992242
AGNES SMITH RESERVE,146.103760000439,-38.3623499994622
REABURN RESERVE,144.951169999854,-37.765429999274
STRATHMERTON RECREATION RESERVE,145.477029999699,-35.9282299989102
STRINGER ROAD RESERVE,144.764399999542,-38.3617499990274
STUDIO PARK,145.179169999603,-38.1465299986397
STUDLEY PARK,145.012350000125,-37.8044599993771
TOWN HALL PLAZA,144.966530000498,-37.8137399987465
TINGARINGY NATIONAL PARK,148.676259999711,-37.014569999174
TINTALANDRA FAUNAL RESERVE,147.961529999825,-36.0490099993606
PORTSEA GOLF COURSE,144.702090000307,-38.3198499987123
ALEXANDRA GARDENS,144.972309999676,-37.8205799992134
ALFRED NICHOLAS GARDENS,145.359310000467,-37.8740099991915
KERRS PARK,145.373590000062,-37.9585399987165
KEVIN BARTLETT SPORTS PARK,145.025139999692,-37.8320699994917
KEVIN HAYES RESERVE,145.096810000349,-38.0053999991993
SURREY RIDGE PICNIC AREA,141.504110000266,-38.1833299991629
C B SMITH RESERVE,144.969109999473,-37.7038199992355
E G SMITH RESERVE,144.881099999794,-37.8294099991542
H A SMITH RESERVE,145.03553999974,-37.835999999115
POUND BEND RESERVE,145.202370000519,-37.7356799992723
POWLETT RIVER RESERVE,145.505419999432,-38.5762399992087
PRINCES PARK,143.742760000078,-37.044879999368
WOODSIDE BEACH PICNIC AREA,146.978479999755,-38.5509599994278
WOODSIDE RECREATION RESERVE,146.868709999496,-38.5288599991066
WOODVILLE PARK,144.688970000312,-37.882749999454
TOORONGO PICNIC AREA,146.123069999749,-37.7900199993984
TORRUMBARRY RECREATION RESERVE,144.515419999838,-36.0276299987185
AINSLIE PARK,145.263479999705,-37.7949899990563
AIRLIE BANK RESERVE,146.43742000005,-38.2291699989541
Alan Birt Day Picnic Reserve,145.616379999555,-38.6734299990798
ALAN MORTON RESERVE,145.207400000147,-37.7841499986496
ALEX G GILLON OVAL,144.950979999583,-37.7640099992588
BRUNSWICK FOOTBALL GROUND,144.950979999583,-37.7640099992588
WARRINGAL PARK,145.071260000409,-37.7587399993876
WARRINGAL PARKLANDS,145.078040000143,-37.7536699990726
PRAIRIE PARK,144.283479999535,-36.1817899991489
JOSEPH PAATSCH RESERVE,143.600459999758,-38.3472099993619
JUBILEE OVAL,143.744309999545,-37.0434599992668
BALWYN PARK,145.07845000043,-37.8139899993979
JACK TOOHEY RESERVE,143.858569999693,-37.5298999988317
JACKASS FERN GULLY PICNIC AREA,141.424309999418,-38.0748499993929
SILVERTOP PICNIC AREA,146.3910899998,-37.8502999994162
HAYES PARK,145.01794999998,-37.7570999986406
HAYES RESERVE,144.783480000192,-37.0176299992231
HAYS PADDOCK,145.05726999966,-37.7911699993796
HAZELWOOD PONDAGE PARK,146.356259999894,-38.2992899988714
HAZELWOOD RECREATION RESERVE,146.421529999788,-38.2959599988324
BUNGUYAN RESERVE,145.194499999779,-38.2571399992247
BUNYIP RECREATION RESERVE,145.718579999443,-38.1007699992681
RIA VISTA PARK,142.160420000217,-34.1765099992645
JAMES SCULLIN MEMORIAL PARK,143.468759999933,-37.4378999993105
JANCOURT FLORA AND FAUNA RESERVE,143.263760000422,-38.4215099987671
JARDINE PARK,143.735149999653,-36.8651299986742
WISHART RESERVE,145.024529999764,-37.9359199990586
WITTONS RESERVE,145.285340000233,-37.7188199987217
HAZELWOOD SOUTH RECREATION RESERVE,146.345420000287,-38.3051299988442
HEALESVILLE SPORTING COMPLEX,145.539590000433,-37.6690099994555
HEANY PARK,145.254310000189,-37.9392899990818
HEATHCOTE RECREATION RESERVE,144.703760000017,-36.9034599992491
HEATHERDALE RESERVE,145.210739999671,-37.8280599995345
HEATHERTON PARK,145.129690000555,-37.9571899993981
HEATHERTON RECREATION RESERVE,145.111529999996,-37.966789999231
RIESCHIECKS RESERVE,145.147280000263,-37.7791099994328
RIFLE BUTTS,145.98597999949,-36.0134599991422
WARRANWOOD RESERVE,145.255449999874,-37.7732399989971
WARRAWEE PARK,145.072729999862,-37.6966699993222
WARRIEN RESERVE,145.285760000249,-37.7786999993905
RIVERSIDE GOLF COURSE,142.220980000251,-34.1890099995573
QUEENS PARK,141.692490000534,-37.5967499991418
RALPH ILLIDGE SANCTUARY,142.834339999883,-38.3935899995031
HARRIS RESERVE,144.890699999591,-37.8078999992879
DEBNEYS PARK,144.935730000435,-37.7852799991884
PRESIDENTS PARK,144.637049999595,-37.8825299993895
NICHOLSON RIVER RESERVE,147.739869999498,-37.8156799991148
BURDEN PARK,145.152490000113,-37.9634399988659
BURNSIDE PARK,144.766810000074,-37.767069998648
ROTARY PARK,144.766810000074,-37.767069998648
QUARRY RESERVE,147.088479999582,-37.8126299991706
AVIAN PARK,146.307920000236,-36.368179999391
THREE JACKS SANCTUARY,142.763199999559,-37.0378999994397
J J  KINGSTON WILDFLOWER SANCTUARY,142.797370000325,-37.0501299987677
MORAY WATER RESERVE,142.79597999954,-37.0537399994891
CENTRAL PARK,142.775060000297,-37.0594899990522
SUGARLOAF PICNIC AREA,143.257089999572,-37.3123499988273
SUNDIAL TURNTABLE,142.514030000093,-37.1728999992329
W L SIMPSON RESERVE,145.021119999747,-37.9380499992012
Sir Colin MacKenzie Sanctuary,145.526809999695,-37.6842899989654
SIR DOUGLAS NICHOLLS RESERVE,144.9969300004,-37.7526599993221
SLATER RESERVE,145.162069999744,-37.803659999023
WOMBOLANO PARK,145.253540000214,-37.8231399991192
WONGANOOKAH FAUNA & FLORA SANCTUARY,145.75763999987,-36.7559599993959
WILLSMERE PARK,145.047639999839,-37.7945699994827
WILSON OVAL,145.036260000567,-37.8456799994866
NILLUMBIK PARK,145.155390000292,-37.6716699988271
NIOKA GOLF RANGE,145.146810000547,-38.189009998838
NETTLETON PARK RESERVE,145.059869999804,-37.8542899994272
ALMA PARK EAST,144.995870000429,-37.8602999988588
ALMA PARK WEST,144.993729999945,-37.8602399986843
ALMONDS RECREATION RESERVE,146.920980000094,-36.2456799987873
ALPHINGTON PARK,145.029699999622,-37.7850199990176
ALPINE NATIONAL PARK BOGONG UNIT,147.282090000047,-36.9270699989194
ALPINE NATIONAL PARK COBBERAS TINGARINGY UNIT,148.180420000418,-36.9484599990614
ALPINE NATIONAL PARK DARTMOUTH UNIT,147.672640000538,-36.6640099989983
ALPINE NATIONAL PARK WONNANGATTA MOROKA UNIT,146.775699999839,-37.2851299988844
BAMAWM EXTENSION RECREATION RESERVE,144.61126000035,-36.220959999063
BADEN POWELL RESERVE,145.108480000143,-38.172069999395
D S BAIN RESERVE,144.961259999816,-37.7192899993115
INGLETON SPRING PICNIC AREA,142.369870000006,-37.3006799989087
INGLEWOOD RECREATION RESERVE,143.872749999866,-36.577239999222
IRREWILLIPE RECREATION RESERVE,143.442120000237,-38.4109899989135
ALBERT PARK,144.971059999873,-37.8483999991802
ALBERT PARK PLAYING FIELDS,144.966810000446,-37.8473499994619
MONGANS BRIDGE RECREATION RESERVE & CAMPING PARK,147.096260000517,-36.5848499989049
WINDERMERE RESERVE,145.263479999552,-37.8962399990648
WINDSOR RESERVE,144.361530000293,-38.090129999429
WINGAN INLET NATIONAL PARK,149.497369999598,-37.7212399992087
WINGROVE PARK,145.144729999661,-37.7273299992953
WINSOR RESERVE,145.079910000411,-37.7181199990647
WICKS RESERVE,145.320459999543,-37.8572499991502
WESTERN PARK,145.920420000182,-38.1537399987504
RIDGE PARK PICNIC AREA,145.291530000377,-37.6603999994858
SUMMERHILL PARK,145.081420000096,-37.858389998809
SUMNER PARK,144.985699999758,-37.773739998723
MININERA RECREATION GROUND,142.96265000004,-37.6017899992626
BETULA RESERVE,145.230420000247,-37.9892899993344
BEZZANT RESERVE,144.615399999742,-38.2721799990964
NEWBOROUGH FOOTBALL RESERVE,146.297920000248,-38.1753999989561
THE KNOB RECREATION RESERVE,147.100419999934,-37.979289998981
MELBA GULLY PARK,143.365700000151,-38.7078999994172
MELBA GULLY STATE PARK,143.370149999917,-38.6978999990166
MELVILLE CAVES PICNIC GROUND,143.69265999985,-36.6026799989108
CLAUDE LEE RESERVE,143.58626000022,-38.3428999990798
THE MERRICKS STATION RESERVE,145.087919999483,-38.3898499987141
W H BURRAGE RESERVE,146.289600000391,-38.1811499992115
BULLEEN RESERVE,145.07097999998,-37.7767899992794
GILBERT PARK,145.250889999603,-37.8963999986445
QUEEN VICTORIA GARDENS,144.971200000482,-37.8218799986563
QUEENS LAKE PARK,144.924370000552,-37.7627099991203
QUEENS PARK,145.523960000154,-37.6545299990639
QUEENS PARK,144.320279999978,-38.1476699989462
CLUNES RECREATION GROUND,143.785149999452,-37.2992899986379
SUNBURY VILLAGE GREEN,144.731849999961,-37.5799599986856
TOONGABBIE RECREATION RESERVE,146.630890000502,-38.0603599987597
THREE MILE HUT DIGGINGS,143.641260000429,-36.484569999478
QUEENS PARK GOLF COURSE,144.319589999958,-38.1459599991682
QUINN RESERVE,145.366810000331,-37.7903999994908
RACV COUNTRY CLUB,145.502639999707,-37.6498499989996
RAEBURN RESERVE,144.943449999635,-37.7297499987245
BROADWAY RESERVE,144.955429999849,-37.8409299990921
HUGH MURRAY RESERVE,143.595840000168,-38.3345099987556
EDDIE BARRON RESERVE,145.345700000541,-38.0492899989755
EDINBURGH GARDENS,144.982879999755,-37.7877199991136
EDWARDES LAKE PARK,144.993200000552,-37.7126299988885
EDWARDS POINT RESERVE,144.705699999605,-38.2028999992265
EDWARDS RESERVE,144.870069999738,-37.8276199987855
EGAN RESERVE,144.980700000018,-37.7520699993241
R D EGAN-LEE RESERVE,145.250019999773,-37.8796599992047
BRONZEWING PICNIC AREA,141.475980000148,-37.9315099987528
TELOPEA RESERVE,145.163479999977,-38.1190099990808
TEMPLESTOWE RESERVE,145.138859999479,-37.7534499991258
TAYLOR PARK,144.32560000018,-38.3287199994968
SHELLEY PARK,145.049940000323,-37.7408799994394
BRODRIBB FLORA & FAUNA RESERVE,148.561810000205,-37.7731799987262
BRODRIBB RIVER RECREATION AREA,148.534309999489,-37.7826299991728
BROOKLYN RESERVE,144.846280000244,-37.8223299989468
BROOKS RIVER RESERVE,145.670699999695,-37.1903999992938
HARROW RECREATION RESERVE,141.598549999452,-37.1450699994963
HEDGES OVAL,143.731259999672,-37.0581799990202
HENDERSON PARK,142.153639999642,-34.1914799989086
PICNIC POINT,147.597639999848,-37.812899999115
PICNIC POINT RESERVE,145.812089999682,-38.0823499989242
MERRI CREEK RESERVE,144.988989999605,-37.776649999328
MERRI PARK,144.988139999794,-37.7728899989376
MERRIGUM RECREATION RESERVE,145.128200000117,-36.3715099989893
MERRIWA PARK,146.324589999731,-36.3584599992796
WESTMERE RECREATION GROUND,142.967829999471,-37.6921899987061
WATCHEM RECREATION RESERVE,142.865599999792,-36.1510399992505
HENTY PARK,141.608039999626,-38.3541199990284
MOORALLA GOLF CLUB,142.162369999744,-37.3751299991459
MORSHEAD PARK,143.83259000022,-37.5791099994313
METHVEN PARK,144.973290000243,-37.7713699989955
R C MCNAMARA RESERVE,146.723079999709,-36.5674999986796
MEENIYAN RECREATION RESERVE,146.010700000302,-38.5756799992448
MELBA PARK,145.350560000143,-37.7553199987059
YARRAVILLE GARDENS,144.898809999472,-37.8135999995278
WATHE STATE FAUNA RESERVE,142.448480000148,-35.5376299991885
WATTLE GLEN PICNIC AREA,141.289030000144,-37.5912399986788
WAUBRA RECREATION RESERVE,143.633660000312,-37.3556599988557
LUM RESERVE,145.175410000453,-37.9116899993354
WOODS RESERVE,145.080419999997,-38.2870699991827
DONALD SHOWGROUND,142.988479999909,-36.3598499992064
WAITCHIE GAME RESERVE,143.106529999772,-35.472899998842
BUANGOR COMMON,143.207649999877,-37.3178999989401
BUANGOR COMMON PICNIC AREA,143.191529999443,-37.3109599989561
MURCHISON GOLF COURSE,145.281259999681,-36.6184599986989
MURCHISON SQUARE,144.973069999521,-37.800209999088
WALLALOO PARK,142.872919999897,-36.6970699990146
WALLALOO WILDLIFE PARK,142.60125999944,-37.0940099990625
WALLAROO WILDLIFE PARK,142.564310000229,-37.1478999991611
ULLINA PARK,143.920420000067,-37.2806799988742
DOUGLAS RESERVE,145.248479999852,-37.999569999003
DELVIN PARK,145.25763999947,-37.5545699992126
DEN OF NARGUN PICNIC GROUND,147.360700000462,-37.702349999169
HENDY STREET RESERVE,144.365280000457,-38.0653199986648
HENRY B DEMPSTER PARK,144.837090000087,-37.7753999994973
HENRY TURNER MEMORIAL RESERVE,144.899410000324,-37.7916599994526
INVERGORDON RECREATION RESERVE,145.610979999929,-36.149289999215
HEPBURN GOLF COURSE,144.130419999996,-37.3162399986985
HEPBURN RECREATION RESERVE,144.124460000324,-37.3005699994107
DIAMOND RESERVE,144.773199999531,-37.745399998743
VETERANS RESERVE,144.880859999892,-37.8280499989243
VICTORIA PARK,144.737920000026,-36.1145699987144
VICTORIA PARK,144.137520000296,-37.3567999990874
VICTORIA PARK,145.121649999775,-38.1508099993828
VICTORIA ROAD RESERVE,145.047090000426,-37.8215099995165
E G POOLEY RESERVE,144.970420000356,-37.7581799987329
POOWONG RECREATION RESERVE,145.763570000253,-38.3409799991392
PINE GROVE RECREATIONAL RESERVE,144.411810000069,-36.2209599987112
PINE LODGE RECREATION RESERVE,145.540979999737,-36.3545699994276
ARNOLD RECREATION RESERVE,143.866259999702,-36.6867899986569
LAKE CONDAH STATE GAME RESERVE,141.830979999559,-38.0584599994779
LAKE GILMOUR GAME RESERVE,143.626530000034,-35.7790099991606
LAKE LALBERT GAME RESERVE,143.332650000435,-35.6695699988673
LAKE MARLBROO GAME RESERVE,142.884870000408,-35.8487399991616
POINT COOK METROPOLITAN PARK,144.794589999442,-37.9026299994823
SWIFTS CREEK RECREATION RESERVE,147.715110000147,-37.2652799990293
LEXTON RECREATION RESERVE,143.515840000413,-37.2890799988122
CARAMUT GOLF COURSE,142.514030000484,-37.9676299991552
BROADMEADOWS TOWN PARK,144.916870000227,-37.679219998681
BOOLARRA RECREATION RESERVE,146.276529999899,-38.3698499994628
NEW CROSSING PLACE RESERVE,145.126260000384,-37.01789999875
LEOPOLD MEMORIAL PARK,144.457370000257,-38.1851299991322
HEXHAM RECREATION RESERVE,142.701069999547,-38.0030299990741
CROCHAN BUSHLAND RESERVE,142.847089999896,-37.2942899990074
CULGOA RECREATION RESERVE,143.101010000213,-35.7168199988045
BIRRARRUNG PARK,145.097319999854,-37.752619999268
BOISDALE RECREATION RESERVE,146.989779999764,-37.8857799990738
BON THOMAS RESERVE,144.76208999972,-37.7740099992167
LORD NELSON PARK COMPLEX,143.259870000144,-36.6092899993294
LOWER WIMMERA PICNIC AREA,143.284310000041,-37.2776299993205
MORTON PARK,145.155600000204,-37.8215999986779
DITCHFIELD PICNIC AREA,143.27180999965,-37.3176299989457
BONBEACH SPORTS RESERVE,145.130520000327,-38.0613299991
BOND RESERVE,144.842370000408,-37.8270699993497
VICTORIA PARK,142.36754999956,-38.2964299991509
VICTORIA PARK RESERVE,142.466529999802,-38.374849999339
DALVUI TROTTING AND RECREATION RESERVE,142.945699999693,-38.229009999415
DARLOT SWAMP GAME RESERVE,142.380419999786,-36.6398499988399
COOKS RESERVE,141.777920000514,-37.7715099989673
COGLIN PARK,142.20930999946,-36.7165099986551
ALEXANDRA GARDENS,142.930340000123,-37.2818299993403
ALEXANDRA PARK,141.584249999531,-38.347789998729
AMPHITHEATRE RECREATION RESERVE,143.398109999862,-37.1849799987366
FORTE PICNIC AREA,143.35501000029,-37.2989599988977
FRAMLINGHAM ABORIGINAL SETTLEMENT,142.648200000068,-38.3020699987172
PETER VERGERS RESERVE,145.254019999663,-37.7961299992908
RETA MATTHEWS RESERVE,145.277640000326,-37.8684599994799
SNOWY RIVER WILDERNESS ZONE,148.37541999947,-37.1717899986805
MOUNT EGBERT EDUCATION RESERVE,143.669869999578,-36.2965099992996
CHISHOLM STREET RESERVE,143.879849999455,-37.5496599992512
CHAFFEY LANDING RESERVE,142.080419999923,-34.1659599995239
EAST RINGWOOD RESERVE,145.247130000137,-37.8084999989169
EAST SEAFORD RESERVE,145.141799999751,-38.1078099994308
J W MANSON RESERVE,145.23620999989,-37.8411899988829
MACPHERSON PARK,144.560919999968,-37.6393199990312
FRANK GRAHAM OVAL,143.749030000264,-37.053459998932
SADDLE RIDGE PARK,145.302369999745,-37.6803999987165
ROWVILLE RESERVE,145.225979999724,-37.9415099991461
ROYAL AGRICULTURAL SHOWGROUNDS,144.911809999679,-37.7831799989786
YULONG PARK,145.06153000023,-37.6973499990642
WRIGHTS RESERVE,145.482089999478,-37.9298499992664
WUCHATSCH RESERVE,145.652039999709,-38.3043699988921
WENDOUREE OVAL,143.843199999483,-37.536789998923
R MAILER RESERVE,144.954590000323,-37.7515099993645
MAIN RIDGE FLORA RESERVE,144.994700000318,-38.4136699988848
WELSHPOOL RECREATION RESERVE,146.441529999843,-38.6690099990909
WEMBLEY PARK,145.133890000494,-37.8307199988184
MOOR PARK GOLF COURSE,142.399869999526,-36.5359599987859
IVANHOE RECREATION RESERVE,145.04396999965,-37.7709399990422
JACK CANN RESERVE,144.292650000284,-37.4767899990652
JACK KIRKHAM RESERVE,145.357340000163,-38.0363099987538
RONALD RESERVE,146.423099999651,-38.2315399994335
RYANS RESERVE,145.157409999605,-37.6680699993532
SKINNER RESERVE,144.854870000047,-37.7867899988364
SLADEN PARK,144.346679999894,-38.1573999992941
MONT ALBERT PARK,145.100720000257,-37.8113099986492
MONTAGUE PARK,145.1206099998,-38.1548999989435
WOODFIELD PARK,145.565140000333,-35.9001299986959
NEWBRIDGE RECREATION RESERVE,143.904880000218,-36.7386299986877
NEWTOWN RECREATION RESERVE,143.659149999625,-37.6855099994016
Brentwood Reserve,145.170879999666,-37.9024899994437
BRIAN J CARROLL RESERVE,145.255420000313,-37.9951299993826
G A BRIDGES RESERVE,144.96958999985,-37.7390099994733
COBURG CITY RESERVE,144.96958999985,-37.7390099994733
BRIENS GORGE RESERVE,146.217919999565,-36.3342899989637
BRIGHT MUNICIPAL CARAVAN PARK,146.965419999548,-36.7298499991979
BRIGHTLIGHT SADDLE PICNIC AREA,148.955980000158,-37.5878999988819
STANLEY HOMESTEAD PICNIC AREA,145.559600000235,-37.2843899988776
STUART MILL RECREATION RESERVE,143.287600000364,-36.8053199988514
DROMANA RACECOURSE RESERVE,145.01152999984,-38.3390099992603
JACK THOMAS RESERVE,145.306669999849,-37.9954499993403
CLIFTON PARK,144.952990000429,-37.7666499987402
JACK TRIPOVICH RESERVE,144.952990000429,-37.7666499987402
JACOBS RESERVE,144.946020000011,-37.7570699990947
JAMES BALFOUR OAK TREE PARK,146.155980000137,-38.2142899992361
JAMES D BELLIN RESERVE,144.68639999991,-37.9719599993858
G A JAMES RESERVE,144.934870000501,-37.7287399989413
ROSALIND PARK,144.276580000138,-36.7547699992201
ROSE RESERVE,145.22930999982,-37.9920699992425
ROSEBUD COUNTRY CLUB,144.89930999945,-38.3787399992299
ROSEBUD PUBLIC PARK,144.923480000242,-38.3701299989554
ROSEDALE RECREATION RESERVE,146.773419999519,-38.152919999096
ROTARY PARK,144.734499999609,-36.1468299992309
ROTARY PARK,144.904899999939,-37.8671399994784
BOWDEN RESERVE,144.978819999486,-37.7433499993892
BOOTH RESERVE,145.229310000115,-37.9853999992711
NINE CREEKS RESERVE,142.023479999617,-36.4559599993683
NELSON PARK,141.600460000106,-38.3664199988111
DROUIN DISTRICT RESERVE,145.812600000354,-38.0838399994316
WATTLE PARK,145.103520000484,-37.8385699988423
H WEAVER RESERVE,144.830979999454,-37.8701299986849
DONCASTER EAST RESERVE,145.161530000128,-37.778459998757
TROOPERS PICNIC AREA,142.426530000061,-37.0151299991925
TUAGGRA PLACE,143.741530000123,-37.0470699995306
ANNYA CAMP PICNIC AREA,141.582130000542,-38.018379999485
SIXTH AVENUE RESERVE,145.102919999975,-37.8584599989883
MARMAL BUSHLAND RESERVE,143.557650000101,-36.0067899993187
LONG LEAD FLAT RECREATION RESERVE,141.209590000416,-37.5834599986805
TARNAGULLA PUBLIC RESERVE,143.827920000534,-36.7745699987178
BAMBILL BUSHLAND RESERVE,141.504310000312,-34.4070699994721
LAKE BURRUMBEET PARK,143.667369999598,-37.493179999032
KOALA RESERVE,143.403069999899,-38.3481699988626
DEVON NORTH RECREATION RESERVE,146.649480000528,-38.5195099988979
BRANDON PARK RESERVE,145.164840000201,-37.9023699992591
WHEELERS HILL RESERVE,145.164840000201,-37.9023699992591
E E GUNN RESERVE,145.038770000196,-37.8979499991757
GREEN RESERVE,145.237090000014,-37.9976299987935
GREENVALE CATCHMENT RESERVE,144.916530000401,-37.6165099993043
GREENWOOD PARK,145.231410000073,-37.8180499987042
GENTLE ANNIE BERRY GARDENS,143.964869999834,-38.5487399989261
KOORANGIE GAME RESERVE,143.752919999959,-35.6273499989544
KORONG VALE RECREATION RESERVE,143.699109999474,-36.354229998696
CRANAGES PICNIC AREA,142.413199999626,-37.1084599988092
ELCHO PARK GOLF COURSE,144.363759999986,-38.0290099990899
ELDER STREET RESERVE,145.09122999999,-37.7153699993773
ELDERSLIE RESERVE,144.325420000241,-38.1426299987171
ELGAR PARK,145.112050000295,-37.7956899993062
DRUMMIES BRIDGE RESERVE,145.192309999586,-37.875379998884
KEVIN ADLARD RESERVE,145.252139999678,-37.9929599989928
LORRAINE KOVACS RESERVE,145.254029999748,-37.9776299994225
ROD LAVIN RESERVE,145.261629999489,-37.9929199994178
RAY BASTIN RESERVE,145.308010000268,-38.0335799993583
NICK DRODGE RESERVE,145.308419999511,-38.0275699991489
BOBBY HRYCKOW RESERVE,145.339630000546,-38.0108799990789
NEVILLE HAMILTON RESERVE,145.345340000565,-38.0261099986363
BILL HUDSON RESERVE,145.339680000557,-38.033499999367
BILL WOODFULL RECREATION RESERVE,144.064219999843,-36.9961599994094
JANIESLEIGH BELL PICNIC AREA,145.320420000291,-37.8915099988669
IVAN SWINBURNE RESERVE,146.746529999565,-36.5737399991706
HUTCHISON PLACE RESERVE,144.978760000274,-37.736509999443
IAN MUSGROVE RESERVE,144.879739999517,-37.6773399986431
SINGLETON RESERVE,145.351599999933,-37.8353499988941
SIR ROBERT MENZIES RESERVE,145.036009999859,-37.8454499991269
WELLS ROAD RESERVE,145.147089999652,-38.0890099987222
RAES PARK,145.338479999685,-37.9678099991704
MALAKOFF BUSHLAND RESERVE,142.984029999814,-36.9676299991131
GREY RIVER SCENIC RESERVE,143.812370000207,-38.6573499988913
BLACKBURN LAKE SANCTUARY,145.162489999474,-37.8263599986528
BILL BORTHWICK PARK,145.354030000289,-37.9137399990014
DUNKELD RECREATION RESERVE,142.33792999961,-37.6538099989097
DUNOLLY RECREATION RESERVE,143.731260000436,-36.8545699986933
EAGLEHAWK PARK,144.242089999979,-36.6926299994234
EAST BURWOOD PARK,145.159589999766,-37.8592899988532
MANGALORE FLORA PARK,145.148479999887,-36.9398499994602
DONCASTER RESERVE,145.151400000229,-37.7887199986742
GREYTHORN PARK,145.093709999937,-37.7978299992884
DAME NELLIE MELBA MEMORIAL PARK,145.002929999508,-37.8214499989653
DAREBIN CREEK RESERVE,145.031259999932,-37.6445699993217
MUGWAMP PICNIC & CAMPING GROUND,143.23515000021,-37.292899999326
DONNYBROOK MINERAL SPRING RESERVE,144.974309999633,-37.5320699988151
DONVALE RESERVE,145.175669999975,-37.7953599992177
PROCLAMATION PARK,145.221829999724,-37.8280599993515
DARGILE RESERVE,144.746810000182,-36.8528999994863
CROXFORD PARK,146.397310000198,-37.9583199988349
G J CRUICKSHANK RESERVE,144.87458999969,-37.8148499987465
PARATEA RESERVE,145.129030000557,-38.1898499988017
PARK ORCHARDS RESERVE,145.21443999982,-37.7784199987362
ORMOND PARK,144.935229999716,-37.7722399987293
F W Olver Reserve,144.934719999839,-37.7438899986362
BUNDALEER PARK,144.26452000018,-36.7344899994358
LEN T FRAZER RESERVE,143.867460000474,-37.5662999993699
PAISLEY PARK,144.85806999968,-37.8415299987679
HOOPER RESERVE,144.960240000508,-37.7775299990773
MURRABIT RECREATION GROUND,143.953480000048,-35.5301299994784
MURRAY RIVER PARK,142.451809999518,-34.6015099990497
BOREANG PICNIC AREA,142.418480000027,-37.1748499993221
MOUNT VICTORIA RESERVE,145.707640000005,-37.7315099986511
MOUNTAIN VIEW PICNIC GROUND,147.215419999506,-36.7756799991008
LEITCHVILLE RECREATION RESERVE,144.298080000487,-35.905049999507
KYARRA PARK,145.055220000423,-37.8535899988604
LANCASTER RECREATION RESERVE,145.133760000519,-36.305089999531
LANCE MOON PARK,146.203589999985,-38.8115699994292
LANGAMA PARK,144.709370000315,-37.5867499990841
TONGIO BUSHLAND RESERVE,147.693760000165,-37.1892899994752
BOARDMAN MEMORIAL RESERVE,144.695420000129,-37.5817899993424
BOB BURGESS RESERVE,145.365780000055,-38.0446899988757
BOEING RESERVE,144.900789999878,-37.7135599992386
BALES PICNIC AREA,143.240150000216,-37.3153999988466
SALE COMMON,147.081259999682,-38.1351299994526
H K MCCLEERY RESERVE,144.955980000508,-37.7434599989664
BOGONG NATIONAL PARK,147.349029999673,-36.8637399993382
M C BLACKS WALK,145.140139999875,-37.8256799994559
EDINBOROUGH RESERVE,143.559029999849,-37.6876299995057
MARIBYRNONG PARK,144.903479999827,-37.7671099988433
WERRAP EARLY PIONEER RESERVE,141.9462599998,-35.9653999992715
CAL GULLY OVAL,143.734589999871,-37.03956999895
CALDER RIVER SCENIC RESERVE,143.579590000002,-38.7201299991548
CALEMBEEN PARK,143.889109999705,-37.4178899994086
WON WRON RECREATION RESERVE,146.716050000347,-38.4717699993611
WINDMILL RESERVE,144.325019999522,-38.1528499987116
WINGHAM PARK,145.150060000451,-38.1379999989332
WINTER RESERVE,144.339389999543,-38.1847299993677
SAMUEL KOHRY RESERVE,144.882919999482,-37.8384599992162
MARYVALE ROAD RECREATION RESERVE,146.407089999687,-38.2273499989825
CAMP HILL PICNIC AREA,143.379029999588,-37.42345999892
SUTCLIFFE RESERVE,144.348839999607,-38.0625299990065
HUNTLY RECREATION RESERVE,144.33170999947,-36.6614899994564
STRAUCH RESERVE,144.33170999947,-36.6614899994564
ELMHURST GOLF CULB,143.245419999637,-37.1840099990477
BUNINYONG PUBLIC GARDENS,143.887089999811,-37.6531799989798
DUNSTAN RESERVE,144.939969999578,-37.7550199993572
GOLDEN GULLY HISTORIC GOLDFIELD,143.622920000101,-36.4387399986874
GOLDFIELDS RECREATION RESERVE,143.381100000337,-37.4399899992835
BLUE WREN PICNIC AREA,141.505699999728,-37.9345699994906
E J KING PARK,142.511660000389,-38.3901499989667
MAYER PARK,144.986500000254,-37.7589199994215
MAYORS PARK,144.993799999897,-37.7882199988658
BLACKBURN CREEKLANDS,145.145700000103,-37.8267899987343
BAREENA PARK,144.344309999797,-38.1537399992352
SAINT JAMES PARK,142.493260000436,-38.3641399989919
HOMEWOOD SWAMP GAME REFUGE,145.364309999528,-37.1784599994207
DYERS CREEK PICNIC GROUND,145.671879999974,-37.9464799993711
DOOKIE RECREATION RESERVE,145.684109999765,-36.3329599986758
BREARLEY RESERVE,144.351000000371,-38.1933199992857
P C BREARLEY RESERVE,144.935700000158,-37.7384599987821
BRENOCK PARK,145.295419999541,-37.891239998642
BRIAGOLONG FOREST RED GUM RESERVE,147.0751399996,-37.8520699991158
BRIGHT RECREATION GROUND,146.972090000396,-36.7370699990195
SPADONI RESERVE,145.351260000296,-37.6820699993414
SPARKS RESERVE,145.037689999961,-37.7787899991319
R H L SPARKS RESERVE,145.135039999452,-37.8283799991279
BOX HILL CITY RESERVE,145.138200000105,-37.8140099993985
BOX HILL GARDENS,145.122010000478,-37.8148799987446
NAVARRE RECREATION RESERVE,143.110570000332,-36.896089998977
MURPHYS CREEK RECREATION RESERVE,143.761260000195,-36.7512399987289
MOUNT KORONG SCENIC RESERVE,143.746260000083,-36.4540099986574
MOUNT WILLIAM PICNIC AREA,142.62097999948,-37.3237399992219
DUNDONNELL RECREATION RESERVE,142.975589999686,-37.9099799986461
DUNNSTOWN RECREATION RESERVE,143.96107000047,-37.587529999524
WORLAND PARK,145.159309999456,-38.1451299994008
TEMPLE PARK,144.953269999766,-37.7744199992216
TEMPLE RIDGE,145.193200000034,-37.6498499994187
TEN MILE TURNTABLE,145.687369999515,-37.7123499992344
GRACEDALE PARK,145.263160000348,-37.8223299991129
YINNAR RECREATION RESERVE,146.338759999769,-38.3051299988554
YARRA BEND NATIONAL PARK,145.015569999828,-37.7982499990761
YARRA BEND PARK,145.015569999828,-37.7982499990761
YARRA FLATS,145.072629999928,-37.7705199995044
YARRA VALLEY METROPOLITAN PARK,145.096530000322,-37.7501299987871
TANNERY RESERVE,144.909040000272,-37.8010299991234
TANTI RESERVE,145.057920000234,-38.2273499989497
TARRAVILLE RECREATION RESERVE,146.717949999796,-38.6380799992603
TAMBO VALLEY GOLF COURSE,147.784030000554,-37.1706799991938
GOBUR RECREATION RESERVE,145.603039999646,-37.0189699994505
COULSON RESERVE,144.996739999591,-37.7861099987157
E J COULSON GARDENS,144.898479999894,-37.7656799987837
F G COX RESERVE,144.982369999574,-37.7376299986379
COOLART RESERVE,145.14434999965,-38.3892899987125
COOMA RECREATION RESERVE,145.069779999636,-36.4161399992678
COOPER RESERVE,144.864869999651,-37.8365099986559
CORANDERRK BUSHLAND RESERVE,145.521260000027,-37.6842899993506
BEAU MONDE RESERVE,144.979450000063,-37.7556799992376
BEDFORD PARK,145.237190000526,-37.8146999993322
BASSETT RESERVE,144.870490000222,-37.80983999913
BARNGEONG RESERVE,145.304490000275,-37.7768599993078
HOLBROOK RESERVE,144.93626999951,-37.77021999878
HOLEY PLAINS PARK,146.895139999846,-38.2198499988049
LOCKHART RACECOURSE RESERVE,140.971259999659,-36.3495699988171
CUMBERLAND RIVER RESERVE,143.946810000524,-38.5726299993543
CUMBERLAND,143.946810000524,-38.5726299993543
YALCA RECREATION RESERVE,145.233689999927,-35.9272599990989
YAMALA PARK,145.10402999959,-38.1659599992198
WYATTS RESERVE,148.189869999562,-37.4403999995122
KILORAN PARK,145.310140000128,-37.7923499989519
KIM RESERVE,144.841259999931,-37.8628999987071
KIMBERLEY RESERVE,145.309870000408,-37.751789998767
FISHER RESERVE,144.980669999562,-37.7730499992585
FAIRFIELD PARK,145.011530000328,-37.7856799994603
FAIRPARK RESERVE,145.262920000079,-37.8690099989555
FAIRVIEW PARK RESERVE,145.024029999721,-37.830129999109
FAIRY PARK,144.261810000432,-37.8915099995302
FALLS CREEK PICNIC AREA,145.567639999527,-37.4226299988937
WOORALLA RESERVE,145.093479999449,-38.218739998849
YEA PONY CLUB,145.397640000069,-37.2120699993307
YEA RIVER PARK,145.413199999572,-37.4781799989207
YELLINGBO STATE FAUNAL RESERVE,145.497639999523,-37.8353999990815
KINDER SMITH RESERVE,144.849359999518,-37.7840799991245
KINGFISHER RESERVE,145.238229999691,-37.9773799993548
KINGLAKE WEST BUSHLAND RESERVE,145.234590000129,-37.4784599990395
KINGS DOMAIN,144.975190000214,-37.8264099986735
FAULKNER RESERVE,146.959309999761,-36.7434599992803
FAWKNER PARK,144.981740000064,-37.8409899987501
FEARON RESERVE,144.894040000563,-37.8670999990078
S FELL RESERVE,144.84376000018,-37.860399998803
ESSEX HEIGHTS RESERVE,145.113749999967,-37.8636599991498
ESSEX RESERVE,145.235420000374,-37.9687399995112
J P ESSLEMONT RESERVE,144.977920000431,-37.7742899992243
J T GRAY RESERVE,144.865010000125,-37.8566299987396
GORDON BARNARD RESERVE,145.086050000349,-37.8012299987947
CHARLTON GOLF COURSE,143.327650000228,-36.2556799993619
CHATEAU REMY,143.405149999805,-37.069849998877
CHILLINGOLLAH FAUNAL RESERVE,143.02931000004,-35.2559599994935
KINGS PARK,145.129860000173,-37.0231999986744
KINGS PARK,145.300699999762,-37.8954999990006
KINGS RESERVE,144.775980000444,-37.7328999988602
TUNGAMAH RECREATION RESERVE,145.876290000433,-36.1685399988748
WHARPARILLA FLORA RESERVE,144.722089999847,-36.1223499988362
WHATMOUGH PARK,145.104090000479,-37.7000099989272
WHIPSTICK GULLY,145.219310000206,-37.7431799993279
THE WHIPSTICK,144.260420000516,-36.6523499989452
WHIPSTICK STATE PARK,144.260420000516,-36.6523499989452
ADRIAN BUTLER OVAL,145.142920000404,-38.1537399988392
GRACE PARK,145.028569999873,-37.8204599993382
KEITH WISHART RESERVE,145.228199999594,-37.9912399986861
LORNE FOREST PARK,143.904869999965,-38.5587399987839
LYONS BUSHLAND RESERVE,141.449029999789,-38.0053999992063
MACARTHUR OLD RACECOURSE RESERVE,141.986809999904,-38.0317899992152
G F STIRLING RESERVE,144.786489999504,-37.8766399993826
SPRINGFIELD PARK,145.133830000469,-37.8092899991412
STANHOPE RECREATION RESERVE,144.990250000506,-36.4480399987669
EASTERN PARK,144.38127999965,-38.1535699989803
TURTONS CREEK PICNIC AREA,146.243759999981,-38.5312399993501
WICKHAM PARK,142.379589999738,-38.1909599992275
MEDWAY GOLF COURSE,144.866529999802,-37.7734599989791
BUCHAN HEADWATERS WILDERNESS ZONE,148.092090000034,-37.0573499990545
JOAN PHILLIPS RESERVE,145.278159999566,-37.9666399990486
IVENS RESERVE,145.315659999547,-37.9895099990046
JACANA RESERVE,144.904419999526,-37.6830599995068
JACK GRUT RESERVE,145.098850000377,-38.0092999986942
J J JACKSON RESERVE,144.976809999752,-37.732069999279
Werribee Gorge National Park,144.343759999593,-37.6603299986489
WERRIBEE PARK,144.674309999915,-37.9273499993991
STEELS CREEK PICNIC GROUND,145.372639999646,-37.5787399992527
DELLEYS DELL,142.507369999569,-37.1828999993035
A E BROWN RESERVE,145.355100000226,-38.0273199992065
JAMES ALEXANDER RESERVE,145.258990000327,-37.9832099994631
JAMES COOK RESERVE,145.246749999701,-37.9798299993212
STEPHEN CALLEJA RESERVE,144.760699999456,-37.7440099986893
ARDRIE PARK,145.053870000319,-37.8791699986617
CATHKIN RESERVE,145.580980000303,-37.1595699990841
AVOCA GOLF CLUB,143.472920000496,-37.0917899989428
GRAMPIANS GOLF COURSE,142.323479999645,-37.6031799986836
VAN CLEEF RESERVE,145.791210000462,-38.6762899987226
VICTOR IAN FOSTER RESERVE,144.934259999879,-37.590239999123
VICTORIA PARK,144.996579999468,-37.7982499992668
VICTORIA PARK,145.047749999492,-37.8023299993546
VICTORIA PARK,146.982359999472,-37.9601499987642
FAIRY DELL SCENIC RESERVE,147.777090000119,-37.6892899991447
FARNHAM STREET PARK,144.929869999561,-37.7826299987779
J P FAWKNER RESERVE,144.910830000068,-37.7191699995161
CANTERBURY GARDENS RESERVE,145.294219999771,-37.8308599987693
CAPE HOWE WILDERNESS ZONE,149.875139999604,-37.5142899988762
HAROLD HOLT MARINE RESERVE,144.662089999794,-38.3145699991508
TULIP STREET RESERVE,145.022319999755,-37.9618299986551
FERNDALE PARK,145.069259999847,-37.8526999987231
FERNSHAW RESERVE,145.604030000175,-37.6148499990071
ASHBURTON PARK,145.086800000303,-37.8633399994912
T W ANDREWS PARK,145.018020000521,-37.7155599993839
ANGLISS RESERVE,144.869699999758,-37.8173699994586
P A BURNS RESERVE,144.852639999496,-37.8631799986813
CENTENARY PARK,146.96417000049,-36.7256499992064
CENTRAL PARK,145.048909999655,-37.8660199988081
CENTRAL RESERVE,145.161719999979,-37.8912599988792
MIDDLE GULLY RESERVE,144.561530000024,-37.4195699986585
YARRALEEN RESERVE,145.089390000327,-37.7708699995062
LAGOON RESERVE,144.944330000261,-37.8411999994708
LAHINCH RESERVE,144.925700000446,-37.693179999128
LAKE CORRINGLE GAME RESERVE,148.51125999984,-37.765129999383
LAKE CURLIP STATE GAME RESERVE,148.567919999995,-37.7551299995347
LAKE MOUNTAIN ALPINE RESERVE,145.88097999979,-37.5170699992214
LAKE RESERVE,144.968390000342,-37.7330599986943
LAKE TYERS ABORIGINAL RESERVE,148.108760000417,-37.805399998721
LAKE TYERS PUBLIC HALL,148.051260000482,-37.8523499993572
KUDD PARK RESERVE,145.907449999485,-38.0311399994684
KOOLANGARRA PARK,145.716219999746,-38.0979199988616
KOOLUNGA RESERVE,145.294590000018,-37.869569999528
KOOMBA PARK,145.214060000364,-37.8477599995052
PASCOE RESERVE,143.745140000478,-37.0556399989959
GLENDONALD PARK,146.422590000051,-38.3203699988632
TYROL PARK,145.190189999755,-37.8613999993152
FERNTREE GULLY NATIONAL PARK,145.318199999848,-37.8798499992788
C C CALDER RESERVE,144.972919999627,-37.7473499993435
ANTONIO PARK,145.208100000502,-37.8143899990817
GLENORCHY GOLF CLUB,142.657650000158,-36.9076299992869
TREASURY GARDENS,144.976149999686,-37.8141099989038
KOONOOMOO RECREATION GROUND,145.576259999742,-35.89289999869
KOONUNG PARK,145.087640000363,-37.7781799987127
KOONUNG PARK,145.150559999768,-37.8087999991892
KOORNANG PARK,145.05245000042,-37.8947299987372
KOOYONG GARDENS,145.031460000197,-37.8425899989022
KELVIN THOMSON PARK,144.930570000203,-37.7361699994471
H D GRAHAM RESERVE,144.796270000048,-37.8786399987841
GRANDFILL RESERVE,145.271439999976,-37.7943099987197
DARLING GARDENS,144.992459999927,-37.7910699987273
GUNNS ROAD RESERVE,145.260930000414,-37.9959999993404
LLOYD PARK,145.349369999487,-37.9536599990218
LLOYD PARK,145.191060000209,-38.1490999986373
LLOYD RESERVE,144.822920000379,-37.7641499993315
LOCKINGTON RECREATION RESERVE,144.540559999734,-36.2659999993828
LOCKSLEY RECREATION RESERVE,145.332640000161,-36.8342899994129
BELMONT COMMON,144.35169999957,-38.1705999993166
BELMONT PARK,145.069660000331,-37.8156799990917
BEN ALEXANDER PLAYGROUND,144.998199999464,-37.8190099988789
BEN CAIRN RESERVE,145.616810000018,-37.7215099988653
PHILLIPS GARDENS,143.737100000486,-37.0489099987735
Paddys Ranges State Park,143.70167000015,-37.0860999990599
Burke Road South Reserve ,145.050280000434,-37.8491999988856
PEEL STREET OVAL,143.731809999954,-37.0406799988505
DANDENONG POLICE PADDOCKS,145.248200000481,-37.9598499988595
GREENSBOROUGH PARK,145.105909999478,-37.6999599988707
GREENWICH RESERVE,144.900090000225,-37.8526599986463
KEPPELS FALLS SCENIC RESERVE,145.844309999651,-37.4965099989277
SWAGMANS HAT FUN PARK,145.488760000155,-38.4334599989252
THE BEECHES PICNIC GROUND,145.830139999946,-37.4834599987718
WILKES CREEK PICNIC GROUND,145.722920000305,-37.5287399986489
LOG CABIN CARAVAN PARK,145.175419999934,-38.1434599986513
STEEPBANK PICNIC AREA,141.490700000047,-37.9340099990033
ARALUEN RECREATION RESERVE,147.09197999987,-38.1072199990937
CYRIL FOX RECREATION RESERVE,145.202090000359,-38.3592899994512
CRYSTAL PARK,145.131909999978,-38.0966599986727
N J TELFER RESERVE,145.064849999631,-37.704419998719
WILLIAM MCBRIAR RECREATION RESERVE,147.580419999932,-37.7976299992415
YELLOW DOG PICNIC GROUND,145.775980000083,-37.5226299986708
BERRY HIGGS PLAYGROUND,145.871260000067,-37.5142899994097
WAVERLEY PARK,145.069309999752,-37.877899998758
WEATHERHEAD FOREST RESERVE,145.614030000372,-38.0309599988317
DIXON FIELD,144.584049999492,-37.4836399988736
DOAKS RESERVE,144.517899999493,-36.816389998735
DOBSON RESERVE,144.86684999979,-37.7875799994707
ANAKIE RECREATION RESERVE,144.192089999772,-37.9303999991331
ALISTAIR KNOX PARK,145.143900000378,-37.7194599991625
WOODLANDS PARK,144.911899999596,-37.7427899986971
LALOR RESERVE,145.017090000013,-37.6678999988244
Langwarrin Flora and Fauna Reserve,145.176629999551,-38.1748099994791
LAKE TYERS RECREATION RESERVE,148.052520000314,-37.8539299987392
POREPUNKAH RECREATION RESERVE,146.911819999969,-36.6981399990523
DALTON RESERVE,144.274870000072,-35.8237399990477
Dampr Creek Reserve,145.122990000151,-37.8684099987686
DOROTHY LAVER RESERVE,145.064029999726,-37.8659599990989
DORSET PUBLIC GOLF COURSE,145.300130000542,-37.8054099987887
COATESVILLE RESERVE,145.078480000545,-37.9209599994993
SWAN HILL PIONEER SETTLEMENT,143.564310000108,-35.3484599989062
ABERFELDIE PARK,144.901420000474,-37.762469999178
ZERBES RESERVE,145.161019999924,-37.7782999995074
ZILLAH CRAWCOUR PARK,144.321930000017,-38.1445199990477
ZOOLOGICAL GARDENS,144.945700000115,-37.7837399987446
H P ZWAR RESERVE,144.996009999939,-37.74117999938
MCDONALD PARK,142.910420000375,-37.2526299986513
WYNDHOLM RESERVE,143.819030000356,-37.5220699988917
MCDONALD RESERVE,144.324360000335,-38.1820999991192
D MCDONALD RESERVE,144.974309999952,-37.7409599988882
J A MCDONALD GARDENS,144.895140000372,-37.7684599995125
MCDONALD/HEALY PLAYGROUND,145.072090000261,-37.9948499989179
MCDONNELL PARK,145.014300000397,-37.7693199988345
KURLL PARK,145.328170000251,-37.9977399988473
KURRAJONG RESERVE,145.303810000177,-37.794539999131
KYABRAM RECREATION GROUND,145.041810000368,-36.3117899994986
PINKS RESERVE,145.319149999936,-37.8130399993245
MCGRATH RECREATION GROUND,147.318760000042,-36.09734999873
WILLIAM RICKETTS SANCTUARY,145.355160000277,-37.8326699987387
MUCKATAH RECREATION RESERVE,145.634310000456,-35.999569998752
NORTHCOTT PARK,143.900680000341,-37.4307299995076
LINCOLN SQUARE,144.962889999747,-37.8024199994031
LINDENOW SOUTH GOLF COURSE,147.430699999539,-37.8323499994815
A K LINES RESERVE,145.087609999908,-37.7042999994167
LIONS PARK,147.080129999668,-38.0941199988517
H V MCKAY MEMORIAL GARDENS,144.828379999682,-37.7836699992201
MCKECHNIE RESERVE,144.798089999552,-37.7465599992917
MCKENZIE FLORA RESERVE,145.7165300004,-37.2070699987236
GREG RIDSDALE MEMORIAL CAMPING PARK,147.834030000542,-37.7112399993042
GREYS RESERVE,145.757920000345,-35.9798499993305
STANLEY PARK,144.580040000228,-37.4062699991277
STANLEY STREET RESERVE,145.059310000236,-37.866789998839
STEAD PARK,144.364270000228,-38.0828699987713
STEAVENSON FALLS RESERVE,145.767640000136,-37.533739999236
BEECHWORTH RECREATION RESERVE,146.696810000141,-36.3492899986487
BELGRAVE SOUTH RECREATION RESERVE,145.355700000095,-37.9317899987443
BARRINGO WILDLIFE RESERVE,144.637090000321,-37.4176299994762
BANDIANA GOLF COURSE,146.91903000024,-36.1520699992563
BANKSIA RESERVE,145.04227000001,-37.9863099993096
BANKSIA SQUARE,145.174870000234,-38.3912399988246
IRWIN RESERVE,144.853200000106,-37.8451299994985
DORSET HILL WILDLIFE PARK,145.670140000055,-36.5062399993852
R B DOUGLAS RESERVE,144.974309999726,-37.7762399993555
DOWTON PARK RESERVE,146.059099999574,-38.2083299992141
DINSDALE PARK,145.257369999571,-37.8676299988302
DOBSON PARK,145.286170000253,-37.8773399993634
STRATFORD SPORTS GROUND,147.084359999671,-37.9717799992708
STRATHBOGIE RECREATION RESERVE,145.739129999507,-36.8507199987421
UNION STREET RESERVE,145.023580000212,-37.8579799987223
UNIVERSITY SQUARE,144.960280000225,-37.801069999195
TUERONG RESERVE,145.074150000065,-38.2892499990032
TRICKS RESERVE,145.019370000086,-37.9653099990101
ROSANNA GOLF CLUB,145.102550000294,-37.7455799990782
UNDERA RECREATION RESERVE,145.216000000336,-36.2766499991071
RIGHETTI OVAL,145.037370000195,-37.8392899993213
RINGWOOD NORTH RESERVE,145.238669999962,-37.79516999939
RITCHIE NATURAL FLORA RESERVE,145.849590000061,-38.4448499987583
WALLACEDALE OVAL,141.79477999949,-37.9146399993768
WANDOWN STATE WILDLIFE RESERVE,142.985420000005,-34.7995699987476
WANGIE FAUNAL RESERVE,143.261530000053,-35.7026299989844
ROSS RESERVE,145.170670000127,-37.9613899988259
ROTHWELL RESERVE,144.50896000024,-37.9748399991099
NARRAPORT RECREATION RESERVE,143.123480000062,-36.0392899991445
J A BOYD MEMORIAL RESERVE,147.085530000049,-37.971599998745
BRADDY RESERVE,144.938480000122,-37.76289999903
BRAEMAR COURT RESERVE,144.330789999846,-38.1584099992834
BRAESIDE METROPOLITAN PARK,145.133480000079,-37.9942899986502
BRAMBLEFIELD RESERVE,145.152369999533,-38.1973499989816
WALLACE AVENUE RESERVE,145.145469999535,-38.1573299990407
WALLACE RECREATION RESERVE,144.049790000418,-37.5518999991183
E H JONES RESERVE,144.979470000184,-37.7616899989505
JORDAN RESERVE,145.108100000259,-37.8768199986582
J L JORDAN RESERVE,144.66597999967,-38.2634599994164
JORDANS BEND PICNIC AREA,145.383760000513,-36.3656799990654
JOSEPH HARRIS SCOUT PARK,145.004590000257,-38.2912399990017
JOSEPH LANYON RESERVE,144.654349999927,-37.889829999403
JOYCE PARK,145.045830000436,-37.9077499990396
K W JOYCE RESERVE,144.934979999875,-37.7198599993774
JUBILEE PARK,145.232040000281,-37.8231399991926
JOHN AUGUST RESERVE,145.084139999449,-37.8176099989697
JOE TABUTEAU RESERVE,146.253739999949,-38.1748099991187
JEFF FLORRIMELL RESERVE,144.807640000102,-37.7687399986833
JELLS PARK,145.200419999583,-37.9067899988711
JENNINGS RESERVE,145.360700000012,-37.8209599990928
JEREMAL FAUNAL RESERVE,147.921730000412,-36.0312299991583
YANDELL RESERVE,145.11820000001,-37.6965099987238
NAMBROK RECREATION RESERVE,146.853769999913,-38.0694299994825
NARBETHONG SPECIAL PURPOSES RESERVE,145.636530000471,-37.5776299995237
KYVALLEY RECREATION RESERVE,145.005699999625,-36.2848499989001
ELMORE RECREATION RESERVE,144.607799999903,-36.491219998951
ELTHAM CENTRAL PARK,145.144999999999,-37.7150499993837
ELTHAM COMMON,145.146260000312,-37.716789999298
ELWOOD PARK,144.986400000087,-37.8896999992734
EMERALD PARK,145.453760000069,-37.9312399989721
F A EMERY RESERVE,144.820729999492,-37.861589999229
MICHAEL LAFFAN RESERVE,144.830610000034,-37.7957799995133
MICHAEL MCCOY RESERVE,144.897630000219,-37.7921799991894
Yallourn North Recreation Reserve,146.362920000498,-38.1620699994394
HIGHFIELD PARK,145.08567999976,-37.8361999986699
HIGHTON RECREATION RESERVE,144.320980000173,-38.1709599992202
ELIZABETH BRIDGE RESERVE,145.321920000548,-37.8003999991754
MILDURA GOLF COURSE,142.136260000225,-34.1784599995421
AQUEDUCT RESERVE,145.065139999682,-37.6892899991876
PENNYWEIGHT GULLY RESERVE,143.881930000212,-37.5739399990963
PENSHURST FOOTBALL GROUND,142.29986999986,-37.870959998855
CLAREMONT PARK,144.342919999954,-38.1573499992836
CLARKE LAGOON FAUNAL RESERVE,147.911559999839,-36.0240799992116
S J CLEMENT RESERVE,144.852870000047,-37.846349999064
CLIFFORD PARK SCOUT CENTRE,145.280140000506,-37.7151299990075
M W W CLIFTON RESERVE,144.953199999469,-37.7667899987674
CLIPPERTON RESERVE,145.128479999562,-38.1895699990747
C G BARKER RESERVE,144.938200000147,-37.7684599992571
BARKLEY SQUARE RESERVE,144.445420000355,-37.2403999989964
C T BARLING RESERVE,145.039459999838,-37.7235999988554
ENSAY SOUTH RECREATION RESERVE,147.820140000316,-37.3823499992595
EPPING RESERVE,145.029029999509,-37.6409599988467
EPSOM SPORTS CENTRE,144.319030000301,-36.7042899993582
ERIC BELL RESERVE,145.147370000421,-38.1251299988451
ERIC BOARDMAN MEMORIAL RESERVE,144.696070000488,-37.582219998666
ERN BARKER RESERVE,145.284869999886,-38.0035199993392
ERNEST LLOYD RESERVE,145.646949999806,-37.8155399994063
ERRINGTON RESERVE,144.803070000169,-37.7456499986841
BUSH RESERVE,144.953929999942,-37.7423299987348
BUTTERFIELD RESERVE,145.436079999533,-37.8951599991856
BALNARRING RECREATION RESERVE,145.117200000441,-38.3622599990084
WHITEHOUSE CREEK SCENIC RESERVE,145.829309999823,-37.4831799988317
WAREENA PARK,146.310649999989,-36.3592499992717
WARR PARK,144.964480000078,-37.7602899986689
WALKER PARK,145.184700000545,-37.8164299992513
WALKER RESERVE,145.240160000112,-37.8733399992985
WALKLEY PARK,146.413149999734,-38.314889999327
WALLACE MORE PARK,144.796260000144,-37.772899999481
CHERRY TREE PICNIC AREA,148.051529999732,-37.8042899986941
ANDERSON PARK,145.048829999619,-37.8399399987699
ANDERSON RESERVE,145.820980000528,-38.4384599994136
J J ANDERSON RESERVE,144.959309999884,-37.7498499990245
N G W ANDERSON PARK,144.97237000022,-37.7670699988302
ANDREWS PARK,146.413480000243,-38.3031799990818
ANDREWS RESERVE,145.212929999708,-38.0021799987752
ANGUS FACEY RESERVE,145.302860000362,-38.0110199992873
APEX PARK PICNIC AREA,146.307090000481,-38.4278999992718
THE GIANT WORM,145.472090000083,-38.4740099987999
CATJUMP PARK,145.175140000201,-37.7803999987793
ARMSTRONG RESERVE,145.130980000336,-38.0906799994574
HINKLER RESERVE,145.174570000388,-37.8807699991441
HISLOP RESERVE,145.080960000549,-37.8000899988754
HEIDELBERG GOLF CLUB,145.114030000463,-37.7315099993533
HEIDELBERG PARK,145.072729999809,-37.7539799993279
WANTIRNA RECREATION RESERVE,145.205139999734,-37.8601299991714
WARATAH SOUTH RESERVE,145.245139999733,-37.9951299994965
WALLABY CREEK RESORT,145.249869999544,-37.4073499986524
WALLABY PARK,145.596259999713,-38.3340099990091
EASTFIELD PARK,145.278430000092,-37.8086799986361
CROYDON TOWN PARK SOUTH,145.278430000092,-37.8086799986361
D N DUANE RESERVE,144.842639999432,-37.8231399992371
W J DUGGAN RESERVE,144.979590000306,-37.7492899993378
DUMBALK RECREATION RESERVE,146.101029999904,-38.5334999994387
DUNCAN MACKINNON RESERVE,145.063939999503,-37.9053599993194
BRUNSWICK PARK,144.951570000064,-37.7644099993907
THE GRANGE,145.132369999475,-37.9453999986852
MOUNT CRAVENSVILLE SCENIC RESERVE,147.603759999547,-36.470129999215
MOUNT DANDENONG OBSERVATORY RESERVE,145.347919999844,-37.8298499991128
MOUNT DONNA BUANG RESERVE,145.678480000456,-37.7112399988215
MEREDITH PARK,143.610559999766,-38.269189999514
WATSON PARK,146.413810000447,-38.3103599995197
WATSON RESERVE,145.079870000417,-37.8670699988521
CUDGEWA RECREATION GROUND,147.787369999813,-36.1742899990458
E J WHITTEN OVAL,144.886750000419,-37.8002999987794
MOUNT HOPE RESERVE,144.202650000204,-35.990399998794
MOUNT HOTHAM ALPINE RESORT,147.119310000059,-36.9840099989423
LE PAGE PARK,145.070780000337,-37.9586899991502
LEISURELAND FAIR,145.21236999944,-38.1720699995168
MOOROOPNA RECREATION RESERVE,145.350699999811,-36.3937399990618
MOONDARRA PICNIC GROUND,146.252639999922,-38.0948499992907
FERN TREE PICNIC AREA,143.239029999781,-37.310959999322
FLAT ROCK PICNIC AREA,142.375420000531,-36.8909599987169
COROP RECREATION RESERVE,144.789310000384,-36.4595699986843
COSGROVE GOLF COURSE,145.6193100001,-36.3467899990123
THE VILLAGE RESERVE,144.794590000534,-36.1201299991403
MOORAK PARK,144.340269999538,-38.1538499988411
J E MOORE PARK,144.993970000499,-37.7168599991071
BENNETTSWOOD SPORTS GROUND,145.114309999807,-37.8495699993107
MOOROODUC QUARRY RESERVE,145.110979999552,-38.2065099994915
MOOROODUC RESERVE,145.096260000037,-38.249569998797
MONASH RESERVE,146.299350000135,-38.18301999907
WONWONDAH RECREATION RESERVE,142.132089999798,-36.877629999029
BILLYS CREEK RECREATION RESERVE,146.404310000039,-38.3434599992985
Brentwood Park Reserve,145.299669999914,-37.7898099987297
BEREMBOKE RESERVE,144.237369999473,-37.7817899991667
BERNIE LARSEN RESERVE,145.353199999736,-37.9017899987602
THE PINES,144.8918099995,-38.4776299991532
THE QUARRIES,145.006760000046,-37.7893799994526
THE BEN KAVANAGH RESERVE,145.092369999755,-38.0034599988985
TELANGATUK RECREATION RESERVE,141.974869999513,-37.1265099986895
WULGULMERANG RECREATION GROUND,148.25930999977,-37.0670699993614
WURUNDJERI WALK,145.144309999922,-37.8412399989021
C R WOOD PARK,145.68848000046,-36.0753999986615
KATAMATITE RECREATION RESERVE,145.68848000046,-36.0753999986615
VAL BOYD RESERVE,145.292919999818,-37.8840099988982
VALE STREET OVAL,146.256530000047,-38.182349999031
R T POLLARD GARDENS,144.830899999604,-37.7890599989747
WICKLIFFE RECREATION GROUND,142.721810000113,-37.6876299990841
THE GUMS PICNIC AREA WON WRON FOREST,146.708479999684,-38.516509999423
KURRAYAH CAMPING AND WATER RESERVE,141.291530000495,-37.079289999112
WAR MEMORIAL PARK RESERVE,145.097090000387,-37.7058499990324
WARATAH RESERVE,145.248259999556,-37.9933799991644
BINNACK PARK,145.084310000373,-37.695959998836
BIRDS GULLY RESERVE,146.272920000317,-38.2790099990121
CABBAGE TREE PALMS RESERVE,148.669590000294,-37.7356799994601
BURWOOD RESERVE,145.093469999649,-37.8542599988072
SYMES RESERVE,142.388619999634,-36.2395799990675
TAHARA BRIDGE RESERVE PICNIC AREA,141.664590000512,-37.6656799990476
GUNBOWER RECREATION RESERVE,144.374470000491,-35.9521799992636
LAANG BUSHLAND RESERVE,142.804029999878,-38.3665099991098
LAH-ARUM RECREATION RESERVE,142.3273699999,-36.936509999337
LAKE BATYO CATYO RECREATION RESERVE,142.947649999756,-36.5109599991417
BRIDGEWATER RECREATION RESERVE,143.945499999985,-36.605879999256
CHALCOT LODGE RESERVE,145.249959999655,-37.9696499990385
CHANDLER RESERVE,145.462920000226,-37.9251299994476
YOUNGS HOLE PICNIC AREA,141.514590000334,-37.9320699992278
D GRIEVE RESERVE,144.780420000307,-37.8842899992121
ROBERT C GRIEVE RESERVE,144.993199999741,-37.9187399994214
GRIFF HUNT RESERVE,145.291630000546,-37.7654299988287
GREAVES RESERVE,145.196260000375,-37.9839899993639
GILMOUR PARK,145.308199999722,-37.9023499995005
HUME RESERVE,144.341309999664,-38.1079899989733
MCMAHON RESERVE,145.583759999502,-38.614289999324
MAURICE & DORIS BLACKBURN RESERVE,144.938759999771,-37.7512399994764
MAYFIELD PARK RESERVE,145.117920000135,-37.8876299990161
MAYGAR PARK,145.515799999548,-36.9687099987781
THE GERRY GREEN RESERVE,145.08237000022,-37.9906799990506
TED SUMMERTON RESERVE,146.257179999746,-38.1827599994462
LAKES ENTRANCE RECREATION RESERVE,147.98830999994,-37.8780799990954
WALHALLA CRICKET GROUND,146.45376000039,-37.9365099992861
WALHALLA HISTORIC AREA,146.443760000348,-37.9356799991677
URALLA NATURE RESERVE,146.144310000409,-38.2284599990438
CANDLEBARK WALK,145.267649999672,-37.7709699991783
ARDEER COMMUNITY PARK,144.805940000385,-37.7827199989212
LAWRENCE RESERVE,145.138140000526,-37.8563999992815
ANTONIETTA TOSCANO RESERVE,145.315800000492,-38.003739998705
ARTHUR W PETERSON RESERVE,145.202830000404,-38.3649799994447
PINEVIEW PARK,145.161010000206,-37.7692199992591
WESBURN PARK,145.649230000538,-37.7717599986878
ANTHONY GROVE RESERVE,145.535569999935,-37.7776399987387
FELIX COURT RESERVE,145.533959999975,-37.7781599993939
MCKENZIE KING DRIVE RESERVE,145.658100000425,-37.7522199992145
STAGECOACH RESERVE,144.767759999781,-37.7026099988909
CALDER RISE NEIGHBOURHOOD PARK,144.823169999753,-37.7164799990589
FRANK GARTH RESERVE,146.330279999804,-36.3536799989212
J A DOUGLAS PARK LAND RESERVE,145.350509999984,-36.3778599991119
LOYS PADDOCK,145.009479999585,-37.8324999991781
FERNTREE GULLY PICNIC GROUND,145.316920000536,-37.8908799989832
GLEN STREET RESERVE,145.102479999805,-38.0222299994694
CHANDELLA RESERVE,145.253350000237,-37.8608199995337
A R MCNABB RESERVE,144.886790000461,-37.7975199989403
SETTLERS PARK,145.1352099999,-37.6938299993508
JAMES BELSAR RESERVE,143.562100000161,-35.3378699995524
VIOLET LARSEN RESERVE,145.353279999801,-37.9021699989867
M. V. MCKAY MEMORIAL GARDENS,144.828060000309,-37.7838799987124
C J CRUICKSHANK PARK,144.875249999585,-37.8157999995306
SHEILS RESERVE,144.939779999468,-37.7605899987142
A H BARRETT RESERVE,143.078909999999,-38.3260099988626
JOHN LINDSAY RESERVE,145.138590000472,-38.0797399986369
ARMSTRONGS RESERVE,145.130710000498,-38.0904799986731
RUFFEY LAKE PARK,145.138279999689,-37.7756599995175
ENTERPRIZE PARK,144.959730000046,-37.8199999987496
GALLEON PARK,147.889840000495,-36.2019899994142
N L MARTIN RESERVE,144.953759999715,-37.7045699994396
MARY CHECKLEY RESERVE,145.938980000151,-38.4790099988644
MARY MACKILLOP RESERVE,145.088759999815,-37.828459999123
GLASS SQUARE,145.155880000058,-36.7854999991625
GLEN CROMIE PARK,145.892919999921,-38.0748499993361
BALMORAL GOLF CLUB,141.869310000466,-37.2395699990626
LEO HOFFMAN RESERVE,144.878070000322,-37.8405799990449
MOORPANYAL PARK,144.374629999929,-38.1012099987689
DEER PARK RESERVE,144.777269999867,-37.7722499993042
DELACOMBE PARK,145.126899999984,-38.1618399987135
DARLING PARK,145.066260000305,-37.8703999994731
DARNUM RECREATION GROUND,146.010700000157,-38.1848499990067
LEWIS PARK,145.246360000219,-37.865799998683
WOOSANG RECREATIONAL RESERVE,143.495419999709,-36.3548499987799
GLEN IRIS PARK,145.057090000373,-37.8667899989794
GLEN WAVERLEY CENTRAL RESERVE,145.164590000264,-37.8892899988607
GIBB RESERVE,144.93137000005,-37.6680799989999
GEELONG WEST OVAL,144.345140000275,-38.1303999986733
GELLIBRAND HILL PARK,144.864309999777,-37.6562399991727
GEMBROOK PARK RESERVE,145.544309999725,-37.9548499992642
SAINT ALBANS PARK,144.381259999509,-38.1770699992751
DAVIES RESERVE,145.103050000437,-37.9201099987178
A J DAVIS RESERVE,144.873480000206,-37.7284599994722
R R M DAWSON RESERVE,144.960980000265,-37.7245699994458
WYCHEPROOF RECREATION RESERVE,143.22710999998,-36.0723799993445
NOORAMUNGA FAUNAL RESERVE,146.702370000088,-38.6934599986943
NORAH MCINTYRE RESERVE,144.846450000323,-37.8598299990613
NORFOLK PARK,145.334869999887,-37.6456799994958
HALL RESERVE,145.002639999913,-37.784849999527
SAINT HELENA BUSH RESERVE,145.138719999707,-37.6925999989703
HAWTHORN WEST RESERVE,145.020190000447,-37.8199599994736
BLESSINGTON STREET GARDENS,144.983200000458,-37.8690099987529
BLOOMS RESERVE,145.194589999651,-37.8240099991562
KALUNA PARK,146.329619999454,-36.3624999990948
Girraween Picnic Ground,145.343479999453,-37.5728999990114
RAY GILES RESERVE,145.234040000139,-37.9824499994256
G  HALLAM RESERVE,144.93958999976,-37.7170699993794
HALLIDAY PARK,145.192409999709,-37.8100299989011
R J HAMER ABORETUM,145.383760000285,-37.8565099986388
HANMER RESERVE,144.899049999481,-37.8122299988579
HANSEN RESERVE,144.876430000153,-37.7229299993122
HANSEN RESERVE,144.873090000507,-37.8041399990583
RONALD E GRAY RESERVE,145.179029999997,-37.8065099991817
OVERPORT PARK,145.122399999529,-38.1828099986833
QUAMBATOOK RECREATION RESERVE,143.524009999846,-35.8498999989544
GUMMS CORNER,144.840699999925,-37.7259599994519
CYRIL CLEMENTS RESERVE,144.778920000503,-37.7383499988777
TATYOON SPORTS GROUND,142.943110000399,-37.5240599986868
FLAGSTAFF GARDENS,144.955009999912,-37.8099699992918
FLEMING PARK,144.975180000441,-37.7686899992903
SORRENTO GOLF COURSE,144.724590000419,-38.329289999201
SORRENTO PARK,144.743370000413,-38.3365199994559
SOUTH BARWON RESERVE,144.355360000493,-38.1859899989325
TOM GRIFFIN RESERVE,145.413200000023,-37.9942899994869
TOM O'BRIEN PARK,144.842089999645,-37.7937399994782
TOM THUMB RESERVE,144.262649999501,-36.7120699992801
TONERS LANE RESERVE,146.385799999808,-38.2269799990451
CYRIL CURTAIN RESERVE,144.89985999977,-37.8709899988425
CRANBOURNE GOLF CLUB,145.282089999963,-38.0720699991808
CRANWELL PARK RESERVE,144.859589999995,-37.7776299990858
MODEWARRE RECREATION RESERVE,144.1395599995,-38.2526899987779
C H SULLIVAN RESERVE,145.037919999528,-37.731239999501
CHAPMANS PICNIC AREA,143.423759999735,-37.4398499990505
CHARLES EDWARD BROWN RESERVE,143.844119999738,-37.5368299990227
GREEN CREEK PICNIC AREA,142.396809999839,-37.2967899988594
STRAIGHT SIX PICNIC AREA,145.50958999947,-37.5553999993312
OLINDA FALLS RESERVE,145.372920000053,-37.8317899992814
OLIVE ROAD RESERVE,145.24668999961,-37.9961599991131
F W OLVER RESERVE,144.930979999835,-37.7448499994144
OLYMPIC PARK,144.983740000238,-37.8250899992324
OMEO RECREATION GROUND,147.598759999847,-37.0942899991814
ROSEA TURNTABLE,142.501810000014,-37.1792899989236
ROSENEATH RESERVE,141.22208999982,-37.4034599991903
ROSES GAP RECREATION CENTRE,142.45256999953,-36.9598499990596
L J YORK RESERVE,144.974870000108,-37.7581799993591
YOU YANGS FOREST PARK,144.421810000087,-37.9609599987836
YOUNG CREEK PICNIC AREA,148.514589999669,-37.6556799987884
LARCOMBE PARK,144.330140000046,-38.1687399987206
LAVERTON LAKE RESERVE,144.757370000057,-37.8534599993065
LAVERTON NORTH RECREATION RESERVE,144.756259999811,-37.8523499989103
LAVERTON RECREATION RESERVE,144.784590000568,-37.8620699988366
SAINT VINCENT GARDENS,144.95570000047,-37.8378999986928
HAVANA CRESCENT RESERVE,145.167369999534,-38.1426299987778
HAWKER STREET RESERVE,145.037370000099,-37.7581799990811
OCEAN GROVE NATURE RESERVE,144.528479999768,-38.2442899989305
OCEAN PARK,144.759869999498,-38.3687399993561
OLD GIPPSTOWN HISTORIC PARK,146.236260000456,-38.1848499986469
WALLOWA COMMUNITY RESERVE,145.13098000022,-37.6887399993067
WALTER STREET RESERVE,144.907780000438,-37.7755399988939
MONTEREY RESERVE,145.150700000005,-38.120679998727
MONTFORT PARK,144.960980000153,-37.7659599994333
MONTMORENCY PARK,145.112590000339,-37.7169299993601
KANANOOK RESERVE,145.133900000233,-38.1200799993736
JUBILEE PARK,145.145010000192,-38.1515899987216
JOHN CAIN MEMORIAL PARK,145.024380000351,-37.7639799989653
JOHN CASTLEY RESERVE,144.814870000121,-37.7912399995121
JOHN COSTELLO RESERVE,144.867370000053,-37.7831799987847
JOHN CUMMINS NATURE PARK,145.428249999529,-37.2072099992615
JOHN D CLIFFORD MEMORIAL RESERVE,144.559459999588,-37.4197299986437
JOHN HEMMINGS MEMORIAL PARK,145.208400000502,-37.9809299995194
JOHN MORLEY RESERVE,144.902920000055,-37.8587399990882
JOHN STROVER RESERVE,145.270150000126,-37.9614699991751
MAITS REST SCENIC RESERVE,143.554309999574,-38.7553999995198
MCALPIN RESERVE,145.243109999756,-37.790569999352
MCCANNS RESERVE,144.376810000429,-38.2681799988238
MCCLELLAND GALLERY STUDIO PARK,145.178760000181,-38.1462399989333
O T FLIGHT RESERVE,145.074030000297,-37.8790199994028
DAVID F THOMPSON RESERVE,144.891670000532,-37.7783199987219
DAVID PHILLIPS RESERVE,144.983759999647,-37.7681799988953
SAINT JAMES PARK,145.020190000447,-37.8199599994736
FLINDERS PARK,144.975699999777,-37.802899999505
OLD TANJIL PUBLIC PARK,146.197919999853,-38.0423499991426
OLD TANJIL ROAD RECREATION RESERVE,146.177089999642,-38.0601299994385
L D JOHNS RESERVE,144.937459999906,-37.7537799987988
JOHNSON PARK,145.261809999812,-37.8698499990059
NYORA RECREATION GROUND,145.676530000135,-38.337069998682
NYERIMILANG PARK,147.933479999469,-37.8701299994115
TINTALDRA RECREATION RESERVE,147.921769999949,-36.0470599994535
TIRHATUAN PARK RECREATION AREA,145.221949999543,-37.9456399994775
FLINDERS RECREATION RESERVE,145.015699999609,-38.4706799990034
FERNBANK RECREATION RESERVE,147.322679999807,-37.8736999993884
FERNTREE GULLY RECREATION RESERVE,145.292919999667,-37.891239999439
CAULFIELD PARK,145.029529999489,-37.871769999388
CAUSON RESERVE,145.591260000552,-38.592629999456
MOUNT MARTHA PUBLIC GOLF COURSE,145.024309999888,-38.2862399989519
MOUNT MARTHA PUBLIC PARK,145.003480000307,-38.2956799986603
NORTHCOTE GOLF LINKS,144.983440000539,-37.7601199993604
NORTHERN GOLF COURSE,144.93069999973,-37.7115099993684
NORTONS PARK,145.1979200001,-37.8790099987101
NORWOOD RESERVE,145.232340000172,-37.8013999990506
NOTTING HILL RESERVE,145.141530000321,-37.9015099994985
NOWA NOWA RECREATION RESERVE,148.093680000104,-37.7331799987942
LONG FOREST FLORA RESERVE,144.497370000002,-37.6445699989744
WOORIEN RECREATION RESERVE,143.468200000359,-35.271239998834
CAROLINE CHISHOLM PARK,144.839620000264,-37.7212599993551
CARRINGTON PARK,145.243459999736,-37.8956399989054
CAMP HILL PARK,144.881089999526,-37.6998099989565
CAMPBELL RESERVE,144.977660000232,-37.7560699989498
CAMPBELLS BEND RESERVE,145.232090000141,-36.6212399992292
S K PEARCE GARDENS,147.170320000259,-36.7424299992295
SAILORS FALLS RESERVE,144.116810000324,-37.3890099991075
ROWAN RESERVE,145.236359999907,-37.9864199988592
MOUNT TANGLEFOOT PICNIC AREA,145.536529999915,-37.5092899989078
MORRIS PICNIC AREA,145.654310000102,-37.3406799993402
J H MORRIS RESERVE,144.934309999639,-37.7492899990576
MORTIMORE RESERVE,145.595370000412,-37.9846799994087
MORWELL RECREATION RESERVE,146.390879999935,-38.239599998806
J F O'BRIEN RESERVE,144.779310000203,-37.8862399994565
OAK PARK RESERVE,144.92486999985,-37.720399999441
SPENCER SQUARE,144.954030000359,-37.8190099989534
CARAMUT COMMUNITY CONSERVATION RESERVE,142.515360000197,-37.9568199993614
CARLOGIE GOLF COURSE,144.87014000043,-38.4015099990069
C W CARLSSON RESERVE,144.792129999531,-37.8798599992011
CARLTON GARDENS,144.973370000035,-37.8023499987526
MOTSCHALL RESERVE,145.258980000335,-37.6426899994489
FURNESS PARK,145.150479999799,-37.8265899992153
FUTURE RESERVE,145.066530000402,-37.9478999988368
FRED GEALE OVAL,145.283300000095,-37.8022199987039
H M A S TINGIRA MEMORIAL GARDEN,144.961139999955,-37.7719499989096
HAGENAUER RESERVE,145.117670000109,-37.809519999118
HAINES RESERVE,144.321399999439,-38.1161899992539
RUBIE THOMPSON RESERVE,145.015399999755,-37.7717699993665
RUBY MCKENZIE PARK,144.540200000001,-37.3547299993533
RUFFY RECREATION RESERVE,145.515420000469,-36.9684599987367
ROYAL PARK,144.945130000307,-37.786509998964
LONG ISLAND COUNTRY CLUB,145.141529999867,-38.1295699991745
LONG POCKITT RESERVE,145.370980000177,-37.9165099993502
ORRONG PARK,145.012090000117,-37.8478999991643
OSBORNE PARK,144.356370000221,-38.1186199994003
OSWIN ROBERTS KOALA RESERVE,145.266810000459,-38.4720699989124
MONTROSE RESERVE,145.343759999774,-37.8134599991815
E E KILGOUR RESERVE,145.688169999444,-36.0792799988822
KEAST PARK,145.12402999998,-38.0861799986427
KEILOR GOLF COURSE,144.834870000537,-37.6917899994264
KEILOR RECREATION RESERVE,144.834030000306,-37.7187399993133
ROYAL PARK,143.743200000177,-37.0298499989507
NARIOKA RECREATION RESERVE,145.077920000335,-36.0326299994693
BERRIWILLOCK RECREATION RESERVE,142.990110000037,-35.6389799986756
BEAUTY SPOT SCENIC RESERVE,143.387650000057,-38.7037399994981
MITCHAM RESERVOIR RESERVE,145.183199999996,-37.8237399988988
W MITCHELL RESERVE,144.937920000051,-37.7440099991427
MITIAMO RECREATION RESERVE,144.23605000014,-36.2119999988073
NEWELL RESERVE,144.525979999674,-37.3612399990403
NEWPORT PARK,144.894339999503,-37.8439799992289
NARR MEIAN RESERVE,145.261040000349,-37.7777799994328
MARGARET OWENS RESERVE,145.29365999978,-38.0147799994919
MARIBYRNONG RESERVE,144.894739999509,-37.7685399995095
MARIBYRNONG VALLEY METROPOLITAN PARK,144.844869999475,-37.7367899990428
MARLO RACECOURSE & RECREATION RESERVE,148.559869999756,-37.7931799994972
BARRAPORT RECREATION RESERVE,143.627090000027,-36.0148499995515
BEALIBA RECREATION RESERVE,143.548879999504,-36.7929199986994
DROMANA COMMON,144.970140000131,-38.3437399987059
YARINGA CARAVAN PARK,145.241260000417,-38.2473499988974
YARRA PARK,144.985460000317,-37.8195099987673
DONALD MCLEAN RESERVE,144.883890000159,-37.8266499988356
WILLANDA PARK,145.10999000047,-37.7110599986831
WILLIAM J BARDOEL PARK,145.117919999901,-37.9776299992651
WILLIAM SYMONS PARK,144.97013999949,-37.7687399994752
WILLISON PARK,145.072529999878,-37.8398999987641
NORTHERN RESERVE,146.399089999836,-38.2299899993232
NORTHERN RESERVE,146.297380000128,-38.1740099988473
JOHNNY MULLAGH MEMORIAL PARK,141.590739999662,-37.1691999995316
HARROW RECREATION RESERVE,141.590739999662,-37.1691999995316
BOLTON STATE FAUNAL RESERVE,142.877089999736,-34.940129998773
BETLEY RECREATION RESERVE,143.800150000367,-36.9081799987061
T W BLAKE PARK,145.02499999947,-37.7415799991278
TOOLONDO GOLF CLUB,141.979029999773,-37.00456999948
TOWAN PLAIN FAUNAL RESERVE,143.11515000032,-35.1687399987858
SWAN LAKE RESERVE,145.159310000431,-38.5065099988405
EVANS RESERVE,144.349959999571,-38.0918999993328
EVERGREEN RESERVE,145.085250000198,-37.815659999522
EWART PARK,145.597920000016,-37.8842899991735
BIG DESERT WILDERNESS PARK,141.062090000339,-35.7103999988484
BIRCHIP RECREATION RESERVE,142.911520000409,-35.9788999990463
SYDNEY PARGETER RECREATION AREA,145.249850000561,-37.9641599994912
THE GAP GOLF COURSE,142.529589999854,-37.1645699992258
THE GLUT PICNIC AREA,143.267650000117,-37.2923499990507
THE GLUT ROADSIDE RESERVE,143.264309999831,-37.289849999023
THE JENNY CLAYTON EDUCATION RESERVE,143.230420000547,-37.3301299989559
THE NECK PICNIC AREA,141.460699999758,-37.944009999122
THE SANCTUARY,143.965420000032,-38.5292899987586
NEANGAR PARK GOLF COURSE,144.269310000276,-36.715679998751
FAIRBAIRN PARK,144.900770000386,-37.7760499986612
FAIRBAIRN PARK,145.010309999931,-38.2837699990484
BLUE ROCK ROAD PICNIC AREA,146.200980000186,-38.0540099990913
BUNINYONG RECREATION RESERVE,143.891130000457,-37.6491899994033
WILKUR RECREATION RESERVE,142.679590000445,-36.097899999403
WILKUR SOUTH RECREATION RESERVE,142.679590000445,-36.097899999403
WILLAURA GOLF CLUB,142.748200000394,-37.5765099994506
KANAGULK RECREATION RESERVE,141.849869999982,-37.1298499988954
KANGAROO LAKE RECREATION AREA,143.761260000001,-35.5848499992979
KENWITH PARK,144.343229999839,-38.1489299991798
WILLAURA RECREATION RESERVE,142.744399999699,-37.5451499989997
WIMMERA FOREST NURSERY,142.082369999449,-36.5078999992992
SURREY PARK,145.116100000455,-37.8261099993799
WARRACK CAMP PICNIC AREA,143.202370000354,-37.2576299990723
WARRACKNABEAL GOLF COURSE,142.409870000062,-36.2315099990065
KANUKA CREEK SCENIC RESERVE,148.86403000004,-37.3426299991419
Kardinia Park,144.353240000153,-38.1576799988927
TARRA PICNIC AREA,146.597089999648,-38.4756799987246
TAGGERTY RIVER CROSSING PICNIC GROUND,145.840140000257,-37.4901299987032
TAGGERTY RIVER PICNIC AREA,145.775140000169,-37.5037399989232
SASSELLA PARK,144.774200000493,-37.7638899988075
HOSKEN RESERVE,144.957959999481,-37.7251399995021
G J HOSKEN RESERVE,144.834379999849,-37.8307999991242
HOVELL FLORA AND FAUNA RESERVE,145.582919999686,-38.6581799988881
HOWARD GLOVER RESERVE,144.383629999558,-38.152539998839
HOWE RANGE,149.878809999564,-37.4959999992353
JUMPING CREEK RESERVE,145.244590000094,-37.7317899993673
SCARBOROUGH PARK,145.132089999938,-38.144569998706
HOGBEN/MEKIFF OVAL,145.063079999535,-37.9849699994753
HOLGATE MEMORIAL PARK,145.729589999465,-38.0948499989439
J J HOLLAND PARK,144.924050000354,-37.7979199986785
KALANG PARK,145.144589999814,-37.826789999493
KALORA PARK,145.305799999452,-37.9909699990642
W ISON RESERVE,144.657370000566,-37.8873499994469
REDFERN RESERVE,145.243729999799,-37.9999099986469
RANCEBY RESERVE,145.840419999878,-38.3728999992856
RAOUL WALLENBERG GARDENS,145.029149999683,-37.8070099986575
RATHMINES ROAD RESERVE,145.047090000426,-37.8215099995165
ROMA RESERVE,145.324999999926,-37.9055799987726
J R RISCBIETH GARDENS,144.899590000207,-37.7695699991718
RIVERSDALE PARK,145.072499999803,-37.8327199986817
ROBERT BARRETT RESERVE,144.88676999958,-37.777599998691
ROBERTS RESERVE,144.981459999539,-37.7604299988684
STEVENSON SWAMP GAME RESERVE,143.85598000015,-35.6359599989978
Hubbard Reserve,145.224759999818,-37.798859998838
W E HUBBLE RESERVE,144.783119999679,-37.8912599989617
HUDSON PARK,145.840419999662,-38.4503999987865
HUDSON RESERVE,144.941440000341,-37.76854999909
LES ROGERS RESERVE,144.872920000413,-37.7870699990805
WALLINGTON SPORTS RESERVE,144.503200000079,-38.2276299993363
UPWEY RECREATION RESERVE,145.337089999795,-37.9026299986475
DIGMAN RESERVE,144.890530000265,-37.8397099989081
DINGEE RECREATIONAL RESERVE,144.238480000502,-36.3628999989586
DINGLEY RESERVE,145.133980000411,-37.9818499987599
SOMERS PARK,145.720419999928,-37.6415099989284
SORRENTO DOWNS GOLF COURSE,144.752369999742,-38.3506799988836
VALLEY RESERVE,145.137780000457,-37.8781899987475
VENTNOR KOALA RESERVE,145.216530000376,-38.4667899992901
FERN TREE GULLY RESERVE,145.292260000184,-37.8908399993074
Harry Allen Reserve,144.57853999997,-37.685449999281
BRUSHY HILL PARK,145.297610000312,-37.767509998788
DAVID SPURLING RESERVE,144.887179999618,-37.7986799988856
Old Tanjil Public Park Reserve,146.197919999853,-38.0423499991426
MOONAMBEL TENNIS RESERVE,143.318199999655,-36.9876299989737
BELLS BEACH SURFING RECREATION RESERVE,144.281530000336,-38.3695699992195
BUNDOORA PARK,145.036819999937,-37.710539999197
ROSANNA PARKLANDS,145.067069999606,-37.7362699990168
BAXTER PARK,145.141399999795,-38.1932599992833
BAXTER RECREATION RESERVE,145.141399999795,-38.1932599992833
BANYULE FLATS RESERVE,145.097860000346,-37.7365099991552
ALEXANDRA RECREATION RESERVE,145.717090000089,-37.1817899991705
ALEXANDER RACECOURSE AND RECREATION RESERVE,145.717090000089,-37.1817899991705
BATS RIDGE FAUNAL RESERVE,141.496810000483,-38.339569999462
DALTON PARK,145.342919999692,-38.0017899992838
A W SANGER RESERVE,144.955420000339,-37.7234599990921
ALBERT WALLIS RESERVE,144.923199999821,-37.7753999992515
BRIMBANK PARK,144.840540000542,-37.7261699987671
BALFE PARK,144.977570000279,-37.7745299990864
ALLARD PARK,144.978170000026,-37.7600199989491
APPLEBY RESERVE,144.952090000125,-37.7567899993419
CHARLES GREEN RESERVE,145.252230000061,-37.9858199993349
M O MORAN RESERVE,144.976070000549,-37.8775199992667
BARWIDGEE CREEK PUBLIC RECREATION RESERVE,146.718479999797,-36.5528999989074
A M PEARSON PARK,147.593199999658,-37.1006799993744
ABRAHAMS RESERVE,144.980419999493,-37.7581799987805
A W HODGETTS RESERVE,144.663759999712,-38.2651299989327
ARTHUR BEACHLEY RESERVE,144.823919999834,-37.7970999993501
A E SHEPHERD GARDENS,144.868480000089,-37.7895699991332
MENTONE TRAINING TRACK,145.078910000569,-37.9786099994258
MENTONE RACECOURSE RESERVE,145.078910000569,-37.9786099994258
RACECOURSE RESERVE,145.078910000569,-37.9786099994258
ARDEER RESERVE,144.806259999943,-37.7776299989849
ALBERT NEWCOMBE PLAYGROUND,143.568200000107,-38.3503999991115
BEN-KURNAI COASTAL RESERVE,148.750139999923,-37.7887399987472
SIR WILLIAM FRY RESERVE,145.048519999555,-37.9555399987085
BATCHELORS GREEN,146.314419999544,-36.36027999901
BEN FRILAY OVAL,145.188759999488,-37.6398499988297
BATES RESERVE,144.898479999803,-37.8515099990083
A W KNIGHT RESERVE,144.786119999674,-37.8801599994247
ANTHONY BEALE RESERVE,145.126750000267,-37.6914899990729
BARBARA BAYER RESERVE,144.899590000139,-37.8126299991721
A B SHAW RESERVE,144.783419999854,-37.8637999993656
PERCE WHITE RESERVE,144.914270000253,-37.8406299988346
ROY PITMAN PLANTATION,145.29303000007,-37.7878599988716
J M IRVINE MEMORIAL SPORTS RESERVE,142.87348000008,-38.6028999986765
ALTONA COASTAL PARK,144.858480000182,-37.8598499995095
ARTHUR BIRD RESERVE,145.163489999727,-37.7236399994742
AUBREY MOSS MEMORIAL GARDENS,145.174030000329,-37.9651299986362
BARRY SIMON RESERVE,145.264719999622,-37.9676099990901
MOSSGIEL PARK RESERVE,145.264719999622,-37.9676099990901
ANZAC GARDEN,146.094590000041,-37.8523499993912
HUGH HODSON RESERVE,145.32582000043,-38.0248799986368
KEN BROWNE RESERVE,145.284959999623,-38.0104699994836
MAX PAWSEY RESERVE,145.297930000222,-38.0175699993777
HARRY OAKES RESERVE,145.313069999983,-38.0119799994858
WARWICK K GLENDENNING RESERVE,145.33513999997,-37.9926299987515
NOEL GOULD RESERVE,145.338199999671,-38.0067899991894
BEWSELL RESERVE,145.230739999855,-37.8918999991941
REDCOURT RESERVE,145.219909999715,-37.8944299989147
ROW RESERVE,145.226620000253,-37.9214599990806
LAKESIDE RESERVE,145.240649999911,-37.9142899990472
FLAMINGO RESERVE,145.222410000183,-37.868559999301
SHEPPARD RESERVE,145.230659999989,-37.8939799991484
ASHBROOKE PARK,145.224029999583,-37.9387399994089
BALMORAL RESERVE,145.228480000361,-37.8865099989067
HILLSIDE PARK,145.249410000541,-37.9114099989977
LLEWELLYN PARK,145.217420000128,-37.8822299987234
PINE HILL RESERVE,145.259779999717,-37.9209399991142
ARCADIA RESERVE,145.243789999467,-37.9249199991417
LAURIE & JENNY POULTON & FAMILY MEMORIAL PLAYGROUND,142.366809999519,-35.7278999989638
STARLIGHT RESERVE,145.225970000168,-37.9361399991865
BARRY RESERVE,145.274069999991,-37.9184599994779
BAMBER RESERVE,145.23511999947,-37.8895499995056
ALBERNI RESERVE,145.272179999462,-37.9096199990825
A J MITCHELL PARK,143.873480000271,-36.5728999992565
ANNIE GREENAWAY RESERVE,146.46486999943,-38.5206799987511
MINNIE HA HA FALLS PICNIC AREA,146.46486999943,-38.5206799987511
SMYTHESDALE EQUESTRIAN RESERVE,143.671260000057,-37.6506799993484
LUKE POLKINGHORNE MEMORIAL RESERVE,145.332290000014,-37.7858499988548
R W STONE RESERVE,145.163000000184,-38.3895899986542
OUTER CIRCLE RAILWAY LINEAR PARK,145.07597999992,-37.8445699990382
MONTROSE BRICKWORKS FLORA RESERVE,145.341260000113,-37.8032299987601
NORTON PARK,143.550270000255,-35.3510199989866
BEVERLEY ANTON RESERVE,144.773200000404,-37.8515799994527
RANDAZZO PARK,144.964590000055,-37.7695699991032
BROADMEADOWS VALLEY PARK,144.911080000016,-37.6647399992345
PAUL LARKINGS RECREATION RESERVE,146.285650000178,-36.3292199987757
PAT ROLLO RESERVE,145.160179999896,-38.1154499989123
PETER SHELMERDINE RESERVE,144.720450000401,-38.3276299988961
JACK O'TOOLE RESERVE,145.039590000362,-37.7917899995084
PIONEER MEMORIAL GARDEN,144.736259999833,-38.3403999993878
CUMBERLAND MEMORIAL SCENIC RESERVE,145.873480000562,-37.5620699991122
CUMBERLAND SCENIC RESERVE,145.873480000562,-37.5620699991122
J B SHEEN RESERVE,145.177090000259,-37.9545699988926
R A WADESON RESERVE,145.15199000018,-37.6664999990283
CHINATOWN PLAZA,144.969309999647,-37.8112399991304
JERRINGOT WILDLIFE SANCTUARY,144.354310000221,-38.1756799992375
FRED GRATION RESERVE,145.439320000065,-38.4349299991682
PRINCE OF WALES PARK,143.816900000512,-37.5486599990336
RUSSELL CLARK RESERVE,142.230980000509,-38.3894999992212
PRINCE OF WALES RECREATION RESERVE,143.816900000512,-37.5486599990336
JACK FLETCHER FLORA RESERVE,143.203960000271,-38.4928399992799
BILL CARROLL RESERVE,145.107489999622,-38.3977499991827
IAN TATTERSON LEISURE PARK,145.155700000228,-37.9981799993819
C W SOUTHON RESERVE,147.722609999717,-37.9102999994431
TIKALARA PARK,145.167089999935,-37.744569999258
PADDLE RESERVE,145.167089999935,-37.744569999258
