id,promoType,price,hasVideo,agentNames,brandName,addressStreet,addressSuburb,addressState,addressPostcode,addressLat,addressLng,num_bath,type,formatted,isRural,landSize,Retirement
15230553,premiumplus,$500 per week,False,Ismaeel Hussain,Samma Real Estate,322/23 Batman Street,WEST MELBOURNE,VIC,3003,-37.810738,144.95226,1.0,ApartmentUnitFlat,Apartment / Unit / Flat,False,0.0,False
15760997,premiumplus,$540 per Week,True,Conny Yang,Waterdale Property Agent Pty Ltd,2601/65 Dudley Street,WEST MELBOURNE,VIC,3003,-37.810135,144.9504,1.0,ApartmentUnitFlat,Apartment / Unit / Flat,False,0.0,False
15975970,standardpp,$650.00,False,Ismaeel Hussain,Samma Real Estate,1212/15-31 Batman Street,WEST MELBOURNE,VIC,3003,-37.810757,144.95224,2.0,ApartmentUnitFlat,Apartment / Unit / Flat,False,0.0,False
16668342,premiumplus,$560 per week,False,Ismaeel Hussain,Samma Real Estate,307/33 Batman Street,WEST MELBOURNE,VIC,3003,-37.81086,144.95183,1.0,ApartmentUnitFlat,Apartment / Unit / Flat,False,0.0,False
16803052,standardpp,$600,False,Caroline Hardeman,Ray White Williamstown,2/18 Ireland Street,WEST MELBOURNE,VIC,3003,-37.807606,144.94562,1.0,ApartmentUnitFlat,Apartment / Unit / Flat,False,0.0,False
17081791,standardpp,$500 pw,False,Stephanie Allen,Dingle Partners,18/44 Chetwynd Street,WEST MELBOURNE,VIC,3003,-37.807064,144.95253,1.0,ApartmentUnitFlat,Apartment / Unit / Flat,False,0.0,False
17121984,standardpp,"$1,200.00",False,"Jayde Cashion, Jellis Craig Inner North",Jellis Craig Fitzroy,258 Adderley Street,WEST MELBOURNE,VIC,3003,-37.807705,144.94406,2.0,Townhouse,Townhouse,False,0.0,False
17156216,standardpp,$990pw / $4302pcm,False,Prudence Walton-Pearce,Nelson Alexander Brunswick,179 Roden Street,WEST MELBOURNE,VIC,3003,-37.809,144.94658,2.0,House,House,False,0.0,False
17174637,premiumplus,"$1,100",False,Manuel Flores,Gotham Property,401/491 Victoria Street,WEST MELBOURNE,VIC,3003,-37.8047,144.94362,2.0,ApartmentUnitFlat,Apartment / Unit / Flat,False,0.0,False
17181706,premiumplus,$1150.00 pw,False,Nina Mehegan,Home AU Real Estate,1 Walsh Street,WEST MELBOURNE,VIC,3003,-37.80802,144.95451,3.0,Townhouse,Townhouse,False,0.0,False
17185927,elitepp,$630.00,False,Brandon Antrim,Jellis Craig - Brunswick,5/51 Stawell Street,WEST MELBOURNE,VIC,3003,-37.80476,144.94238,2.0,ApartmentUnitFlat,Apartment / Unit / Flat,False,0.0,False
17192159,premiumplus,$690.00,False,"Jayde Cashion, Jo McKeown, Jellis Craig Inner North",Jellis Craig Fitzroy,199 Adderley Street,WEST MELBOURNE,VIC,3003,-37.808903,144.94556,1.0,House,House,False,0.0,False
17198726,elite,$650 pw,False,Tristian Jack,W. B. Simpson & Son,459 Victoria Street,WEST MELBOURNE,VIC,3003,-37.804886,144.94469,1.0,Townhouse,Townhouse,False,0.0,False
17199701,elite,$680 per week,False,"Alex Chan, Leane Shea",Fletchers Projects Rental,2803/420 Spencer Street,WEST MELBOURNE,VIC,3003,-37.81032,144.9504,2.0,ApartmentUnitFlat,Apartment / Unit / Flat,False,0.0,False
17200741,elite,$950 per week,False,Mario Setiawan,Casa Real Estate,11/28 Ireland Street,WEST MELBOURNE,VIC,3003,-37.807446,144.94533,2.0,Townhouse,Townhouse,False,0.0,False
17200782,elite,$650.00,False,Mania Sidhu,MICM Real Estate,7/39-47 Peel Street,WEST MELBOURNE,VIC,3003,-37.80717,144.95543,1.0,ApartmentUnitFlat,Apartment / Unit / Flat,False,0.0,False
17201321,elite,$600.00,False,Abie Riady,MICM Real Estate,1408/408 Spencer Street,WEST MELBOURNE,VIC,3003,-37.810585,144.95053,1.0,ApartmentUnitFlat,Apartment / Unit / Flat,False,0.0,False
17201355,premiumplus,$670 per Week,False,Conny Yang,Waterdale Property Agent Pty Ltd,U303/65 Dudley Street,WEST MELBOURNE,VIC,3003,-37.810135,144.9504,2.0,ApartmentUnitFlat,Apartment / Unit / Flat,False,0.0,False
17201583,elitepp,$750 per week FURNISHED,False,"Zac Keltie, Gary Lewis",Belle Property South Melbourne,1903/65 Dudley Street,WEST MELBOURNE,VIC,3003,-37.810135,144.9504,2.0,ApartmentUnitFlat,Apartment / Unit / Flat,False,0.0,False
17203311,elite,$720 per week,False,"Leasing Team, Romina Alessi",Melcorp Real Estate,312/288 Adderley Street,WEST MELBOURNE,VIC,3003,-37.8072,144.94318,2.0,ApartmentUnitFlat,Apartment / Unit / Flat,False,0.0,False
9522409,elite,$520.00 per week,False,Cooper Modica,LITTLE Real Estate Victoria,204/33-43 Batman Street,WEST MELBOURNE,VIC,3003,-37.81086,144.95183,1.0,ApartmentUnitFlat,Apartment / Unit / Flat,False,0.0,False
17064004,elite,$540.00,True,Abie Riady,MICM Real Estate,210/55 Jeffcott Street,WEST MELBOURNE,VIC,3003,-37.81205,144.95174,1.0,ApartmentUnitFlat,Apartment / Unit / Flat,False,0.0,False
17088188,elite,$600 per week,False,Property Now,Property Now,112 Adderley Street,WEST MELBOURNE,VIC,3003,-37.810665,144.94797,1.0,ApartmentUnitFlat,Apartment / Unit / Flat,False,0.0,False
17097886,elite,$520.00,False,Azhar Bhatti,Barry Plant Essendon,311/23 Batman St,WEST MELBOURNE,VIC,3003,-37.810738,144.95226,1.0,ApartmentUnitFlat,Apartment / Unit / Flat,False,0.0,False
17104104,elite,$690.00,True,Mania Sidhu,MICM Real Estate,1907/408 Spencer Street,WEST MELBOURNE,VIC,3003,-37.8106,144.95053,1.0,ApartmentUnitFlat,Apartment / Unit / Flat,False,0.0,False
17104126,elite,$760 weekly,False,Michael Zhang,Areal Property - Box Hill,503/10 Wominjeka Walk,WEST MELBOURNE,VIC,3003,-37.81019,144.94905,2.0,ApartmentUnitFlat,Apartment / Unit / Flat,False,0.0,False
17120819,elite,$650 per week Unfurnished,False,Frank Du,CAN Estate Agents Pty Ltd,912/65 Dudley Street,WEST MELBOURNE,VIC,3003,-37.810135,144.9504,1.0,ApartmentUnitFlat,Apartment / Unit / Flat,False,0.0,False
17127712,elite,$630 per week (Fully Furnished),False,Kenneth Wu,Professionals First & Co,1212/65 Dudley Street,WEST MELBOURNE,VIC,3003,-37.810135,144.9504,1.0,ApartmentUnitFlat,Apartment / Unit / Flat,False,0.0,False
17132972,elite,$450 per week,False,"Kim Davey, Chelsea Menjivar",Melbourne Boutique Property,301/5 Stawell Street,WEST MELBOURNE,VIC,3003,-37.80608,144.9422,1.0,ApartmentUnitFlat,Apartment / Unit / Flat,False,0.0,False
17145523,elite,$790.00,True,Mania Sidhu,MICM Real Estate,1002/408 Spencer Street,WEST MELBOURNE,VIC,3003,-37.810585,144.95053,2.0,ApartmentUnitFlat,Apartment / Unit / Flat,False,0.0,False
17148149,elite,$720.00,True,Mania Sidhu,MICM Real Estate,1104/408 Spencer Street,WEST MELBOURNE,VIC,3003,-37.810585,144.95053,1.0,ApartmentUnitFlat,Apartment / Unit / Flat,False,0.0,False
17149674,elite,$440.00,True,Mania Sidhu,MICM Real Estate,307/53 Batman Street,WEST MELBOURNE,VIC,3003,-37.81091,144.95145,1.0,ApartmentUnitFlat,Apartment / Unit / Flat,False,0.0,False
17151769,elite,$580.00,False,Mania Sidhu,MICM Real Estate,1101/408 Spencer Street,WEST MELBOURNE,VIC,3003,-37.810585,144.95053,1.0,ApartmentUnitFlat,Apartment / Unit / Flat,False,0.0,False
17156127,elite,$680.00,True,Abie Riady,MICM Real Estate,92/33 Jeffcott Street,WEST MELBOURNE,VIC,3003,-37.811794,144.9526,2.0,ApartmentUnitFlat,Apartment / Unit / Flat,False,0.0,False
17156485,elite,$680 per week,False,"Alex Chan, Leane Shea",Fletchers Projects Rental,2103/65 Dudley Street,WEST MELBOURNE,VIC,3003,-37.810135,144.9504,2.0,ApartmentUnitFlat,Apartment / Unit / Flat,False,0.0,False
17156535,elite,$660 per week,False,"Alex Chan, Leane Shea",Fletchers Projects Rental,114/121 Rosslyn Street,WEST MELBOURNE,VIC,3003,-37.809017,144.95024,2.0,ApartmentUnitFlat,Apartment / Unit / Flat,False,0.0,False
17164804,elite,$900.00,False,Mania Sidhu,MICM Real Estate,1903/408 Spencer Street,WEST MELBOURNE,VIC,3003,-37.8106,144.95053,2.0,ApartmentUnitFlat,Apartment / Unit / Flat,False,0.0,False
17166339,elite,$500pw / $2173pcm,False,David Barnes,Nelson Alexander Northcote,311/162 Rosslyn Street,WEST MELBOURNE,VIC,3003,-37.809242,144.9489,1.0,ApartmentUnitFlat,Apartment / Unit / Flat,False,0.0,False
17167152,elite,$670.00,False,Mania Sidhu,MICM Real Estate,1707/408 Spencer Street,WEST MELBOURNE,VIC,3003,-37.810585,144.95053,1.0,ApartmentUnitFlat,Apartment / Unit / Flat,False,0.0,False
17170949,elite,$620 pw,False,"Mark Arnejo, Leah Zhao",Melplex Real Estate,1205/41 Batman Street,WEST MELBOURNE,VIC,3003,-37.810875,144.95183,1.0,ApartmentUnitFlat,Apartment / Unit / Flat,False,0.0,False
14285004,premiumplus,$460 per week ($1999 pcm),False,"Kavinda Kudage Don, Adam Abriani",Linage ,1105/568 St Kilda Road,MELBOURNE,VIC,3004,-37.847107,144.97884,1.0,ApartmentUnitFlat,Apartment / Unit / Flat,False,0.0,False
15977519,premiumplus,$675 per week,False,Ismaeel Hussain,Samma Real Estate,206/601 Little Collins Street,MELBOURNE,VIC,3004,-37.817917,144.95485,2.0,ApartmentUnitFlat,Apartment / Unit / Flat,False,0.0,False
16581346,premiumplus,"$1,250",False,Natalie Subotsch,Gotham Property,509/576 St Kilda Road,MELBOURNE,VIC,3004,-37.8484,144.97954,2.0,ApartmentUnitFlat,Apartment / Unit / Flat,False,0.0,False
16592622,premiumplus,$630.00 per week,False,Angus Brayshaw,Richardson & Wrench Projects Victoria,G06B/72 Ascot Vale Road,FLEMINGTON,VIC,3031,-37.78403,144.92305,2.0,ApartmentUnitFlat,Apartment / Unit / Flat,False,0.0,False
16609817,premiumplus,$630.00 per week,False,Angus Brayshaw,Richardson & Wrench Projects Victoria,G01A/72 Ascot Vale Road,FLEMINGTON,VIC,3031,-37.78403,144.92305,2.0,ApartmentUnitFlat,Apartment / Unit / Flat,False,0.0,False
16811696,premiumplus,$720,False,"Alexander Gorejena, Fiona Tennant",aussieproperty.com,5601/450 Elizabeth Street,MELBOURNE,VIC,3004,-37.80828,144.9607,1.0,ApartmentUnitFlat,Apartment / Unit / Flat,False,0.0,False
16926943,premiumplus,$630 Bills and Wifi Included,True,Community Host  UKO Melbourne Central,UKO,707 10 Bennetts Lane,MELBOURNE,VIC,3000,-37.809048,144.96791,1.0,ApartmentUnitFlat,Apartment / Unit / Flat,False,0.0,False
17028121,premiumplus,$580 Per Week Includes Bills and WIFI,True,Community Host  UKO Melbourne Central,UKO,703/19 Exploration Lane,MELBOURNE,VIC,3000,-37.808933,144.9681,1.0,Studio,Studio,False,0.0,False
17037893,premiumplus,$750,True,Community Host  UKO Melbourne Central,UKO,1208/10 Bennetts Lane,MELBOURNE,VIC,3000,-37.809036,144.96793,1.0,ApartmentUnitFlat,Apartment / Unit / Flat,False,0.0,False
17079308,premiumplus,$840pw | 3mnths free rent* & furnished,False,LIV Aston,LIV Aston Mirvac,1911/7 Siddeley Street,DOCKLANDS,VIC,3008,-37.821514,144.95454,1.0,ApartmentUnitFlat,Apartment / Unit / Flat,False,0.0,False
17161124,premiumplus,"$1,250 pw",False,Maria Gutterson,Dingle Partners,114/60 Siddeley Street,DOCKLANDS,VIC,3008,-37.822678,144.95253,2.0,ApartmentUnitFlat,Apartment / Unit / Flat,False,0.0,False
17162658,premiumplus,$850.00,False,Melanie Jones,Jellis Craig Inner West,7A Steel Street,SPOTSWOOD,VIC,3015,-37.824986,144.87206,3.0,House,House,False,0.0,False
17163016,premiumplus,$620 per week,False,"Kim Te, Mary Mezei",Motion Property,1606/6 Joseph Road,FOOTSCRAY,VIC,3011,-37.800327,144.90956,2.0,ApartmentUnitFlat,Apartment / Unit / Flat,False,0.0,False
17163417,premiumplus,$950 Per Week,False,"Leasing Team, Miranda Farago",Besser & Co. Estate Agents,22 Leven Avenue,DOCKLANDS,VIC,3008,-37.815525,144.93718,3.0,Townhouse,Townhouse,False,0.0,False
17163498,premiumplus,"$1,350 per week",False,Amy Fiske,Performance Asset Management Melbourne,2802/35 Spring St,MELBOURNE,VIC,3004,-37.81417,144.974,2.0,ApartmentUnitFlat,Apartment / Unit / Flat,False,0.0,False
17164811,premiumplus,$650 pw,False,"Daniel Hamilton, Bridgid Nolan",McGrath,35/2 Collins Street,MELBOURNE,VIC,3000,-37.81307,144.97357,1.0,ApartmentUnitFlat,Apartment / Unit / Flat,False,0.0,False
17173381,premiumplus,$550,False,Aaron Boal,Gotham Property,509/77 Hobsons Road,KENSINGTON,VIC,3031,-37.795876,144.91705,1.0,ApartmentUnitFlat,Apartment / Unit / Flat,False,0.0,False
17177667,premiumplus,$550.00 pw,False,Barbara Baltas,Dingle Partners,706/325 Collins Street,MELBOURNE,VIC,3000,-37.816597,144.96346,1.0,ApartmentUnitFlat,Apartment / Unit / Flat,False,0.0,False
17177988,premiumplus,$450 pw,False,Mona Wang,Dingle Partners,204/86 Altona Street,KENSINGTON,VIC,3031,-37.796715,144.9255,1.0,ApartmentUnitFlat,Apartment / Unit / Flat,False,0.0,False
17179271,premiumplus,$700 weekly,False,Edward Guo,Fletchers Canterbury,3601/81 A'Beckett Street,MELBOURNE,VIC,3000,-37.809254,144.96118,1.0,ApartmentUnitFlat,Apartment / Unit / Flat,False,0.0,False
16024235,standardpp,$590 per week,False,DIANA JURISIC,Ray White CRE,71/140 Flinders Street,MELBOURNE,VIC,3000,-37.81638,144.97035,1.0,ApartmentUnitFlat,Apartment / Unit / Flat,False,0.0,False
16548144,standardpp,$800/w PARTLY-FURNSIHED,False,Gloria Ye,AZeta Real Estate,6901/462 Elizabeth St,MELBOURNE,VIC,3000,-37.807858,144.96062,2.0,ApartmentUnitFlat,Apartment / Unit / Flat,False,0.0,False
16554829,standardpp,$490 per week,True,"Kim Te, Mary Mezei",Motion Property,401/4 Joseph Road,FOOTSCRAY,VIC,3011,-37.800327,144.90956,1.0,ApartmentUnitFlat,Apartment / Unit / Flat,False,0.0,False
17050734,standardpp,$500,False,Manuel Flores,Gotham Property,329/118 Franklin Street,MELBOURNE,VIC,3000,-37.808205,144.95891,1.0,ApartmentUnitFlat,Apartment / Unit / Flat,False,0.0,False
17115818,standardpp,"$1,000 pw",False,Mica Viotti,Dingle Partners,2403/50 Lorimer Street,DOCKLANDS,VIC,3008,-37.824562,144.94754,2.0,ApartmentUnitFlat,Apartment / Unit / Flat,False,0.0,False
17116245,standardpp,$575 per week,False,Serena Fonua,Harcourts Melbourne City,116/318 Little Bourke Street,MELBOURNE,VIC,3000,-37.812996,144.96318,1.0,ApartmentUnitFlat,Apartment / Unit / Flat,False,0.0,False
17116605,standardpp,$500 Per Week,False,Sophie Dumas,Kay & Burton Stonnington,106/155 Bourke Street,MELBOURNE,VIC,3000,-37.812805,144.96881,1.0,ApartmentUnitFlat,Apartment / Unit / Flat,False,0.0,False
17117748,standardpp,$425 pw,False,Trish Ha,Dingle Partners,208/408 Lonsdale Street,MELBOURNE,VIC,3000,-37.8126,144.9604,1.0,ApartmentUnitFlat,Apartment / Unit / Flat,False,0.0,False
17119236,standardpp,$480 pw,False,Clementina Tralongo,Dingle Partners,10/168 Arden Street,NORTH MELBOURNE,VIC,3051,-37.800354,144.94624,1.0,ApartmentUnitFlat,Apartment / Unit / Flat,False,0.0,False
17119285,standardpp,$480 pw,False,Paola Faba,Dingle Partners,3/164-168 Arden Street,NORTH MELBOURNE,VIC,3051,-37.800354,144.94624,1.0,ApartmentUnitFlat,Apartment / Unit / Flat,False,0.0,False
17119327,standardpp,$610 per week,True,Kim Te,Motion Property,13/92 New Street,SOUTH KINGSVILLE,VIC,3015,-37.831253,144.86606,2.0,Townhouse,Townhouse,False,0.0,False
17127432,standardpp,$1175 Per Week,False,Darren McMullin,Kay & Burton Stonnington,606/360 St Kilda Road,MELBOURNE,VIC,3000,-37.831825,144.97107,2.0,ApartmentUnitFlat,Apartment / Unit / Flat,False,0.0,False
17129350,standardpp,$600 weekly,False,Stephanie Wang,Fletchers Canterbury,104/616 Little Collins Street,MELBOURNE,VIC,3000,-37.817696,144.95439,1.0,ApartmentUnitFlat,Apartment / Unit / Flat,False,0.0,False
17130096,standardpp,$670 per week,False,Leasing Team,Besser & Co. Estate Agents,3.5 & 6/201 Spring Street,MELBOURNE,VIC,3000,-37.810093,144.97218,2.0,ApartmentUnitFlat,Apartment / Unit / Flat,False,0.0,False
17130504,standardpp,$850 per week,False,Jade Sterland,Jellis Craig Port Phillip Pty Ltd,903/582 St Kilda Road,MELBOURNE,VIC,3004,-37.849308,144.97942,2.0,ApartmentUnitFlat,Apartment / Unit / Flat,False,0.0,False
17138242,standardpp,$620 pw,False,Mona Wang,Dingle Partners,1107/620 Collins Street,MELBOURNE,VIC,3000,-37.818836,144.95435,1.0,ApartmentUnitFlat,Apartment / Unit / Flat,False,0.0,False
17138715,standardpp,$590 pw,False,Carson Mair,Dingle Partners,203/9 Commercial Road,MELBOURNE,VIC,3004,-37.845287,144.97978,1.0,ApartmentUnitFlat,Apartment / Unit / Flat,False,0.0,False
17139711,standardpp,$470 pw,False,Paola Faba,Dingle Partners,9/164-168 Arden Street,NORTH MELBOURNE,VIC,3051,-37.800354,144.94624,1.0,ApartmentUnitFlat,Apartment / Unit / Flat,False,0.0,False
17140053,standardpp,$410 pw,False,Paola Faba,Dingle Partners,6/164-168 Arden Street,NORTH MELBOURNE,VIC,3051,-37.800354,144.94624,1.0,ApartmentUnitFlat,Apartment / Unit / Flat,False,0.0,False
17145064,standardpp,"$1,995 pw",False,"Barbara Baltas, Pam Dingle",Dingle Partners,904/201 Collins Street,MELBOURNE,VIC,3000,-37.815475,144.96729,2.0,ApartmentUnitFlat,Apartment / Unit / Flat,False,0.0,False
13477440,elite,$420 per week,False,Tennille D'Avola,Jas Stephens Real Estate,103/26 Beaurepaire Parade,FOOTSCRAY,VIC,3011,-37.799736,144.88368,1.0,ApartmentUnitFlat,Apartment / Unit / Flat,False,0.0,False
15945111,elite,$560 per week,False,Natasha Roman,Jas Stephens Real Estate,6/245 Williamstown Road,YARRAVILLE,VIC,3013,-37.816265,144.88327,1.0,Townhouse,Townhouse,False,0.0,False
16152908,elite,$790 per week,False,Stephanie Njomkam,Jas Stephens Real Estate,6 Powell Street,YARRAVILLE,VIC,3013,-37.813576,144.88539,2.0,House,House,False,0.0,False
16639540,elite,$500.00 per week,False,Danny Campos,LITTLE Real Estate Victoria,716/250 Elizabeth Street,MELBOURNE,VIC,3000,-37.81255,144.96275,1.0,ApartmentUnitFlat,Apartment / Unit / Flat,False,0.0,False
17196551,elite,$860 Per Week,False,Cassidy Simmonds,hockingstuart Yarraville,39 Frederick Street,YARRAVILLE,VIC,3013,-37.81967,144.89517,2.0,House,House,False,0.0,False
17196613,elite,$680,False,Claire Spring,Nicholson Real Estate,4711C/633 Little Lonsdale Street,MELBOURNE,VIC,3000,-37.813824,144.95317,1.0,ApartmentUnitFlat,Apartment / Unit / Flat,False,0.0,False
17196630,elite,$720.00,False,Cassandra Micallef,Woodards,304/24 Cobden Street,NORTH MELBOURNE,VIC,3051,-37.805088,144.95776,1.0,House,House,False,0.0,False
17196753,elite,$600 per week,False,Raelene Hallmark,McGrath Yarraville,4 Brooks Place,YARRAVILLE,VIC,3013,-37.81273,144.88766,1.0,House,House,False,0.0,False
17196981,elite,$440.00,False,April Langley,Buxton Inner West,6/107 Somerville Road,YARRAVILLE,VIC,3013,-37.81333,144.88654,1.0,ApartmentUnitFlat,Apartment / Unit / Flat,False,0.0,False
17197193,elite,$750,True,"Tali Leckie, Bronte Carfino",MRE,1802/135 A'Beckett Street,MELBOURNE,VIC,3000,-37.809788,144.95964,1.0,ApartmentUnitFlat,Apartment / Unit / Flat,False,0.0,False
17197211,elite,$630 Per Week,False,Lakely Shu,ELITE REAL ESTATE (ON ELIZABETH STREET),2402/11 Rose Lane,MELBOURNE,VIC,3000,-37.815487,144.95422,1.0,ApartmentUnitFlat,Apartment / Unit / Flat,False,0.0,False
17197263,elite,$460.00,False,Miki Kawabuchi,MICM Real Estate,1804/618 Lonsdale Street,MELBOURNE,VIC,3000,-37.814415,144.9539,1.0,ApartmentUnitFlat,Apartment / Unit / Flat,False,0.0,False
17197311,elite,$550 weekly,False,Jason Low,AREAL PROPERTY MELBOURNE,13/159-169 Curzon Street,NORTH MELBOURNE,VIC,3051,-37.79909,144.94855,1.0,ApartmentUnitFlat,Apartment / Unit / Flat,False,0.0,False
17197354,elite,$750.00 per week,False,Sharon Taylor-Weeks,Cayzer Real Estate Albert Park,704B/320 Plummer Street,PORT MELBOURNE,VIC,3207,-37.83377,144.92006,2.0,ApartmentUnitFlat,Apartment / Unit / Flat,False,0.0,False
17197374,elite,$500 per week,False,"Mason Wong, Hayley Tran",Inner Real Estate NEXTRE,2602/350 William Street,MELBOURNE,VIC,3000,-37.811264,144.95662,1.0,ApartmentUnitFlat,Apartment / Unit / Flat,False,0.0,False
17197590,elite,S480 per week,False,Charles Marvelli,Marvelli Town & Associates,204/394 Collins Street,MELBOURNE,VIC,3000,-37.81682,144.96118,1.0,ApartmentUnitFlat,Apartment / Unit / Flat,False,0.0,False
17197871,elite,$575 per week,False,"Asa Salimi, Bao Phan",BRADY residential,506/5 Sutherland Street,MELBOURNE,VIC,3000,-37.811417,144.96085,1.0,ApartmentUnitFlat,Apartment / Unit / Flat,False,0.0,False
17197881,elite,$900 Per Week,False,Anastasia Jajo,hockingstuart Yarraville,12A Dean Street,YARRAVILLE,VIC,3013,-37.81961,144.88318,2.0,Townhouse,Townhouse,False,0.0,False
17197891,elite,$525 per week,False,"Asa Salimi, Marly  Mora",BRADY residential,1803/25-33 Wills Street,MELBOURNE,VIC,3000,-37.810776,144.95692,1.0,ApartmentUnitFlat,Apartment / Unit / Flat,False,0.0,False
17197900,elite,$680 per week,True,For Rent (VIC),For Sale By Owner Australia,205/8 Sutherland Street,MELBOURNE,VIC,3000,-37.811283,144.96106,2.0,ApartmentUnitFlat,Apartment / Unit / Flat,False,0.0,False
15140736,elite,$470 per week,False,Michaela Geary,Jas Stephens Real Estate,2/67 Saltley Street,SOUTH KINGSVILLE,VIC,3015,-37.830925,144.86787,1.0,ApartmentUnitFlat,Apartment / Unit / Flat,False,0.0,False
16043543,elite,$730,False,Emma Smith,Ray White Southbank & Port Phillip,1403/225 Elizabeth Street,MELBOURNE,VIC,3000,-37.81311,144.96237,1.0,ApartmentUnitFlat,Apartment / Unit / Flat,False,0.0,False
17177312,elite,$565,False,Carmelo Caputa,Melbourne Residential Property Management,2/16 Gordon Street,FOOTSCRAY,VIC,3011,-37.79378,144.88905,1.0,Townhouse,Townhouse,False,0.0,False
17177339,elite,For Lease $460 per week,False,Heather Steadman,OBrien Real Estate ,331/673 La Trobe Street,DOCKLANDS,VIC,3008,-37.814922,144.94794,1.0,ApartmentUnitFlat,Apartment / Unit / Flat,False,0.0,False
17177367,elite,$925 per week,False,Property Now,Property Now,883 COLLINS STREET,DOCKLANDS,VIC,3008,-37.82109,144.94264,1.0,ApartmentUnitFlat,Apartment / Unit / Flat,False,0.0,False
17177420,elite,$650 Per Week,False,"Nancy Ma, Vivian Zhang",BIGGIN & SCOTT MANNINGHAM,2408/5 SUTHERLAND STREET,MELBOURNE,VIC,3000,-37.811417,144.96085,1.0,ApartmentUnitFlat,Apartment / Unit / Flat,False,0.0,False
17177564,elite,$500 per week,False,"Lakely Shu, Jeff Yu",ELITE REAL ESTATE (ON ELIZABETH STREET),305/8 Mccrae Street,DOCKLANDS,VIC,3008,-37.82167,144.95099,1.0,ApartmentUnitFlat,Apartment / Unit / Flat,False,0.0,False
17177706,elite,$450 per week,False,Juan Hernandez,Lucas Real Estate,2511/288 Spencer Street,MELBOURNE,VIC,3000,-37.813812,144.95203,1.0,ApartmentUnitFlat,Apartment / Unit / Flat,False,0.0,False
17177816,elite,$740.00,False,"Alice Mosut, Sorelle Webster",Barry Plant Yarraville,5 Carder Place,YARRAVILLE,VIC,3013,-37.822674,144.88857,2.0,Townhouse,Townhouse,False,0.0,False
17178113,elite,$730 weekly,False,Jerry Bao,Ray White (Box Hill),151/8 Waterside Pl,DOCKLANDS,VIC,3008,-37.819916,144.9422,1.0,ApartmentUnitFlat,Apartment / Unit / Flat,False,0.0,False
17178163,elite,$700,True,"Bronte Carfino, Millie Bowles",MRE,804/33 Blackwood Street,NORTH MELBOURNE,VIC,3051,-37.800644,144.95563,1.0,ApartmentUnitFlat,Apartment / Unit / Flat,False,0.0,False
17178267,elite,$330,False,Sara Theodotou,Raine & Horne Brunswick,206/8 Vale Street,NORTH MELBOURNE,VIC,3051,-37.799934,144.95386,1.0,Studio,Studio,False,0.0,False
17178469,elite,$400,False,Para Taneski,Sweeney Estate Agents Williamstown,4/21 Latrobe Street,FOOTSCRAY,VIC,3011,-37.79774,144.88976,1.0,ApartmentUnitFlat,Apartment / Unit / Flat,False,0.0,False
17178743,elite,$400 per week,False,"Mason Wong, Somaya Rahimi",Inner Real Estate NEXTRE,616/268 Flinders Street,MELBOURNE,VIC,3000,-37.81771,144.96556,1.0,Studio,Studio,False,0.0,False
17179033,elite,$550.00,True,Miki Kawabuchi,MICM Real Estate,1803/601 Little Lonsdale Street,MELBOURNE,VIC,3000,-37.813744,144.95369,1.0,ApartmentUnitFlat,Apartment / Unit / Flat,False,0.0,False
17179034,elite,$530.00,True,Mania Sidhu,MICM Real Estate,3/165 Bourke Street,MELBOURNE,VIC,3000,-37.812874,144.96861,1.0,ApartmentUnitFlat,Apartment / Unit / Flat,False,0.0,False
17179113,elite,$550 per week,False,"Asa Salimi, Bao Phan",BRADY residential,201/455 Elizabeth Street,MELBOURNE,VIC,3000,-37.808453,144.96013,1.0,ApartmentUnitFlat,Apartment / Unit / Flat,False,0.0,False
17179118,elite,$700 per week,False,"Romina Alessi, Leasing Team",Melcorp Real Estate,4813/33 Rose Lane,MELBOURNE,VIC,3000,-37.815,144.95387,1.0,ApartmentUnitFlat,Apartment / Unit / Flat,False,0.0,False
17179295,elite,$710 Per Week I Furnished,False,Laura Braun,Evoke Property,12a/60 Queens Road,MELBOURNE,VIC,3000,-37.81707,144.96188,1.0,ApartmentUnitFlat,Apartment / Unit / Flat,False,0.0,False
17179297,elite,$675,True,"Tali Leckie, Thembie  Sikwila",MRE,2704/483 Swanston Street,MELBOURNE,VIC,3000,-37.807137,144.96233,1.0,ApartmentUnitFlat,Apartment / Unit / Flat,False,0.0,False
10892306,elite,$540.00 per week,False,Danny Campos,LITTLE Real Estate Victoria,600/18 Waterview Walk,DOCKLANDS,VIC,3008,-37.819168,144.94757,1.0,ApartmentUnitFlat,Apartment / Unit / Flat,False,0.0,False
15424051,elite,$700,False,Sarah Boccari,Longview Real Estate,501/199 William Street,MELBOURNE,VIC,3000,-37.81457,144.95735,1.0,ApartmentUnitFlat,Apartment / Unit / Flat,False,0.0,False
17070058,elite,$540,False,Mia Bakri,Landmark Real Estate,704/450 ST KILDA ROAD,MELBOURNE,VIC,3004,-37.838615,144.97589,1.0,ApartmentUnitFlat,Apartment / Unit / Flat,False,0.0,False
17179315,elite,$740,False,Elvis Ng,Apex Investment Alliance,1306E/888 Collins Street,DOCKLANDS,VIC,3008,-37.820473,144.94252,1.0,ApartmentUnitFlat,Apartment / Unit / Flat,False,0.0,False
17179427,elite,$825,False,"Thembie  Sikwila, Annabelle Munt",MRE,1401/157 A'Beckett Street,MELBOURNE,VIC,3000,-37.81,144.95882,2.0,ApartmentUnitFlat,Apartment / Unit / Flat,False,0.0,False
17179547,elite,$590 per week,False,"Mason Wong, Hayley Tran",Inner Real Estate NEXTRE,1511/568 St Kilda Road,MELBOURNE,VIC,3004,-37.847107,144.97884,1.0,ApartmentUnitFlat,Apartment / Unit / Flat,False,0.0,False
17179948,elite,$750 per week,False,Illy Bakesy,Jas Stephens Real Estate,9/37 Stephen Street,YARRAVILLE,VIC,3013,-37.81239,144.89597,2.0,Townhouse,Townhouse,False,0.0,False
17180250,elite,$525pw / $2281 pcm,False,"Alex Leonard, Kelsey Lincoln",Nelson Alexander Reservoir,1101/408 Lonsdale Street,MELBOURNE,VIC,3000,-37.8126,144.9604,1.0,ApartmentUnitFlat,Apartment / Unit / Flat,False,0.0,False
17180432,elite,$750 Furnished,True,Maggie H,Ausview Estate Agents,2503/228 La Trobe Street,MELBOURNE,VIC,3000,-37.809616,144.9623,1.0,ApartmentUnitFlat,Apartment / Unit / Flat,False,0.0,False
17180585,elite,$580 per week,False,"Hendy Nora, James Ji",Core Realty Pty Ltd,1208/120 Abeckett Street,MELBOURNE,VIC,3000,-37.809307,144.95973,1.0,ApartmentUnitFlat,Apartment / Unit / Flat,False,0.0,False
17180934,elite,$680 per week,False,"Asa Salimi, Spencer Xu",BRADY residential,1810/500 Elizabeth Street,MELBOURNE,VIC,3000,-37.807137,144.96037,2.0,ApartmentUnitFlat,Apartment / Unit / Flat,False,0.0,False
17180968,elite,$750 a week and Furnished Option Extra pw,False,Leasing Team,LJ Hooker City Residential,4703/568 Collins Street,MELBOURNE,VIC,3000,-37.818375,144.95543,2.0,ApartmentUnitFlat,Apartment / Unit / Flat,False,0.0,False
17181041,elite,$520/week,False,Leasing Team,First National Avant - Box Hill,514/339 Swanston Street,MELBOURNE,VIC,3000,-37.810383,144.9638,1.0,ApartmentUnitFlat,Apartment / Unit / Flat,False,0.0,False
17181593,elite,$550.00,True,Miki Kawabuchi,MICM Real Estate,4006/601 Little Lonsdale Street,MELBOURNE,VIC,3000,-37.813744,144.95369,1.0,ApartmentUnitFlat,Apartment / Unit / Flat,False,0.0,False
17181702,elite,$1050 per week,False,"Hendy Nora, James Ji",Core Realty Pty Ltd,4201/119 A'beckett Street,MELBOURNE,VIC,3000,-37.809578,144.96008,2.0,ApartmentUnitFlat,Apartment / Unit / Flat,False,0.0,False
17181930,elite,$460 P/W,False,Nelson Wu,CT Real Estate,1103/2 Hallenstein Street,FOOTSCRAY,VIC,3011,-37.80043,144.90816,1.0,ApartmentUnitFlat,Apartment / Unit / Flat,False,0.0,False
17181996,elite,$620.00,False,Aryanaz Moradi,MICM Real Estate,4812/560 Lonsdale Street,MELBOURNE,VIC,3000,-37.813976,144.95576,1.0,ApartmentUnitFlat,Apartment / Unit / Flat,False,0.0,False
17182121,elite,$800,True,"Bronte Carfino, Tali Leckie",MRE,916/35 Albert Road,MELBOURNE,VIC,3004,-37.834694,144.9721,2.0,ApartmentUnitFlat,Apartment / Unit / Flat,False,0.0,False
17182298,elite,$630pw,False,Ann Borg,Village Real Estate ,455 Geelong Road,YARRAVILLE,VIC,3013,-37.812218,144.86708,1.0,House,House,False,0.0,False
17182382,elite,$600.00,True,Angie Tang,MICM Real Estate,3201/296 Little Lonsdale Street,MELBOURNE,VIC,3000,-37.81149,144.96062,1.0,ApartmentUnitFlat,Apartment / Unit / Flat,False,0.0,False
10809711,premiumplus,$220,False,Peter Blair,Peter Blair Property Management,413/500 Flinders Street,MELBOURNE,VIC,3000,-37.820007,144.95784,1.0,ApartmentUnitFlat,Apartment / Unit / Flat,False,0.0,False
16633591,premiumplus,$510 per week,False,"Kim Te, Mary Mezei",Motion Property,205/6 Joseph Road,FOOTSCRAY,VIC,3011,-37.800327,144.90956,1.0,ApartmentUnitFlat,Apartment / Unit / Flat,False,0.0,False
17174663,premiumplus,$480.00,False,"Jayde Cashion, Jellis Craig Inner North",Jellis Craig Fitzroy,207/29-35 Wreckyn Street,NORTH MELBOURNE,VIC,3051,-37.800037,144.95418,1.0,ApartmentUnitFlat,Apartment / Unit / Flat,False,0.0,False
17184735,premiumplus,LEASED NO FURTHER INSPECTIONS,False,Georgie Sinclair,Real Property Agent Melbourne,60 Tennyson Street,KENSINGTON,VIC,3031,-37.798397,144.9289,1.0,House,House,False,0.0,False
17188316,premiumplus,$850 per week,False,"Jim Georgiou, Darren Krause",Harcourts Melbourne City,316/350 Victoria Street,NORTH MELBOURNE,VIC,3051,-37.80552,144.95473,1.0,ApartmentUnitFlat,Apartment / Unit / Flat,False,0.0,False
17194483,premiumplus,$350.00,False,"Melanie Jones, Elliott Heslop",Jellis Craig Inner West,4/97 New Street,SOUTH KINGSVILLE,VIC,3015,-37.83232,144.86679,1.0,ApartmentUnitFlat,Apartment / Unit / Flat,False,0.0,False
17194710,premiumplus,$835,False,Lili Dhanapala,Nine Elm,1306/300 Plummer St,PORT MELBOURNE,VIC,3207,-37.833885,144.91951,2.0,ApartmentUnitFlat,Apartment / Unit / Flat,False,0.0,False
17194777,premiumplus,"$1,200 weekly",False,"Shakira Jaisingh-Fluitsma, Simone Narduzzo",Chisholm & Gamon Elwood,287 Ross Street,PORT MELBOURNE,VIC,3207,-37.83256,144.94186,2.0,House,House,False,0.0,False
17195040,premiumplus,$675 per week,False,Ismaeel Hussain,Samma Real Estate,3712/80 ABeckett Street,MELBOURNE,VIC,3000,-37.809,144.96107,1.0,ApartmentUnitFlat,Apartment / Unit / Flat,False,0.0,False
17195136,premiumplus,$650 per week,False,Ismaeel Hussain,Samma Real Estate,"3002B/11 Rose Lane,",MELBOURNE,VIC,3000,-37.815487,144.95422,1.0,ApartmentUnitFlat,Apartment / Unit / Flat,False,0.0,False
17195200,premiumplus,$1175.00 per week,False,Jade Sterland,Jellis Craig Port Phillip Pty Ltd,46 Evans Street,PORT MELBOURNE,VIC,3207,-37.83561,144.93826,2.0,House,House,False,0.0,False
17195504,premiumplus,$725 pw,False,Abie Munz,McGrath St Kilda,26/418 St Kilda Road,MELBOURNE,VIC,3000,-37.821404,144.96938,1.0,ApartmentUnitFlat,Apartment / Unit / Flat,False,0.0,False
17195929,premiumplus,$795.00,False,"Jay Jacob-Green, Bailey  Park",Buxton St Kilda,310/232-242 Rouse Street,PORT MELBOURNE,VIC,3207,-37.840714,144.93744,2.0,ApartmentUnitFlat,Apartment / Unit / Flat,False,0.0,False
17196214,premiumplus,$500per week,True,Kim Te,Motion Property,1508/2 Joseph Road,FOOTSCRAY,VIC,3011,-37.800327,144.90956,1.0,ApartmentUnitFlat,Apartment / Unit / Flat,False,0.0,False
17197393,premiumplus,$700,True,"Christian Neofotistos, Hassan Allouche",Ray White Brunswick,14 Clarence Street,FLEMINGTON,VIC,3031,-37.78696,144.92557,1.0,House,House,False,0.0,False
17197651,premiumplus,$570.00,False,Barbara Baltas,Dingle Partners,804/225 Elizabeth Street,MELBOURNE,VIC,3000,-37.81311,144.96237,1.0,ApartmentUnitFlat,Apartment / Unit / Flat,False,0.0,False
17197768,premiumplus,$850,False,"Lorena Lore, Christian Hidayat",GBE Property Investments,911/915 Collins Street,DOCKLANDS,VIC,3008,-37.820675,144.94011,2.0,ApartmentUnitFlat,Apartment / Unit / Flat,False,91.0,False
17197776,premiumplus,$640,False,"Lorena Lore, Christian Hidayat",GBE Property Investments,2010/628 Flinders Street,DOCKLANDS,VIC,3008,-37.820972,144.95325,1.0,ApartmentUnitFlat,Apartment / Unit / Flat,False,0.0,False
17197777,premiumplus,"$1,250",False,"Lorena Lore, Christian Hidayat",GBE Property Investments,1708/450 St Kilda Road,MELBOURNE,VIC,3004,-37.838615,144.97589,2.0,ApartmentUnitFlat,Apartment / Unit / Flat,False,0.0,False
17198148,premiumplus,$980.00,False,"Jayde Cashion, Jellis Craig Inner North",Jellis Craig Fitzroy,11 Canning Street,NORTH MELBOURNE,VIC,3051,-37.796684,144.94585,1.0,House,House,False,0.0,False
16417813,elite,$360 Per Week,False,Gary Han,ELITE REAL ESTATE (ON ELIZABETH STREET),105/62-68 Hayward Lane,MELBOURNE,VIC,3000,-37.80898,144.96687,1.0,ApartmentUnitFlat,Apartment / Unit / Flat,False,0.0,False
16599176,elite,UNDER APPLICATION,False,"Terry Zhang, Tony Gao",MATRIX GLOBAL INVESTMENT GROUP MELBOURNE PTY LTD,1007/815 Bourke St,DOCKLANDS,VIC,3008,-37.81993,144.94446,1.0,ApartmentUnitFlat,Apartment / Unit / Flat,False,0.0,False
16604617,elite,$700 per week,False,Christine Baldasso,Jas Stephens Real Estate,23 Lovett Walk,FOOTSCRAY,VIC,3011,-37.801044,144.8852,2.0,House,House,False,0.0,False
17037014,elite,$550 weekly,False,"Tia Perry, Tijen Akdeniz",Frank Dowling,12 Kensington Road,KENSINGTON,VIC,3031,-37.794376,144.92679,1.0,House,House,False,0.0,False
17068611,elite,$480.00,False,"Amanda Carr, Yvonne Elmenawi",Gunn &Co Estate Agents,20 Jubilee Street,NEWPORT,VIC,3015,-37.84706,144.87025,1.0,House,House,False,0.0,False
17078908,elite,"$1,155pw | 3mnths free rent* & car park",False,LIV Aston,LIV Aston Mirvac,2613/7 Siddeley Street,DOCKLANDS,VIC,3008,-37.821514,144.95454,2.0,ApartmentUnitFlat,Apartment / Unit / Flat,False,0.0,False
17087656,elite,$520.00,False,"Amanda Carr, Yvonne Elmenawi",Gunn &Co Estate Agents,2/26 Thorpe Street,NEWPORT,VIC,3015,-37.845757,144.86531,1.0,Townhouse,Townhouse,False,0.0,False
17090908,elite,$650 and Fully Furnished Option At Extra pw,False,Leasing Team,LJ Hooker City Residential,1302/279-283 La Trobe Street,MELBOURNE,VIC,3000,-37.810673,144.96094,1.0,ApartmentUnitFlat,Apartment / Unit / Flat,False,0.0,False
17101397,elite,$620 per week,False,"Diana Camacho, Leasing Team",Melcorp Real Estate,301/151 Berkeley Street,MELBOURNE,VIC,3000,-37.8021,144.95839,1.0,ApartmentUnitFlat,Apartment / Unit / Flat,False,0.0,False
17119860,elite,$600,False,Elvis Ng,Apex Investment Alliance,307E/888 Collins Street,DOCKLANDS,VIC,3008,-37.82063,144.94257,1.0,ApartmentUnitFlat,Apartment / Unit / Flat,False,0.0,False
17125233,elite,$700 per week,False,Daisy Au,Belle Property Balwyn,1701S/889 Collins Street,DOCKLANDS,VIC,3008,-37.820915,144.94186,2.0,ApartmentUnitFlat,Apartment / Unit / Flat,False,0.0,False
17145372,elite,$1180 per week,False,"Asa Salimi, Emma  Luo",BRADY residential,4105/28 Timothy Lane,MELBOURNE,VIC,3000,-37.81227,144.96114,2.0,ApartmentUnitFlat,Apartment / Unit / Flat,False,0.0,False
17145383,elite,$650 Fully Furnished pw,True,Leasing Team,LJ Hooker City Residential,1205/568 Collins Street,MELBOURNE,VIC,3000,-37.818375,144.95543,1.0,ApartmentUnitFlat,Apartment / Unit / Flat,False,0.0,False
17149919,elite,$980,False,Elvis Ng,Apex Investment Alliance,29 Tarver Street,PORT MELBOURNE,VIC,3207,-37.83417,144.92241,2.0,Townhouse,Townhouse,False,0.0,False
17157655,elite,$725 per week,False,"Asa Salimi, Emma  Luo",BRADY residential,1107/371 Little Lonsdale Street,MELBOURNE,VIC,3000,-37.811775,144.96101,1.0,ApartmentUnitFlat,Apartment / Unit / Flat,False,0.0,False
17157793,elite,$550.00,False,"Amanda Carr, Yvonne Elmenawi",Gunn &Co Estate Agents,5/78 Queens Road,MELBOURNE,VIC,3004,-37.85308,144.97952,1.0,ApartmentUnitFlat,Apartment / Unit / Flat,False,0.0,False
17159283,elite,$900 per week & Furnish,False,"Hendy Nora, James Ji",Core Realty Pty Ltd,2006/119 A'beckett Street,MELBOURNE,VIC,3000,-37.809574,144.96011,2.0,ApartmentUnitFlat,Apartment / Unit / Flat,False,0.0,False
17159885,elite,$630/week,False,Leasing Team,First National Avant - Box Hill,1906/568 Collins Street,MELBOURNE,VIC,3000,-37.818375,144.95543,1.0,ApartmentUnitFlat,Apartment / Unit / Flat,False,0.0,False
17161889,elite,$688 per week,False,RentBetter Team,RentBetter,103/35 Victoria Street,FOOTSCRAY,VIC,3011,-37.80146,144.89291,1.0,ApartmentUnitFlat,Apartment / Unit / Flat,False,0.0,False
17198039,elite,$680 pw Furnished,False,RentBetter Team,RentBetter,Unit 220/60 Siddeley St,DOCKLANDS,VIC,3008,-37.822678,144.95253,1.0,ApartmentUnitFlat,Apartment / Unit / Flat,False,0.0,False
15332984,elite,$830 pw Furnished,False,RentBetter Team,RentBetter,109/1 Danks Street West,PORT MELBOURNE,VIC,3207,-37.843582,144.94405,1.0,ApartmentUnitFlat,Apartment / Unit / Flat,False,0.0,False
16439494,elite,$560 PER WEEK,False,"VI A, Ken Yu",Chandon Realestate,1305/8 Pearl River Rd,DOCKLANDS,VIC,3008,-37.81565,144.93825,1.0,ApartmentUnitFlat,Apartment / Unit / Flat,False,0.0,False
16574664,elite,$720 per week,False,RentBetter Team,RentBetter,207/601 Saint Kilda Road,MELBOURNE,VIC,3004,-37.85058,144.98131,2.0,ApartmentUnitFlat,Apartment / Unit / Flat,False,0.0,False
17174936,elite,$480 pw / $2086 pcm,False,"Julia Baggio, Leo Maugeri",Nelson Alexander Reservoir,11/100 Arden Street,NORTH MELBOURNE,VIC,3051,-37.800568,144.94826,1.0,ApartmentUnitFlat,Apartment / Unit / Flat,False,0.0,False
17174987,elite,$470 per week,False,Tennille D'Avola,Jas Stephens Real Estate,1/49 Napier Street,FOOTSCRAY,VIC,3011,-37.80482,144.9024,1.0,ApartmentUnitFlat,Apartment / Unit / Flat,False,0.0,False
17175035,elite,$490 per week,False,"Eva Christodoulou, Dylan Emmett",Lucas Real Estate,1710/8 McCrae Street,DOCKLANDS,VIC,3008,-37.82167,144.95099,1.0,ApartmentUnitFlat,Apartment / Unit / Flat,False,0.0,False
17175155,elite,$950 per week,False,Mira Skrbic,Biggin & Scott Port Melbourne,7 Bruford Road,PORT MELBOURNE,VIC,3207,-37.828556,144.94252,3.0,Townhouse,Townhouse,False,0.0,False
17175396,elite,$800,False,"Stephanie Petrakis, Trent Dickson",Ray White Glen Waverley,706/18 Russell Place,MELBOURNE,VIC,3000,-37.81349,144.96738,2.0,ApartmentUnitFlat,Apartment / Unit / Flat,False,0.0,False
17175629,elite,$650.00,True,Mike Yuan,MICM Real Estate,205/28 Little Lonsdale Street,MELBOURNE,VIC,3000,-37.808582,144.97063,1.0,ApartmentUnitFlat,Apartment / Unit / Flat,False,0.0,False
17175715,elite,$600 weekly,False,Shaun Young,AREAL PROPERTY MELBOURNE,708/243 Franklin Street,MELBOURNE,VIC,3000,-37.809772,144.957,1.0,ApartmentUnitFlat,Apartment / Unit / Flat,False,0.0,False
17175909,elite,$480 per week,False,"Asa Salimi, Saskia Hill",BRADY residential,1204/8 Exploration Lane,MELBOURNE,VIC,3000,-37.809082,144.96846,1.0,ApartmentUnitFlat,Apartment / Unit / Flat,False,0.0,False
17175987,elite,$850,False,Ding Qi,D - Australia Real Estate,814b/639 Little Lonsdale Street,MELBOURNE,VIC,3000,-37.81419,144.95258,2.0,ApartmentUnitFlat,Apartment / Unit / Flat,False,0.0,False
17176056,elite,$480 per week,False,Amanda Liu,Twig Real Estate,707/555 Flinders Street,MELBOURNE,VIC,3000,-37.820972,144.95648,1.0,ApartmentUnitFlat,Apartment / Unit / Flat,False,0.0,False
17176259,elite,$540.00,False,Mike Yuan,MICM Real Estate,905/18-20 Bank Place,MELBOURNE,VIC,3000,-37.816425,144.96045,1.0,ApartmentUnitFlat,Apartment / Unit / Flat,False,0.0,False
17176365,elite,$575 per week,False,"Asa Salimi, Bao Phan",BRADY residential,703/455 Elizabeth Street,MELBOURNE,VIC,3000,-37.808453,144.96013,1.0,ApartmentUnitFlat,Apartment / Unit / Flat,False,0.0,False
17176555,elite,$600 weekly,False,Renata Xiang,Areal Property - Box Hill,407/83 Flemington Road,NORTH MELBOURNE,VIC,3051,-37.79866,144.95335,1.0,ApartmentUnitFlat,Apartment / Unit / Flat,False,0.0,False
17176820,elite,$620 per week,False,"Diana Camacho, Leasing Team",Melcorp Real Estate,1907/25 Therry Street,MELBOURNE,VIC,3000,-37.806957,144.9611,1.0,ApartmentUnitFlat,Apartment / Unit / Flat,False,0.0,False
17176952,elite,$675 per week,False,Illy Bakesy,Jas Stephens Real Estate,61 Tarrengower Street,YARRAVILLE,VIC,3013,-37.81772,144.8898,1.0,House,House,False,0.0,False
17177228,elite,$1350.00 per week,False,Kim Menzies,Cayzer Real Estate Albert Park,107 Clark Street,PORT MELBOURNE,VIC,3207,-37.834602,144.93486,1.0,House,House,False,0.0,False
17177282,elite,*UNDER APPLICATION*,False,Carmelo Caputa,Melbourne Residential Property Management,1/17 Gordon Street,FOOTSCRAY,VIC,3011,-37.788937,144.89015,1.0,ApartmentUnitFlat,Apartment / Unit / Flat,False,0.0,False
14593045,standardpp,$450.00 per week,False,Cooper Modica,LITTLE Real Estate Victoria,802/1 Ascot Vale Road,FLEMINGTON,VIC,3031,-37.78678,144.92131,1.0,ApartmentUnitFlat,Apartment / Unit / Flat,False,0.0,False
15305040,standardpp,$575,True,"Annabelle Munt, Bronte Carfino",MRE,1614/33 Mackenzie Street,MELBOURNE,VIC,3000,-37.807835,144.96698,1.0,ApartmentUnitFlat,Apartment / Unit / Flat,False,0.0,False
16305089,standardpp,$750 per week,False,Jane Brettell,Raine & Horne Williamstown,84 Alma Terrace,NEWPORT,VIC,3015,-37.847103,144.88988,1.0,House,House,False,0.0,False
16645370,standardpp,$720 per week,False,Mitchell Busuttil,Raine & Horne Williamstown,2/171 Mason Street,NEWPORT,VIC,3015,-37.841404,144.8685,1.0,Townhouse,Townhouse,False,0.0,False
16872891,standardpp,$450,True,"Annabelle Munt, Thembie  Sikwila",MRE,821/585 La Trobe Street,MELBOURNE,VIC,3000,-37.813267,144.95183,1.0,ApartmentUnitFlat,Apartment / Unit / Flat,False,0.0,False
16972686,standardpp,$880,False,"Travis Flint, Carley Trewin",Ray White Williamstown,12 Abbott Street,SPOTSWOOD,VIC,3015,-37.825283,144.87053,2.0,Townhouse,Townhouse,False,0.0,False
17079304,standardpp,$590pw | 3mnths free rent*,False,LIV Aston,LIV Aston Mirvac,1916/7 Siddeley Street,DOCKLANDS,VIC,3008,-37.821514,144.95454,1.0,Studio,Studio,False,0.0,False
17145614,standardpp,LEASED NO FURTHER INSPECTIONS,False,Georgie Sinclair,Real Property Agent Melbourne,129 Heath Street,PORT MELBOURNE,VIC,3207,-37.83386,144.94551,2.0,House,House,False,0.0,False
17175586,standardpp,$600.00,False,Caterina Italiano,Woodards Ascot Vale,20 Marwick Street,FLEMINGTON,VIC,3031,-37.7814,144.93184,1.0,House,House,False,0.0,False
17177293,standardpp,$610,False,"Travis Flint, Kristen Standish",Ray White Williamstown,25 Brunel Street,SOUTH KINGSVILLE,VIC,3015,-37.828518,144.8683,1.0,Townhouse,Townhouse,False,0.0,False
17179669,standardpp,$680 pw,False,Tristian Jack,W. B. Simpson & Son,5 Harris Street,NORTH MELBOURNE,VIC,3051,-37.799603,144.94934,1.0,Townhouse,Townhouse,False,0.0,False
17181356,standardpp,$600 pw,False,"Ruella Head, Tass Roussos",Belle Property St Kilda,4/58 Queens Road,MELBOURNE,VIC,3004,-37.84839,144.9779,1.0,ApartmentUnitFlat,Apartment / Unit / Flat,False,0.0,False
17181663,standardpp,$520 pw,False,Tristian Jack,W. B. Simpson & Son,GF/118 Errol Street,NORTH MELBOURNE,VIC,3051,-37.801197,144.95003,1.0,ApartmentUnitFlat,Apartment / Unit / Flat,False,0.0,False
17182437,standardpp,$650 per week,False,"Simon Jones - Albert Park, Amanda Wilson",RT Edgar Albert Park,22/2 Esplanade West,PORT MELBOURNE,VIC,3207,-37.84406,144.94106,1.0,ApartmentUnitFlat,Apartment / Unit / Flat,False,0.0,False
17184201,standardpp,Price on Application,False,Adam Farrugia,WP Real Estate,1505/70 Lorimer Street,DOCKLANDS,VIC,3008,-37.82475,144.94554,2.0,ApartmentUnitFlat,Apartment / Unit / Flat,False,0.0,False
17188315,standardpp,$550,False,"Travis Flint, Caroline Hardeman",Ray White Williamstown,6/51 Stephen Street,YARRAVILLE,VIC,3013,-37.81278,144.8953,1.0,ApartmentUnitFlat,Apartment / Unit / Flat,False,0.0,False
17195887,standardpp,$585,False,Property Management Department,P Di Natale Real Estate,20 Southampton Street,FOOTSCRAY,VIC,3011,-37.79526,144.886,2.0,House,House,False,0.0,False
17198284,standardpp,$535,False,"Travis Flint, Caroline Hardeman",Ray White Williamstown,60 Blackwood Street,YARRAVILLE,VIC,3013,-37.818367,144.88936,1.0,House,House,False,0.0,False
17199696,standardpp,$600,False,"Travis Flint, Jessica Good",Ray White Williamstown,62 Woods Street,NEWPORT,VIC,3015,-37.84531,144.87523,1.0,House,House,False,0.0,False
17204129,standardpp,$500 per week,False,"Simon Jones - Albert Park, Amanda Wilson",RT Edgar Albert Park,502/41 Nott Street,PORT MELBOURNE,VIC,3207,-37.84165,144.9375,1.0,ApartmentUnitFlat,Apartment / Unit / Flat,False,0.0,False
14309514,elite,$860 pw Furnished,False,RentBetter Team,RentBetter,408/118 Dudley Street,WEST MELBOURNE,VIC,3003,-37.809357,144.9514,1.0,ApartmentUnitFlat,Apartment / Unit / Flat,False,0.0,False
14401110,standard,$610 per week,True,"Chloe Zha, Mary Navarro",Austrump Glen Pty Ltd,204/392 Spencer Street,WEST MELBOURNE,VIC,3003,-37.811256,144.95097,1.0,ApartmentUnitFlat,Apartment / Unit / Flat,False,0.0,False
14639707,standard,$495,False,"Susan  Clements, Felix Zeldin",Prime Property Partners Australia,11/33 Walsh,WEST MELBOURNE,VIC,3003,-37.80841,144.95335,1.0,ApartmentUnitFlat,Apartment / Unit / Flat,False,0.0,False
14983734,elite,$680 per Week Unfurnished,False,Frank Du,CAN Estate Agents Pty Ltd,1803/65 Dudley Street,WEST MELBOURNE,VIC,3003,-37.810135,144.9504,2.0,ApartmentUnitFlat,Apartment / Unit / Flat,False,0.0,False
16169748,standard,$600 per week,False,Landnest Box Hill Leasing Team,LANDNEST REAL ESTATE,901/393 Spencer Street,WEST MELBOURNE,VIC,3003,-37.811325,144.95024,1.0,ApartmentUnitFlat,Apartment / Unit / Flat,False,0.0,False
16668376,elite,"$1,550 per week",False,buymyplace .,buymyplace,18/18 Curzon Street,WEST MELBOURNE,VIC,3003,-37.80435,144.94815,2.0,ApartmentUnitFlat,Apartment / Unit / Flat,False,0.0,False
17023980,elite,$550 and Fully Furnished Option At Extra pw,False,Leasing Team,LJ Hooker City Residential,G07/133 Rosslyn Street,WEST MELBOURNE,VIC,3003,-37.809013,144.95024,1.0,ApartmentUnitFlat,Apartment / Unit / Flat,False,0.0,False
17037803,elite,$600.00,True,Abie Riady,MICM Real Estate,108/408 Spencer Street,WEST MELBOURNE,VIC,3003,-37.810585,144.95053,1.0,ApartmentUnitFlat,Apartment / Unit / Flat,False,0.0,False
17138615,standard,999/W unfurnished,False,William Wang,Levic Group Pty Ltd,180/480 La Trobe Street,WEST MELBOURNE,VIC,3003,-37.811794,144.9526,2.0,ApartmentUnitFlat,Apartment / Unit / Flat,False,0.0,False
17153081,standard,$630 Per Week,False,Ke Ke,GOLD 4LIFE,1605/105 Batman St,WEST MELBOURNE,VIC,3003,-37.811386,144.94969,1.0,ApartmentUnitFlat,Apartment / Unit / Flat,False,0.0,False
17172176,standard,$650,False,"Tully Keung, Angie Zhao",LeonDean,210/140 Dudley Street,WEST MELBOURNE,VIC,3003,-37.809574,144.95078,1.0,ApartmentUnitFlat,Apartment / Unit / Flat,False,0.0,False
17187888,standard,$725 weekly,False,Sonita Dawood,Dynamic Residential - Rentals,1703/23 Batman Street,WEST MELBOURNE,VIC,3003,-37.810738,144.95226,2.0,ApartmentUnitFlat,Apartment / Unit / Flat,False,0.0,False
17189039,standard,$550 per week,True,Sisi Peng,Ironfish Real Estate Melbourne,205/140 Dudley Street,WEST MELBOURNE,VIC,3003,-37.809574,144.95078,1.0,ApartmentUnitFlat,Apartment / Unit / Flat,False,0.0,False
17193586,standard,760 per week,False,Cynthia Li,DCMIL PROPERTY GROUP,401/5 Wominjeka Walk,WEST MELBOURNE,VIC,3003,-37.810272,144.9487,2.0,ApartmentUnitFlat,Apartment / Unit / Flat,False,0.0,False
17194238,standard,$750PW,True,"Leor Wong, Rental Department",APG ESTATE,314/121 Rosslyn Street,WEST MELBOURNE,VIC,3003,-37.809017,144.95024,2.0,ApartmentUnitFlat,Apartment / Unit / Flat,False,0.0,False
17198074,standard,$550,False,"Rebecca Ozmetin, Onder Ozmetin, Kelli Johnson",Outlook Property Group,118/89 Roden Street,WEST MELBOURNE,VIC,3003,-37.807365,144.94884,1.0,ApartmentUnitFlat,Apartment / Unit / Flat,False,0.0,False
17198098,standard,"$1,350.00",False,James Flynn,Melbourne City Real Estate,2001/23 Batman Street,WEST MELBOURNE,VIC,3003,-37.810738,144.95226,3.0,ApartmentUnitFlat,Apartment / Unit / Flat,False,0.0,False
17198183,standard,$550,False,Chanson Chen,Realink,710/65 Dudley Street,WEST MELBOURNE,VIC,3003,-37.810135,144.9504,1.0,ApartmentUnitFlat,Apartment / Unit / Flat,False,0.0,False
17199378,standard,$640 Weekly,False,Lulu Lee,AUSTRALIAN PROPERTY MANAGEMENT ALLIANCE,603/150 Dudley St,WEST MELBOURNE,VIC,3003,-37.809757,144.95038,1.0,ApartmentUnitFlat,Apartment / Unit / Flat,False,0.0,False
17202438,standard,$620,False,Betty Liu,Waco Real Estate,1513/65 Dudley Street,WEST MELBOURNE,VIC,3003,-37.810135,144.9504,1.0,ApartmentUnitFlat,Apartment / Unit / Flat,False,0.0,False
9525328,elite,$580.00 per week,False,Cooper Modica,LITTLE Real Estate Victoria,313/60-96 Macaulay Road,NORTH MELBOURNE,VIC,3051,-37.798027,144.94205,1.0,ApartmentUnitFlat,Apartment / Unit / Flat,False,0.0,False
15719485,elite,$720/week Unfurnished,True,Frank Du,CAN Estate Agents Pty Ltd,4809/33 Rose Lane,MELBOURNE,VIC,3000,-37.815,144.95387,1.0,ApartmentUnitFlat,Apartment / Unit / Flat,False,0.0,False
15726428,elite,$670 per week,False,The Manager,Seascape RE,1.04/69 Flemington Road,NORTH MELBOURNE,VIC,3051,-37.79921,144.9539,1.0,ApartmentUnitFlat,Apartment / Unit / Flat,False,0.0,False
16576860,elite,$760 per week,False,Christine Baldasso,Jas Stephens Real Estate,25 Lovett Walk,FOOTSCRAY,VIC,3011,-37.801044,144.8852,2.0,Townhouse,Townhouse,False,0.0,False
17139793,elite,"$1,100",False,Laura Braun,Evoke Property,2B Esplanade Place,PORT MELBOURNE,VIC,3207,-37.83678,144.94527,3.0,Townhouse,Townhouse,False,0.0,False
17171647,elite,$650pw - Renovated! Furnished!,False,"Emma Smith, Rhys Brown",Ray White Southbank & Port Phillip,716/339 Swanston Street,MELBOURNE,VIC,3000,-37.810383,144.9638,1.0,ApartmentUnitFlat,Apartment / Unit / Flat,False,0.0,False
17172056,elite,$475 per week,False,"Asa Salimi, Bao Phan",BRADY residential,2401/8 Downie Street,MELBOURNE,VIC,3000,-37.820343,144.956,1.0,ApartmentUnitFlat,Apartment / Unit / Flat,False,0.0,False
17172142,elite,$860 per week / $3737 per calendar month,False,"Jacqueline D'Angelo, Samantha Holt",hockingstuart Wyndham City,55/55 Victoria Harbour Promenade,DOCKLANDS,VIC,3008,-37.819534,144.94278,2.0,ApartmentUnitFlat,Apartment / Unit / Flat,False,0.0,False
17172199,elite,$950 Per Week,False,Marco Liao,ELITE REAL ESTATE (ON ELIZABETH STREET),6405/500 Elizabeth Street,MELBOURNE,VIC,3000,-37.807137,144.96037,2.0,ApartmentUnitFlat,Apartment / Unit / Flat,False,0.0,False
17172882,elite,$600.00,False,Abie Riady,MICM Real Estate,318/15 Doepel Way,DOCKLANDS,VIC,3008,-37.814835,144.94005,1.0,ApartmentUnitFlat,Apartment / Unit / Flat,False,0.0,False
17173092,elite,$700 per week,False,"Asa Salimi, Marly  Mora",BRADY residential,1201/25-33 Wills Street,MELBOURNE,VIC,3000,-37.810776,144.95692,2.0,ApartmentUnitFlat,Apartment / Unit / Flat,False,0.0,False
17173810,elite,$520 per week,False,"Mason Wong, Hayley Tran",Inner Real Estate NEXTRE,2003/200 Spencer Street,MELBOURNE,VIC,3000,-37.816227,144.95325,1.0,ApartmentUnitFlat,Apartment / Unit / Flat,False,0.0,False
17173835,elite,$600 per week,False,"Sam Landale, Laura Thorwesten",Belle Property South Yarra,1103/442 Elizabeth Street,MELBOURNE,VIC,3000,-37.80841,144.96077,1.0,ApartmentUnitFlat,Apartment / Unit / Flat,False,0.0,False
17173870,elite,$850 per week,False,"Kim Davey, Suzie Inglis",Melbourne Boutique Property,1003/118 Russell Street,MELBOURNE,VIC,3000,-37.8135,144.96909,2.0,ApartmentUnitFlat,Apartment / Unit / Flat,False,0.0,False
17173890,elite,$450pw/$1955pcm,False,Dean Gardiner,Nelson Alexander Fitzroy,8/50 Bayview Road,SEDDON,VIC,3011,-37.80886,144.88553,1.0,ApartmentUnitFlat,Apartment / Unit / Flat,False,0.0,False
17174052,elite,$550 weekly,False,"Sabrina Choi, Jun Zeng",  Elite Real Estate,309/118 Russell St,MELBOURNE,VIC,3000,-37.8135,144.96909,1.0,ApartmentUnitFlat,Apartment / Unit / Flat,False,0.0,False
17174268,elite,"$600 Per Week | $2,607 PCM",False,Chloe Hodgson,HPG ESTATE AGENTS,17 Tiernan Street,FOOTSCRAY,VIC,3011,-37.79458,144.89601,2.0,House,House,False,0.0,False
17174404,elite,$750 per week!,False,"Jessica Lee, Adam Buhagiar",Crane Real Estate,4/7 Coward Street,FOOTSCRAY,VIC,3011,-37.796818,144.89919,2.0,Townhouse,Townhouse,False,0.0,False
17174609,elite,$850.00,True,Aryanaz Moradi,MICM Real Estate,5303/560 Lonsdale Street,MELBOURNE,VIC,3000,-37.81397,144.95566,2.0,ApartmentUnitFlat,Apartment / Unit / Flat,False,0.0,False
17174711,elite,$525,True,"Annabelle Munt, Bronte Carfino",MRE,1103/1 Ascot Vale Road,FLEMINGTON,VIC,3031,-37.78678,144.92131,1.0,ApartmentUnitFlat,Apartment / Unit / Flat,False,0.0,False
10254026,premiumplus,$545,False,Joshua Chong,Cuspac Property Group,1710/668 Burke Street,MELBOURNE,VIC,3000,-37.81659,144.95421,1.0,ApartmentUnitFlat,Apartment / Unit / Flat,False,0.0,False
14976388,premiumplus,$990pw,False,Danielle Ryan,The Core Advisory Team VIC,20 Newton Street,KENSINGTON,VIC,3031,-37.796566,144.92204,2.0,Townhouse,Townhouse,False,0.0,False
15602706,premiumplus,$500 per week,False,Kim Te,Motion Property,1002/4 Joseph Road,FOOTSCRAY,VIC,3011,-37.800327,144.90956,1.0,ApartmentUnitFlat,Apartment / Unit / Flat,False,0.0,False
16055655,premiumplus,$650 per week,False,"Leanne Stahmer, Daniel Henderson",Haven Agents,1311/450 St Kilda Road,MELBOURNE,VIC,3004,-37.838615,144.97589,1.0,ApartmentUnitFlat,Apartment / Unit / Flat,False,0.0,False
16482265,premiumplus,$625 per week,False,Ismaeel Hussain,Samma Real Estate,1903/639 Lonsdale Street,MELBOURNE,VIC,3000,-37.81501,144.95341,1.0,ApartmentUnitFlat,Apartment / Unit / Flat,False,0.0,False
16582323,premiumplus,$680 pw,False,Daniel Hamilton,McGrath,412/108 Haines Street,NORTH MELBOURNE,VIC,3051,-37.798462,144.94357,2.0,ApartmentUnitFlat,Apartment / Unit / Flat,False,0.0,False
16609861,premiumplus,$620 per week,False,Angus Brayshaw,Richardson & Wrench Projects Victoria,112B/72 Ascot Vale Road,FLEMINGTON,VIC,3031,-37.78403,144.92305,1.0,ApartmentUnitFlat,Apartment / Unit / Flat,False,0.0,False
17037716,premiumplus,"$540 Per Week Includes Bills, WIFI, GYM, Coworking Space, etc...",False,Community Host  UKO Melbourne Central,UKO,103/19 Exploration Lane,MELBOURNE,VIC,3000,-37.808933,144.9681,1.0,Studio,Studio,False,0.0,False
17037935,premiumplus,"$590 PW Fully Furnished, All Bills WiFi Included",True,Community Host  UKO Melbourne Central,UKO,406/10 Bennetts Lane,MELBOURNE,VIC,3000,-37.809036,144.96793,1.0,Studio,Studio,False,0.0,False
17133563,premiumplus,$595,False,"Fiona Tennant, Alexander Gorejena",aussieproperty.com,610/33 MacKenzie Street,MELBOURNE,VIC,3000,-37.807835,144.96698,1.0,ApartmentUnitFlat,Apartment / Unit / Flat,False,0.0,False
17151597,premiumplus,$680 per week,False,Flo Djaja,Melbourne Residential Real Estate,4209/639 Lonsdale St,MELBOURNE,VIC,3000,-37.81501,144.95341,1.0,ApartmentUnitFlat,Apartment / Unit / Flat,False,0.0,False
17153078,premiumplus,$635 Per Week,False,Frazer Downes,Hodges South Melbourne,402/442 St Kilda Road,MELBOURNE,VIC,3004,-37.838238,144.9754,2.0,ApartmentUnitFlat,Apartment / Unit / Flat,False,0.0,False
17158205,premiumplus,$720,False,"Fiona Tennant, Alexander Gorejena",aussieproperty.com,5601/450 Elizabeth Street,MELBOURNE,VIC,3004,-37.80828,144.9607,1.0,ApartmentUnitFlat,Apartment / Unit / Flat,False,0.0,False
17167792,premiumplus,$700 per week,False,Ismaeel Hussain,Samma Real Estate,1708/38 Rose Lane,MELBOURNE,VIC,3000,-37.8147,144.95422,1.0,ApartmentUnitFlat,Apartment / Unit / Flat,False,0.0,False
17168007,premiumplus,$550 pw,False,Mona Wang,Dingle Partners,B102/70 Speakmen Street,KENSINGTON,VIC,3031,-37.79397,144.91602,2.0,ApartmentUnitFlat,Apartment / Unit / Flat,False,0.0,False
17172408,premiumplus,"$1,190.00",False,Kerttu Luik,Buxton Port Phillip,104/155 Beach Street,PORT MELBOURNE,VIC,3207,-37.839237,144.9257,2.0,ApartmentUnitFlat,Apartment / Unit / Flat,False,0.0,False
17172507,premiumplus,$460 pw,False,Justine Muscat,Dingle Partners,705/565 Flinders Street,MELBOURNE,VIC,3000,-37.821056,144.9559,1.0,ApartmentUnitFlat,Apartment / Unit / Flat,False,0.0,False
17202514,elitepp,$550 per week,False,Gary Lewis,Belle Property South Melbourne,38/562 Little Bourke Street,MELBOURNE,VIC,3000,-37.81516,144.9557,2.0,ApartmentUnitFlat,Apartment / Unit / Flat,False,0.0,False
17204025,elitepp,$470 per week,False,Tara Bourke,Belle Property South Melbourne,1/229 Dow Street,PORT MELBOURNE,VIC,3207,-37.83877,144.94366,1.0,ApartmentUnitFlat,Apartment / Unit / Flat,False,0.0,False
17204262,elitepp,$450 per week,False,Tara Bourke,Belle Property South Melbourne,4/229 Dow Street,PORT MELBOURNE,VIC,3207,-37.83877,144.94366,1.0,ApartmentUnitFlat,Apartment / Unit / Flat,False,0.0,False
12417586,elite,"$700 per week | $3,042 per calendar month",False,Williams Real Estate,Williams Real Estate,51 Monmouth Street,NEWPORT,VIC,3015,-37.84581,144.86932,3.0,House,House,False,0.0,False
17165959,elite,$440/week - partly furnished,False,Leasing Team,First National Avant - Box Hill,627/118 Franklin Street,MELBOURNE,VIC,3000,-37.808205,144.95891,1.0,Studio,Studio,False,0.0,False
17166121,elite,$400 per week,False,"Gary Han, Jeff Yu",ELITE REAL ESTATE (ON ELIZABETH STREET),504/179 Boundary Road,NORTH MELBOURNE,VIC,3051,-37.788914,144.93929,1.0,ApartmentUnitFlat,Apartment / Unit / Flat,False,0.0,False
17170290,elite,$750 per week,False,"Asa Salimi, Emma  Luo",BRADY residential,1603/371 Little Lonsdale Street,MELBOURNE,VIC,3000,-37.811775,144.96101,2.0,ApartmentUnitFlat,Apartment / Unit / Flat,False,0.0,False
17172580,elite,$700 per week,False,"Alex Chan, Leane Shea",Fletchers Projects Rental,1603/228 Abeckett Street,MELBOURNE,VIC,3000,-37.810265,144.95663,2.0,ApartmentUnitFlat,Apartment / Unit / Flat,False,0.0,False
17173076,elite,$550 per week,False,"Jordan Nunns, Leasing Team",Melcorp Real Estate,2101/315 La Trobe Street,MELBOURNE,VIC,3000,-37.810966,144.95993,1.0,ApartmentUnitFlat,Apartment / Unit / Flat,False,0.0,False
17173105,elite,$450 per week,False,Amanda Liu,Twig Real Estate,105/268 Flinders Street,MELBOURNE,VIC,3000,-37.81771,144.96556,1.0,ApartmentUnitFlat,Apartment / Unit / Flat,False,0.0,False
17174468,elite,$863pw Bonus 1 month FREE,False,"Alisha Mehta, Rodolfo Ottobrini",Local Residential,A105/348 Macaulay Road,KENSINGTON,VIC,3031,-37.79477,144.93425,2.0,ApartmentUnitFlat,Apartment / Unit / Flat,False,0.0,False
17181558,elite,$720 per week,False,"Eva Christodoulou, Dylan Emmett",Lucas Real Estate,S3008/231 Harbour Esplanade,DOCKLANDS,VIC,3008,-37.813297,144.94336,1.0,ApartmentUnitFlat,Apartment / Unit / Flat,False,0.0,False
17182696,elite,$850 per week,False,"Asa Salimi, Emma  Luo",BRADY residential,3909/371 Little Lonsdale Street,MELBOURNE,VIC,3000,-37.811775,144.96101,2.0,ApartmentUnitFlat,Apartment / Unit / Flat,False,0.0,False
17187974,elite,$390.00,False,"Amanda Carr, Yvonne Elmenawi",Gunn &Co Estate Agents,2/330 Melbourne Road,NEWPORT,VIC,3015,-37.845703,144.8856,1.0,ApartmentUnitFlat,Apartment / Unit / Flat,False,0.0,False
17188689,elite,$490 per week,False,"Sam Landale, Todd George & Carla Girolamo",Belle Property South Yarra,105/547 Flinders Lane,MELBOURNE,VIC,3000,-37.82,144.95581,1.0,ApartmentUnitFlat,Apartment / Unit / Flat,False,0.0,False
17190323,elite,$425 per week,False,Sarah McCracken,Jas Stephens Real Estate,23/31 Moreland Street,FOOTSCRAY,VIC,3011,-37.80209,144.90752,1.0,ApartmentUnitFlat,Apartment / Unit / Flat,False,0.0,False
17192450,elite,$588 per week,False,RentBetter Team,RentBetter,302/35 Victoria St,FOOTSCRAY,VIC,3011,-37.80146,144.89291,1.0,ApartmentUnitFlat,Apartment / Unit / Flat,False,0.0,False
17194495,elite,$500.00 Per Week,False,Molly Bradshaw,JMRE Real Estate,19/700 Queensberry Street,NORTH MELBOURNE,VIC,3051,-37.802197,144.9439,1.0,ApartmentUnitFlat,Apartment / Unit / Flat,False,0.0,False
17198207,elite,$700pw,False,Ann Borg,Village Real Estate ,111 The Avenue,SPOTSWOOD,VIC,3015,-37.826736,144.87498,1.0,House,House,False,399.0,False
17198332,elite,"$1,050.00",False,"Alexandria Boyce, April Langley",Buxton Inner West,9 York Street,YARRAVILLE,VIC,3013,-37.818428,144.89528,2.0,House,House,False,0.0,False
17198422,elite,$580.00,False,Siobhan Flinn,Woodards Ascot Vale,13 Wight Street,KENSINGTON,VIC,3031,-37.793728,144.92847,1.0,House,House,False,0.0,False
17198444,elite,$650 per week,False,Raelene Hallmark,McGrath Yarraville,14/20 French Street,FOOTSCRAY,VIC,3011,-37.80129,144.8967,1.0,ApartmentUnitFlat,Apartment / Unit / Flat,False,0.0,False
17198643,elite,$520 per week,False,"Eva Christodoulou, Dylan Emmett",Lucas Real Estate,2406/557 Little Lonsdale Street,MELBOURNE,VIC,3000,-37.813305,144.95535,1.0,ApartmentUnitFlat,Apartment / Unit / Flat,False,0.0,False
11597354,elite,$620.00 per week,False,Inner West Rentals,BIGGIN SCOTT INNER WEST SUNSHINE,9/30 Sydenham Street,SEDDON,VIC,3011,-37.80281,144.88577,2.0,House,House,False,0.0,False
15369604,elite,$780 per week,False,Gordana Velevski,Hallmarc Asset Management,1304/14 Queens Road,MELBOURNE,VIC,3004,-37.83906,144.97441,1.0,ApartmentUnitFlat,Apartment / Unit / Flat,False,0.0,False
16672345,elite,$650,False,"Annabelle Munt, Tali Leckie",MRE,407/33 Blackwood Street,NORTH MELBOURNE,VIC,3051,-37.800644,144.95563,1.0,ApartmentUnitFlat,Apartment / Unit / Flat,False,0.0,False
17016123,elite,$685 per week,False,"Mason Wong, Maya Angela",Inner Real Estate NEXTRE,4707/80 A'beckett Street,MELBOURNE,VIC,3000,-37.809,144.96107,1.0,ApartmentUnitFlat,Apartment / Unit / Flat,False,0.0,False
17168845,elite,$990 per week,False,No Agent Property - VIC,No Agent Property ,2/343 Williamstown Road,PORT MELBOURNE,VIC,3207,-37.83458,144.92607,2.0,Townhouse,Townhouse,False,0.0,False
17169704,elite,$740 per week,False,Sigrid Lillo,Jas Stephens Real Estate,34 Tennyson Street,SEDDON,VIC,3011,-37.807373,144.88828,1.0,House,House,False,0.0,False
17169904,elite,$485 per week,False,Alex Karlis,Trimson Partners,12 McCubbin Street,FOOTSCRAY,VIC,3011,-37.791603,144.88779,1.0,House,House,False,0.0,False
17169993,elite,$460 per week,False,Ashley Oliver,Lucas Real Estate,1309/555 Flinders Street,MELBOURNE,VIC,3000,-37.820972,144.95648,1.0,ApartmentUnitFlat,Apartment / Unit / Flat,False,0.0,False
17170030,elite,$350 per week,False,"Mason Wong, Somaya Rahimi",Inner Real Estate NEXTRE,621/268 Flinders Street,MELBOURNE,VIC,3000,-37.81771,144.96556,1.0,ApartmentUnitFlat,Apartment / Unit / Flat,False,0.0,False
17170274,elite,$450/week,False,"Leasing Team, Avant Leasing",First National Avant - Box Hill,202/408 Lonsdale Street,MELBOURNE,VIC,3000,-37.8126,144.9604,1.0,Studio,Studio,False,0.0,False
17170384,elite,$730 per week,False,"Hendy Nora, Wisno Dharma",Core Realty Pty Ltd,120/555 St Kilda Road,MELBOURNE,VIC,3004,-37.847054,144.98068,2.0,ApartmentUnitFlat,Apartment / Unit / Flat,False,0.0,False
17170445,elite,$675 per week,False,"Asa Salimi, Bao Phan",BRADY residential,2203/5 Sutherland Street,MELBOURNE,VIC,3000,-37.811417,144.96085,2.0,ApartmentUnitFlat,Apartment / Unit / Flat,False,0.0,False
17170559,elite,"$1,363",False,"Alisha Mehta, Rodolfo Ottobrini",Local Residential,A307/348 Macaulay Road,KENSINGTON,VIC,3031,-37.79477,144.93425,2.0,ApartmentUnitFlat,Apartment / Unit / Flat,False,0.0,False
17170757,elite,$630 per week,False,Leasing Team,Melcorp Real Estate,2906/318 Russell Street,MELBOURNE,VIC,3000,-37.809177,144.96675,1.0,ApartmentUnitFlat,Apartment / Unit / Flat,False,0.0,False
17170848,elite,$620pw,False,Chantal Borg,Village Real Estate ,159 Buckley Street,SEDDON,VIC,3011,-37.803123,144.89044,1.0,House,House,False,0.0,False
17170946,elite,$380 per week,False,Mina Narayanan,Trimson Partners,12/3 Gordon Street,FOOTSCRAY,VIC,3011,-37.787773,144.89038,1.0,ApartmentUnitFlat,Apartment / Unit / Flat,False,0.0,False
17171109,elite,$625 per week,False,Cassie Favero,Jas Stephens Real Estate,55 Benbow Street,YARRAVILLE,VIC,3013,-37.82257,144.8758,1.0,House,House,False,0.0,False
17171313,elite,$530 Per Week,False,"Gary Han, Marco Liao",ELITE REAL ESTATE (ON ELIZABETH STREET),3708/500 Elizabeth Street,MELBOURNE,VIC,3000,-37.807137,144.96037,1.0,ApartmentUnitFlat,Apartment / Unit / Flat,False,0.0,False
17171376,elite,$800.00,True,Mike Yuan,MICM Real Estate,3103/568 Collins Street,MELBOURNE,VIC,3000,-37.818375,144.95543,2.0,ApartmentUnitFlat,Apartment / Unit / Flat,False,0.0,False
17171491,elite,$595,False,DS Rentals Team,Agents'Agency Network Partners,2610/8 Hallenstein Street,FOOTSCRAY,VIC,3011,-37.80004,144.9082,1.0,ApartmentUnitFlat,Apartment / Unit / Flat,False,0.0,False
16500954,standard,$50 per week,False,Sisi Peng,Ironfish Real Estate Melbourne,Carpark/105 Batman Street,WEST MELBOURNE,VIC,3003,-37.810966,144.9505,,House,House,False,0.0,False
16586922,standard,$750,False,Support Team,Ray White CHK,45 Dudley Street,WEST MELBOURNE,VIC,3003,-37.80998,144.95097,2.0,ApartmentUnitFlat,Apartment / Unit / Flat,False,0.0,False
16598765,standard,$550,False,Support Team,Ray White CHK,45 Dudley Street,WEST MELBOURNE,VIC,3003,-37.80998,144.95097,1.0,ApartmentUnitFlat,Apartment / Unit / Flat,False,0.0,False
16637090,standard,$700,False,Support Team,Ray White CHK,45 Dudley St,WEST MELBOURNE,VIC,3003,-37.80998,144.95097,2.0,ApartmentUnitFlat,Apartment / Unit / Flat,False,0.0,False
16651211,standard,$550,False,Support Team,Ray White CHK,45 Dudley Street,WEST MELBOURNE,VIC,3003,-37.80998,144.95097,1.0,ApartmentUnitFlat,Apartment / Unit / Flat,False,0.0,False
16726700,standard,$550,False,Support Team,Ray White CHK,45 Dudley Street,WEST MELBOURNE,VIC,3003,-37.80998,144.95097,1.0,ApartmentUnitFlat,Apartment / Unit / Flat,False,0.0,False
16994867,standard,$620 weekly,False,"John Huang, Sam Liu",Selling Melbourne Real Estate ,911/41 Batman Street,WEST MELBOURNE,VIC,3003,-37.810875,144.95183,1.0,ApartmentUnitFlat,Apartment / Unit / Flat,False,0.0,False
17038576,standard,"$9,999 pw",False,"Cactus Li, Ivan Lee",Maxion Real Estate,7 Jeffcott Street,WEST MELBOURNE,VIC,3003,-37.811672,144.95323,5.0,ApartmentUnitFlat,Apartment / Unit / Flat,False,0.0,False
17087509,standard,$700 weekly,False,"Winnie Yang, Veronica Sun",JALIN REALTY AUSTRALIA PTY LTD,409/65 Dudley Street,WEST MELBOURNE,VIC,3003,-37.810135,144.9504,2.0,ApartmentUnitFlat,Apartment / Unit / Flat,False,0.0,False
17088011,standard,"$1,200 weekly",True,Armaan Sandhu,Dynamic Residential - Rentals,608/10 Wominjeka Walk,WEST MELBOURNE,VIC,3003,-37.81019,144.94905,2.0,ApartmentUnitFlat,Apartment / Unit / Flat,False,0.0,False
17090475,standard,$1200 **INSPECTION UPON REQUEST**,False,"Forge Leasing, Wayne Deng",Forge Group Australia Pty Ltd,2/462 La Trobe Street,WEST MELBOURNE,VIC,3003,-37.81236,144.95325,1.0,ApartmentUnitFlat,Apartment / Unit / Flat,False,0.0,False
17112336,standard,$620,False,Camila Jing,RE/MAX ACPA,314/105 Batman Street,WEST MELBOURNE,VIC,3003,-37.811386,144.94969,1.0,ApartmentUnitFlat,Apartment / Unit / Flat,False,0.0,False
17113861,standard,Stay 1 mth plus - $788pw,False,CKA Reservations Department,Corporate Keys Australia,206/150 Dudley Street,WEST MELBOURNE,VIC,3003,-37.809757,144.95038,1.0,ApartmentUnitFlat,Apartment / Unit / Flat,False,0.0,False
17126232,standard,$720,False,Zara-Jane Hayes,ASK Property Partners Pty Ltd,303/25 Wominjeka Walk,WEST MELBOURNE,VIC,3003,-37.80996,144.94864,1.0,ApartmentUnitFlat,Apartment / Unit / Flat,False,0.0,False
17138071,standard,$650 weekly,False,Sonita Dawood,Dynamic Residential - Rentals,506/25 Wominjeka Walk,WEST MELBOURNE,VIC,3003,-37.80996,144.94864,1.0,ApartmentUnitFlat,Apartment / Unit / Flat,False,0.0,False
17156348,standard,$920 PER WEEK,False,"Andrea Lisanti, Teresa Ghobril",Galldon Real Estate,25/43-51 Jeffcott Street,WEST MELBOURNE,VIC,3003,-37.811954,144.95203,2.0,Townhouse,Townhouse,False,0.0,False
17156944,standard,$740,False,Camila Jing,RE/MAX ACPA,506/105 Batman Street,WEST MELBOURNE,VIC,3003,-37.811386,144.94969,2.0,ApartmentUnitFlat,Apartment / Unit / Flat,False,0.0,False
17157293,standard,$540 Weekly,False,Lulu Lee,AUSTRALIAN PROPERTY MANAGEMENT ALLIANCE,202/140 Dudley St,WEST MELBOURNE,VIC,3003,-37.809574,144.95078,1.0,ApartmentUnitFlat,Apartment / Unit / Flat,False,0.0,False
17161374,standard,$780,False,Jason Song,First National Burwood,1211/23 Batman Street,WEST MELBOURNE,VIC,3003,-37.810738,144.95226,2.0,ApartmentUnitFlat,Apartment / Unit / Flat,False,0.0,False
17163225,standard,$600/week,False,Gavin Guan,GOLD 4LIFE,210/94 Stanley Street,WEST MELBOURNE,VIC,3003,-37.808006,144.949,1.0,ApartmentUnitFlat,Apartment / Unit / Flat,False,0.0,False
14781843,premiumplus,$400 per week,False,Wimpie Santoso,Melbourne Residential Real Estate,906/238 Flinders Street,MELBOURNE,VIC,3000,-37.817516,144.96649,1.0,ApartmentUnitFlat,Apartment / Unit / Flat,False,0.0,False
15242434,premiumplus,$620 per week,True,Angus Brayshaw,Richardson & Wrench Projects Victoria,1505/8 Joseph Road,FOOTSCRAY,VIC,3011,-37.800327,144.90956,2.0,ApartmentUnitFlat,Apartment / Unit / Flat,False,0.0,False
15483048,premiumplus,$520 per week,False,Wimpie Santoso,Melbourne Residential Real Estate,715/39 Lonsdale St,MELBOURNE,VIC,3000,-37.809906,144.9711,1.0,ApartmentUnitFlat,Apartment / Unit / Flat,False,0.0,False
15880923,premiumplus,$410,False,Manuel Flores,Gotham Property,302/408 Lonsdale Street,MELBOURNE,VIC,3000,-37.8126,144.9604,1.0,Studio,Studio,False,0.0,False
16602596,premiumplus,$630 per week,False,Angus Brayshaw,Richardson & Wrench Projects Victoria,109B/72 Ascot Vale Road,FLEMINGTON,VIC,3031,-37.784096,144.92307,2.0,ApartmentUnitFlat,Apartment / Unit / Flat,False,0.0,False
17188248,premiumplus,$450 weekly,False,"Kayla Crea, William Saritschniy",HEDLEY REAL ESTATE,62 Aloha St,SOUTH KINGSVILLE,VIC,3015,-37.831245,144.87323,1.0,House,House,False,0.0,False
17188552,premiumplus,$675 per week,False,"Mikaele Horsnell, Jim Georgiou",Harcourts Melbourne City,901/422 Collins Street,MELBOURNE,VIC,3000,-37.817097,144.96014,1.0,ApartmentUnitFlat,Apartment / Unit / Flat,False,0.0,False
17188716,premiumplus,$635pw | 3mnths free rent* & furnished,False,LIV Aston,LIV Aston Mirvac,1006/7 Siddeley Street,DOCKLANDS,VIC,3008,-37.821514,144.95454,1.0,Studio,Studio,False,0.0,False
17188736,premiumplus,$570pw | 3mnths free rent*,False,LIV Aston,LIV Aston Mirvac,1016/7 Siddeley Street,DOCKLANDS,VIC,3008,-37.821514,144.95454,1.0,Studio,Studio,False,0.0,False
17189230,premiumplus,$475 pw,False,Trish Ha,Dingle Partners,2204/350 William Street,MELBOURNE,VIC,3000,-37.811264,144.95662,1.0,ApartmentUnitFlat,Apartment / Unit / Flat,False,0.0,False
17189489,premiumplus,$390 Per Week,False,Frazer Downes,Hodges South Melbourne,2008/288 Spencer Street,MELBOURNE,VIC,3000,-37.813828,144.95203,1.0,Studio,Studio,False,0.0,False
17190068,premiumplus,$75/W CAR PARK,False,Gloria Ye,AZeta Real Estate,Car Park/228 La Trobe St,MELBOURNE,VIC,3000,-37.809616,144.9623,1.0,CarSpace,Car Space,False,0.0,False
17190827,premiumplus,$600 per week,False,Kim Te,Motion Property,911/2 Joseph Road,FOOTSCRAY,VIC,3011,-37.800327,144.90956,2.0,ApartmentUnitFlat,Apartment / Unit / Flat,False,0.0,False
17191385,premiumplus,$470 pw,False,Trish Ha,Dingle Partners,2004/618 Lonsdale Street,MELBOURNE,VIC,3000,-37.814415,144.9539,1.0,ApartmentUnitFlat,Apartment / Unit / Flat,False,0.0,False
17191501,premiumplus,$500 per week,False,Wimpie Santoso,Melbourne Residential Real Estate,125/131 Lonsdale Street,MELBOURNE,VIC,3000,-37.81078,144.96855,1.0,ApartmentUnitFlat,Apartment / Unit / Flat,False,0.0,False
17191730,premiumplus,$490 Per Week,False,Frazer Downes,Hodges South Melbourne,313/9 Commercial Road,MELBOURNE,VIC,3004,-37.845287,144.97978,1.0,ApartmentUnitFlat,Apartment / Unit / Flat,False,0.0,False
17192375,premiumplus,$530 pw,False,Trish Ha,Dingle Partners,4012/22-24 Jane Bell Lane,MELBOURNE,VIC,3000,-37.81022,144.96626,1.0,ApartmentUnitFlat,Apartment / Unit / Flat,False,0.0,False
17192658,premiumplus,"$1,050.00",False,"Jay Jacob-Green, Bailey  Park",Buxton St Kilda,1/343 Williamstown Road,PORT MELBOURNE,VIC,3207,-37.834587,144.92604,2.0,Townhouse,Townhouse,False,0.0,False
17192812,premiumplus,$650 weekly,False,"Harry Whitford, Mike Richardson",BigginScott Richmond,2/36 Bradley St,NEWPORT,VIC,3015,-37.842564,144.87213,1.0,Townhouse,Townhouse,False,0.0,False
17192906,premiumplus,$450 weekly,False,"Victoria Ryan, William Saritschniy",HEDLEY REAL ESTATE,603/255 Racecourse Rd,KENSINGTON,VIC,3031,-37.788574,144.93275,1.0,ApartmentUnitFlat,Apartment / Unit / Flat,False,0.0,False
9459870,elite,$395.00 per week,False,Nath Toutam,Student Housing Australia,12/1 O'Connell Street,NORTH MELBOURNE,VIC,3051,-37.805717,144.95805,1.0,ApartmentUnitFlat,Apartment / Unit / Flat,False,0.0,False
10026864,elite,$750.00 per week,False,Danny Campos,LITTLE Real Estate Victoria,2611/120 A'beckett Street,MELBOURNE,VIC,3000,-37.809307,144.95973,2.0,ApartmentUnitFlat,Apartment / Unit / Flat,False,0.0,False
10990085,elite,$500.00 per week,False,Danny Campos,LITTLE Real Estate Victoria,1111/200 Spencer Street,MELBOURNE,VIC,3000,-37.816227,144.95325,1.0,ApartmentUnitFlat,Apartment / Unit / Flat,False,0.0,False
15184310,elite,$600.00 per week,False,Danny Campos,LITTLE Real Estate Victoria,2301/33 Rose Lane,MELBOURNE,VIC,3000,-37.815,144.95387,1.0,ApartmentUnitFlat,Apartment / Unit / Flat,False,0.0,False
16616814,elite,$745 per week,False,Anna Raffaele,Jas Stephens Real Estate,1/86 Gordon Street,NEWPORT,VIC,3015,-37.833824,144.8678,2.0,Townhouse,Townhouse,False,0.0,False
17167010,elite,$475 weekly,False,Shaun Young,AREAL PROPERTY MELBOURNE,310/253 Franklin Street,MELBOURNE,VIC,3000,-37.8095,144.95667,1.0,ApartmentUnitFlat,Apartment / Unit / Flat,False,0.0,False
17167598,elite,$475,False,"Thembie  Sikwila, Bronte Carfino",MRE,1304/568 St Kilda Road,MELBOURNE,VIC,3004,-37.847107,144.97884,1.0,ApartmentUnitFlat,Apartment / Unit / Flat,False,0.0,False
17167684,elite,$500,False,Ernie Caputa,Melbourne Residential Property Management,308/250 Barkly Street,FOOTSCRAY,VIC,3011,-37.7992,144.89607,1.0,ApartmentUnitFlat,Apartment / Unit / Flat,False,0.0,False
17167743,elite,$720 per week,False,Melissa Moran,Maddison Estate Agents,19/600 Epsom Road,FLEMINGTON,VIC,3031,-37.78866,144.92143,2.0,ApartmentUnitFlat,Apartment / Unit / Flat,False,0.0,False
17167767,elite,TOP OF ROSE LANE - $525PW,False,Emma Smith,Ray White Southbank & Port Phillip,5201/33 Rose Lane,MELBOURNE,VIC,3000,-37.815,144.95387,1.0,ApartmentUnitFlat,Apartment / Unit / Flat,False,0.0,False
17168032,elite,$550 per week,False,"Asa Salimi, Bao Phan",BRADY residential,2402/8 Downie Street,MELBOURNE,VIC,3000,-37.820343,144.956,1.0,ApartmentUnitFlat,Apartment / Unit / Flat,False,0.0,False
17168209,elite,$450 weekly,False,Shaun Young,AREAL PROPERTY MELBOURNE,505/243 Franklin Street,MELBOURNE,VIC,3000,-37.809772,144.957,1.0,ApartmentUnitFlat,Apartment / Unit / Flat,False,0.0,False
17168265,elite,$650 per week & Furnish,False,"Hendy Nora, James Ji",Core Realty Pty Ltd,1903/120 Abeckett Street,MELBOURNE,VIC,3000,-37.809307,144.95973,1.0,ApartmentUnitFlat,Apartment / Unit / Flat,False,0.0,False
17168345,elite,$650 Fully Furnished pw,True,Leasing Team,LJ Hooker City Residential,2211/135 A'beckett Street,MELBOURNE,VIC,3000,-37.809788,144.95964,1.0,ApartmentUnitFlat,Apartment / Unit / Flat,False,0.0,False
17168587,elite,$600.00 per week pw,False,Julie Elder,hockingstuart Preston,101/350 Victoria Street,NORTH MELBOURNE,VIC,3051,-37.80552,144.95473,1.0,ApartmentUnitFlat,Apartment / Unit / Flat,False,0.0,False
17168629,elite,$550 per week,False,"Diana Camacho, Leasing Team",Melcorp Real Estate,1412/25 Therry Street,MELBOURNE,VIC,3000,-37.806957,144.9611,1.0,ApartmentUnitFlat,Apartment / Unit / Flat,False,0.0,False
17168995,elite,$680 and Fully Furnished Option At Extra pw,False,Leasing Team,LJ Hooker Rowville,3716/628 Flinders Street,DOCKLANDS,VIC,3008,-37.820972,144.95325,1.0,ApartmentUnitFlat,Apartment / Unit / Flat,False,0.0,False
17169187,elite,$470.00,False,"April Langley, Abby Meehan",Buxton Inner West,8/75 Droop Street,FOOTSCRAY,VIC,3011,-37.795254,144.89569,1.0,ApartmentUnitFlat,Apartment / Unit / Flat,False,0.0,False
17169214,elite,$650.00,True,Mike Yuan,MICM Real Estate,171/28 Little Lonsdale Street,MELBOURNE,VIC,3000,-37.808582,144.97063,1.0,ApartmentUnitFlat,Apartment / Unit / Flat,False,0.0,False
17169328,elite,$750.00,False,"Liza Ajredini, James Vella",Jellis Craig Kensington,77 Lambeth Street,KENSINGTON,VIC,3031,-37.791485,144.93425,1.0,House,House,False,0.0,False
17140067,elitepp,$550 per week,False,Cooper Cavallo,Belle Property South Melbourne,306/11-13 O'Connell Street,NORTH MELBOURNE,VIC,3051,-37.805584,144.958,1.0,ApartmentUnitFlat,Apartment / Unit / Flat,False,0.0,False
17144311,elitepp,$625 per week,False,Gary Lewis,Belle Property South Melbourne,9/32 Queens Road,MELBOURNE,VIC,3004,-37.84349,144.97598,1.0,ApartmentUnitFlat,Apartment / Unit / Flat,False,0.0,False
17146931,elitepp,$870 per week,False,"Emily Gray, Aleiasha Clark",Real Estate Services by Mirvac,1905/50 Lorimer Street,DOCKLANDS,VIC,3008,-37.824562,144.94754,2.0,ApartmentUnitFlat,Apartment / Unit / Flat,False,0.0,False
17153269,elitepp,"$1,100",False,Martin OHalloran,M.G.O. Property,15 Lothian Street,NORTH MELBOURNE,VIC,3051,-37.804024,144.94409,2.0,House,House,False,0.0,False
17166328,elitepp,$360 per week,False,Cooper Cavallo,Belle Property South Melbourne,508/408 Lonsdale Street,MELBOURNE,VIC,3000,-37.8126,144.9604,1.0,ApartmentUnitFlat,Apartment / Unit / Flat,False,0.0,False
17167683,elitepp,$695 per week,False,Tara Bourke,Belle Property South Melbourne,244 Williamstown Road,PORT MELBOURNE,VIC,3207,-37.83696,144.91605,1.0,House,House,False,0.0,False
17168730,elitepp,$895 per week,False,"Gary Lewis, Cooper Cavallo",Belle Property South Melbourne,493-495 Dryburgh Street,NORTH MELBOURNE,VIC,3051,-37.79332,144.94496,2.0,House,House,False,0.0,False
17168732,elitepp,$475 per week,False,Cooper Cavallo,Belle Property South Melbourne,205/24 Cobden Street,NORTH MELBOURNE,VIC,3051,-37.805088,144.95776,1.0,ApartmentUnitFlat,Apartment / Unit / Flat,False,0.0,False
17174950,elitepp,$995 per week,True,Cooper Cavallo,Belle Property South Melbourne,4a Smith Street,KENSINGTON,VIC,3031,-37.791462,144.93103,3.0,Townhouse,Townhouse,False,0.0,False
17175609,elitepp,$990 weekly,False,Jamie Ong,Areal Property - Hawthorn,606/155 Franklin Street,MELBOURNE,VIC,3000,-37.808826,144.95955,2.0,ApartmentUnitFlat,Apartment / Unit / Flat,False,0.0,False
17178352,elitepp,$475 per week,False,Cooper Cavallo,Belle Property South Melbourne,421/422 Collins Street,MELBOURNE,VIC,3000,-37.817097,144.96014,1.0,ApartmentUnitFlat,Apartment / Unit / Flat,False,0.0,False
17179644,elitepp,$540 per week,False,Tara Bourke,Belle Property South Melbourne,2506/87 Franklin Street,MELBOURNE,VIC,3000,-37.807945,144.9617,1.0,ApartmentUnitFlat,Apartment / Unit / Flat,False,0.0,False
17179809,elitepp,$475 weekly,False,Sabrina El-hares,Areal Property - Hawthorn,701/253 Franklin Street,MELBOURNE,VIC,3000,-37.8095,144.95667,1.0,ApartmentUnitFlat,Apartment / Unit / Flat,False,0.0,False
17181801,elitepp,$550 per week,False,Cooper Cavallo,Belle Property South Melbourne,7/205 Flemington Road,NORTH MELBOURNE,VIC,3051,-37.794765,144.94827,1.0,ApartmentUnitFlat,Apartment / Unit / Flat,False,0.0,False
17188391,elitepp,$720 per week,False,"Tara Bourke, Gary Lewis",Belle Property South Melbourne,7/50 Johnston Street,PORT MELBOURNE,VIC,3207,-37.84391,144.94347,1.0,ApartmentUnitFlat,Apartment / Unit / Flat,False,0.0,False
17188394,elitepp,$550 per week,False,Gary Lewis,Belle Property South Melbourne,505/639 Little Bourke Street,MELBOURNE,VIC,3000,-37.816017,144.95355,1.0,ApartmentUnitFlat,Apartment / Unit / Flat,False,0.0,False
17194727,elitepp,$460.00,False,Alicia Hopgood,Jellis Craig - Brunswick,303/79 Arden Street,NORTH MELBOURNE,VIC,3051,-37.800957,144.94788,1.0,ApartmentUnitFlat,Apartment / Unit / Flat,False,0.0,False
17195009,elitepp,$807,False,"Alisha Mehta, Rodolfo Ottobrini",Local Residential,A202/348 Macaulay Road,KENSINGTON,VIC,3031,-37.79477,144.93425,1.0,ApartmentUnitFlat,Apartment / Unit / Flat,False,0.0,False
17195302,elitepp,$539,False,"Alisha Mehta, Rodolfo Ottobrini",Local Residential,B103/348 Macaulay Road,KENSINGTON,VIC,3031,-37.79477,144.93425,1.0,ApartmentUnitFlat,Apartment / Unit / Flat,False,0.0,False
17195709,elitepp,$795 per week,False,"Gary Lewis, Tara Bourke",Belle Property South Melbourne,3/33 Princes Street,PORT MELBOURNE,VIC,3207,-37.839573,144.93602,1.0,ApartmentUnitFlat,Apartment / Unit / Flat,False,0.0,False
8519822,elite,$355.00 per week,True,Huey Lim,Student Housing Australia,214/133 Droop Street,FOOTSCRAY,VIC,3011,-37.792564,144.89342,1.0,Studio,Studio,False,0.0,False
8619492,elite,$380.00 per week,False,Jennifer Caruana,Student Housing Australia,601/6-8 High Street,NORTH MELBOURNE,VIC,3051,-37.799923,144.95389,1.0,ApartmentUnitFlat,Apartment / Unit / Flat,False,0.0,False
15859576,elite,$750,False,"Linda Lawrence, Cathy Royal",Compton Green,2/16 Andrews Street,SPOTSWOOD,VIC,3015,-37.825768,144.87453,2.0,House,House,False,0.0,False
16643599,elite,$600,True,"Tali Leckie, Millie Bowles",MRE,507/610 St Kilda Road,MELBOURNE,VIC,3004,-37.851948,144.98071,1.0,ApartmentUnitFlat,Apartment / Unit / Flat,False,0.0,False
17198700,elite,$320 per week,False,Raelene Hallmark,McGrath Yarraville,3/191 Blackshaws Road,NEWPORT,VIC,3015,-37.83347,144.86786,1.0,ApartmentUnitFlat,Apartment / Unit / Flat,False,0.0,False
17198715,elite,$900.00,True,Miki Kawabuchi,MICM Real Estate,3407/33 Rose Lane,MELBOURNE,VIC,3000,-37.815,144.95387,2.0,ApartmentUnitFlat,Apartment / Unit / Flat,False,0.0,False
17198716,elite,$650.00,False,Mike Yuan,MICM Real Estate,1207/20-26 Coromandel Place,MELBOURNE,VIC,3000,-37.813046,144.96925,1.0,ApartmentUnitFlat,Apartment / Unit / Flat,False,0.0,False
17198718,elite,$550.00,False,Cameron Lowery,MICM Real Estate,2114/33 Mackenzie Street,MELBOURNE,VIC,3000,-37.807835,144.96698,1.0,ApartmentUnitFlat,Apartment / Unit / Flat,False,0.0,False
17198721,elite,$550.00,True,Cameron Lowery,MICM Real Estate,314/300 Swanston Street,MELBOURNE,VIC,3000,-37.810608,144.96458,1.0,ApartmentUnitFlat,Apartment / Unit / Flat,False,0.0,False
17198722,elite,$550.00,True,Miki Kawabuchi,MICM Real Estate,2203/601 Little Lonsdale Street,MELBOURNE,VIC,3000,-37.813744,144.95369,1.0,ApartmentUnitFlat,Apartment / Unit / Flat,False,0.0,False
17198772,elite,$550 per week,False,"Asa Salimi, Cindy Han",BRADY residential,4008/500 Elizabeth Street,MELBOURNE,VIC,3000,-37.807137,144.96037,1.0,ApartmentUnitFlat,Apartment / Unit / Flat,False,0.0,False
17198773,elite,$570 per week,False,"Asa Salimi, Cindy Han",BRADY residential,5208/500 Elizabeth Street,MELBOURNE,VIC,3000,-37.807137,144.96037,1.0,ApartmentUnitFlat,Apartment / Unit / Flat,False,0.0,False
17198810,elite,$570 per week,False,"Diana Camacho, Leasing Team",Melcorp Real Estate,607/25 Therry Street,MELBOURNE,VIC,3000,-37.806957,144.9611,1.0,ApartmentUnitFlat,Apartment / Unit / Flat,False,0.0,False
17199168,elite,$500 per week,False,RentBetter Team,RentBetter,603/220 Spencer St,MELBOURNE,VIC,3000,-37.815693,144.95291,1.0,ApartmentUnitFlat,Apartment / Unit / Flat,False,33.0,False
17199290,elite,$525 per week,False,Natasha Roman,Jas Stephens Real Estate,1/9 Hewitt Avenue,FOOTSCRAY,VIC,3011,-37.79966,144.8806,1.0,ApartmentUnitFlat,Apartment / Unit / Flat,False,0.0,False
17199551,elite,$450pw / $1955pcm,False,Amber Ward,Nelson Alexander Flemington,10G/71 Henry Street,KENSINGTON,VIC,3031,-37.79608,144.92609,1.0,ApartmentUnitFlat,Apartment / Unit / Flat,False,0.0,False
17199556,elite,$970 per week,False,"Alex Chan, Leane Shea",Fletchers Projects Rental,13 Quinn Road,PORT MELBOURNE,VIC,3207,-37.83003,144.94412,3.0,Townhouse,Townhouse,False,0.0,False
17199567,elite,$430,False,Naomi Tatt,Sweeney Estate Agents Williamstown,510/90 Buckley Street,FOOTSCRAY,VIC,3011,-37.80342,144.89444,1.0,ApartmentUnitFlat,Apartment / Unit / Flat,False,0.0,False
17199610,elite,$730.00,False,Miki Kawabuchi,MICM Real Estate,4418/220 Spencer Street,MELBOURNE,VIC,3000,-37.815693,144.95291,2.0,ApartmentUnitFlat,Apartment / Unit / Flat,False,0.0,False
17199625,elite,$750 per week pw,False,"Hendy Nora, Edy Halim",Core Realty Pty Ltd,2207/155 Franklin Street,MELBOURNE,VIC,3000,-37.808826,144.95955,1.0,ApartmentUnitFlat,Apartment / Unit / Flat,False,0.0,False
8581639,elite,$355.00 per week,True,Huey Lim,Student Housing Australia,303/133 Droop Street,FOOTSCRAY,VIC,3011,-37.792564,144.89342,1.0,Studio,Studio,False,0.0,False
8639725,elite,$350 per week,True,Huey Lim,Student Housing Australia,211/133 Droop Street,FOOTSCRAY,VIC,3011,-37.792564,144.89342,1.0,Studio,Studio,False,0.0,False
14516831,elite,$600 per week,False,Tennille D'Avola,Jas Stephens Real Estate,89 Ballarat Street,YARRAVILLE,VIC,3013,-37.819572,144.89053,1.0,House,House,False,0.0,False
16638692,elite,$525.00 per week,False,Danny Campos,LITTLE Real Estate Victoria,601/250 Elizabeth Street,MELBOURNE,VIC,3000,-37.81255,144.96275,1.0,ApartmentUnitFlat,Apartment / Unit / Flat,False,0.0,False
17195075,elite,$624,False,"Alisha Mehta, Rodolfo Ottobrini",Local Residential,A212/348 Macaulay Road,KENSINGTON,VIC,3031,-37.79477,144.93425,1.0,ApartmentUnitFlat,Apartment / Unit / Flat,False,0.0,False
17195452,elite,$500 per week,False,"Mason Wong, Maya Angela",Inner Real Estate NEXTRE,1504/568 St Kilda Road,MELBOURNE,VIC,3004,-37.847107,144.97884,1.0,ApartmentUnitFlat,Apartment / Unit / Flat,False,0.0,False
17195463,elite,$550 per week,False,"Romina Alessi, Leasing Team",Melcorp Real Estate,3014/9 Power Street,MELBOURNE,VIC,3000,-37.81363,144.96306,1.0,ApartmentUnitFlat,Apartment / Unit / Flat,False,0.0,False
17195541,elite,$700.00,True,William Chin,MICM Real Estate,201D/134 Rouse Street,PORT MELBOURNE,VIC,3207,-37.84215,144.93999,2.0,ApartmentUnitFlat,Apartment / Unit / Flat,False,0.0,False
17195543,elite,$550.00,True,Miki Kawabuchi,MICM Real Estate,1706/601 Little Lonsdale Street,MELBOURNE,VIC,3000,-37.813744,144.95369,1.0,ApartmentUnitFlat,Apartment / Unit / Flat,False,0.0,False
17195581,elite,$630 per week,False,"Diana Camacho, Leasing Team",Melcorp Real Estate,1309/25 Therry Street,MELBOURNE,VIC,3000,-37.806957,144.9611,1.0,ApartmentUnitFlat,Apartment / Unit / Flat,False,0.0,False
17195605,elite,$580 pw,False,Wally Omar,Kelly & Shiel Pty Ltd,83 O'Connell Street,NORTH MELBOURNE,VIC,3051,-37.803368,144.95695,1.0,House,House,False,0.0,False
17195702,elite,$1100/week,False,Leasing Team,First National Avant - Box Hill,199/632 St Kilda Road,MELBOURNE,VIC,3004,-37.854332,144.98128,2.0,ApartmentUnitFlat,Apartment / Unit / Flat,False,0.0,False
17196024,elite,$470.00,False,Caterina Italiano,Woodards Ascot Vale,29/31 Moreland Street,FOOTSCRAY,VIC,3011,-37.80209,144.90752,1.0,ApartmentUnitFlat,Apartment / Unit / Flat,False,0.0,False
17196034,elite,$700.00,False,Abie Riady,MICM Real Estate,2404/8 Franklin Street,MELBOURNE,VIC,3000,-37.80746,144.96196,1.0,ApartmentUnitFlat,Apartment / Unit / Flat,False,0.0,False
17196211,elite,$1300.00 per week,False,Sharon Taylor-Weeks,Cayzer Real Estate Albert Park,404/155 Beach Street,PORT MELBOURNE,VIC,3207,-37.839237,144.9257,2.0,ApartmentUnitFlat,Apartment / Unit / Flat,False,0.0,False
17196236,elite,$675 per week,False,Hien Dinh,Biggin & Scott Port Melbourne,403/101 Bay Street,PORT MELBOURNE,VIC,3207,-37.84064,144.94002,2.0,ApartmentUnitFlat,Apartment / Unit / Flat,False,0.0,False
17196322,elite,$575 per week,False,Damien Welch,Jas Stephens Real Estate,1A Beverley Street,YARRAVILLE,VIC,3013,-37.82168,144.89145,1.0,Townhouse,Townhouse,False,0.0,False
17196431,elite,$925.00 per week,False,Kylie Malmstrom,Cayzer Real Estate Albert Park,252 Ross Street,PORT MELBOURNE,VIC,3207,-37.83338,144.94131,2.0,House,House,False,0.0,False
17196436,elite,$525,True,"Tali Leckie, Bronte Carfino",MRE,810/253 Franklin Street,MELBOURNE,VIC,3000,-37.8095,144.95667,1.0,ApartmentUnitFlat,Apartment / Unit / Flat,False,0.0,False
17196531,elite,$800 and Fully Furnished Option At Extra pw,True,Leasing Team,LJ Hooker City Residential,1308/138 Spencer Street,MELBOURNE,VIC,3000,-37.81747,144.95366,2.0,ApartmentUnitFlat,Apartment / Unit / Flat,False,0.0,False
15336283,premiumplus,$500PW,False,Angus Brayshaw,Richardson & Wrench Projects Victoria,604/6 Joseph Road,FOOTSCRAY,VIC,3011,-37.800327,144.90956,1.0,ApartmentUnitFlat,Apartment / Unit / Flat,False,0.0,False
15348379,premiumplus,$700,False,Natalie Subotsch,Gotham Property,16HI/131 Lonsdale Street,MELBOURNE,VIC,3000,-37.81078,144.96855,2.0,ApartmentUnitFlat,Apartment / Unit / Flat,False,0.0,False
15422303,premiumplus,$500 per week,False,Kim Te,Motion Property,1405/4 Joseph Road,FOOTSCRAY,VIC,3011,-37.800327,144.90956,1.0,ApartmentUnitFlat,Apartment / Unit / Flat,False,0.0,False
15575316,premiumplus,$720,False,Manuel Flores,Gotham Property,522/199 William Street,MELBOURNE,VIC,3000,-37.81457,144.95735,2.0,ApartmentUnitFlat,Apartment / Unit / Flat,False,0.0,False
16045484,premiumplus,$620 per week,False,"Kim Te, Mary Mezei",Motion Property,703/8 Joseph Road,FOOTSCRAY,VIC,3011,-37.800327,144.90956,2.0,ApartmentUnitFlat,Apartment / Unit / Flat,False,0.0,False
16072582,premiumplus,$490 pw,False,Daniel Hamilton,McGrath,1008/380 Little Lonsdale Street,MELBOURNE,VIC,3000,-37.812267,144.95827,1.0,ApartmentUnitFlat,Apartment / Unit / Flat,False,0.0,False
16140206,premiumplus,$520 per week,False,"Kim Te, Mary Mezei",Motion Property,505/4 Joseph Road,FOOTSCRAY,VIC,3011,-37.800327,144.90956,1.0,ApartmentUnitFlat,Apartment / Unit / Flat,False,0.0,False
16272189,premiumplus,$1900 per week,True,JORDAN PALMA,Ray White CRE,2601/82 Flinders Street,MELBOURNE,VIC,3000,-37.815918,144.97194,2.0,ApartmentUnitFlat,Apartment / Unit / Flat,False,0.0,False
16324450,premiumplus,$485 per week,True,"Kim Te, Mary Mezei",Motion Property,G03/6 Paine Street,NEWPORT,VIC,3015,-37.847855,144.8889,1.0,ApartmentUnitFlat,Apartment / Unit / Flat,False,0.0,False
16677906,premiumplus,$495 per week,False,Daniel Henderson,Haven Agents,3/211 Esplanade West,PORT MELBOURNE,VIC,3207,-37.838406,144.94383,1.0,ApartmentUnitFlat,Apartment / Unit / Flat,False,0.0,False
17161755,premiumplus,$575 pw,False,Daniel Hamilton,McGrath,104/538 Little Lonsdale Street,MELBOURNE,VIC,3000,-37.813602,144.95328,1.0,ApartmentUnitFlat,Apartment / Unit / Flat,False,0.0,False
17168671,premiumplus,$735.00,False,Melanie Jones,Jellis Craig Inner West,1/35 Stephenson Street,SPOTSWOOD,VIC,3015,-37.829403,144.87518,3.0,House,House,False,0.0,False
17168902,premiumplus,$750 pw,False,Samridhi Munjal,Dingle Partners,109/52 Dow Street,PORT MELBOURNE,VIC,3207,-37.843044,144.94026,2.0,ApartmentUnitFlat,Apartment / Unit / Flat,False,0.0,False
17169109,premiumplus,$995.00,False,Jack Alexander,Marshall White Port Phillip,102/115 Beach Street,PORT MELBOURNE,VIC,3207,-37.840244,144.93027,2.0,ApartmentUnitFlat,Apartment / Unit / Flat,False,0.0,False
17169551,premiumplus,$430/w FURNISHED,False,"Leasing Manager, Gloria Ye",AZeta Real Estate,7/1 O'Connell Street,NORTH MELBOURNE,VIC,3051,-37.805717,144.95805,1.0,ApartmentUnitFlat,Apartment / Unit / Flat,False,0.0,False
17170420,premiumplus,$775 pw,False,Maria Gutterson,Dingle Partners,3408/100 Harbour Esplanade,DOCKLANDS,VIC,3008,-37.818375,144.94688,2.0,ApartmentUnitFlat,Apartment / Unit / Flat,False,0.0,False
17178112,premiumplus,$480 pw,False,Carson Mair,Dingle Partners,804/480 St Kilda Road,MELBOURNE,VIC,3000,-37.842728,144.97731,1.0,ApartmentUnitFlat,Apartment / Unit / Flat,False,0.0,False
17178264,premiumplus,$560,False,DIANA JURISIC,Ray White CRE,1104/422 Collins Street,MELBOURNE,VIC,3000,-37.817097,144.96014,1.0,ApartmentUnitFlat,Apartment / Unit / Flat,False,0.0,False
17178593,premiumplus,$750 pw,False,Maria Gutterson,Dingle Partners,1601/8 McCrae Street,DOCKLANDS,VIC,3008,-37.82167,144.95099,2.0,ApartmentUnitFlat,Apartment / Unit / Flat,False,0.0,False
17179877,premiumplus,$500 weekly,False,Jemma Wilksch,Chisholm & Gamon Elwood,G02/41 Nott Street,PORT MELBOURNE,VIC,3207,-37.841625,144.93752,1.0,ApartmentUnitFlat,Apartment / Unit / Flat,False,0.0,False
8642185,elite,$380.00 per week,False,Jennifer Caruana,Student Housing Australia,505/8-10 Vale Street,NORTH MELBOURNE,VIC,3051,-37.79992,144.95384,1.0,ApartmentUnitFlat,Apartment / Unit / Flat,False,0.0,False
12582068,elite,$380.00 per week,False,Jennifer Caruana,Student Housing Australia,512/8-10 Vale Street,NORTH MELBOURNE,VIC,3051,-37.79992,144.95384,1.0,ApartmentUnitFlat,Apartment / Unit / Flat,False,0.0,False
16653144,elite,$525,True,"Millie Bowles, Annabelle Munt",MRE,908/280 Spencer Street,MELBOURNE,VIC,3000,-37.813946,144.95203,1.0,ApartmentUnitFlat,Apartment / Unit / Flat,False,0.0,False
17193923,elite,$790.00,False,"Alexandria Boyce, April Langley",Buxton Inner West,1/92 Cowper Street,FOOTSCRAY,VIC,3011,-37.805443,144.90224,2.0,Townhouse,Townhouse,False,0.0,False
17194010,elite,$660 per week,False,"Jordan Nunns, Leasing Team",Melcorp Real Estate,1111/228 La Trobe Street,MELBOURNE,VIC,3000,-37.809616,144.9623,1.0,ApartmentUnitFlat,Apartment / Unit / Flat,False,0.0,False
17194012,elite,$620 per week,False,"Diana Camacho, Leasing Team",Melcorp Real Estate,3204/483 Swanston Street,MELBOURNE,VIC,3000,-37.807137,144.96233,1.0,ApartmentUnitFlat,Apartment / Unit / Flat,False,0.0,False
17194107,elite,$950.00,False,"Liza Ajredini, James Vella",Jellis Craig Kensington,150 Stockmans Way,KENSINGTON,VIC,3031,-37.79257,144.91832,2.0,House,House,False,0.0,False
17194156,elite,$730.00,True,Miki Kawabuchi,MICM Real Estate,1204/601 Little Lonsdale Street,MELBOURNE,VIC,3000,-37.813744,144.95369,2.0,ApartmentUnitFlat,Apartment / Unit / Flat,False,0.0,False
17194208,elite,$700 per week,False,"Eva Christodoulou, Dylan Emmett",Lucas Real Estate,403/673 La Trobe Street,DOCKLANDS,VIC,3008,-37.814922,144.94794,1.0,ApartmentUnitFlat,Apartment / Unit / Flat,False,0.0,False
17194235,elite,$850.00,False,Michelle Welsh,Hallmarc Asset Management,506/14 Queens Road,MELBOURNE,VIC,3004,-37.83892,144.97499,2.0,ApartmentUnitFlat,Apartment / Unit / Flat,False,0.0,False
17194242,elite,$930.00,False,Miki Kawabuchi,MICM Real Estate,3103/618 Lonsdale Street,MELBOURNE,VIC,3000,-37.814415,144.9539,2.0,ApartmentUnitFlat,Apartment / Unit / Flat,False,0.0,False
17194349,elite,$500 per week,False,Ashley Oliver,Lucas Real Estate,1208/31 Spring Street,MELBOURNE,VIC,3000,-37.81452,144.97417,1.0,ApartmentUnitFlat,Apartment / Unit / Flat,False,0.0,False
17194468,elite,$670 per week,False,Ashley Oliver,Lucas Real Estate,3008/8 Pearl River Road,DOCKLANDS,VIC,3008,-37.81565,144.93825,2.0,ApartmentUnitFlat,Apartment / Unit / Flat,False,0.0,False
17194477,elite,$800,False,Ray White Rental Centre,Ray White Ferntree Gully,4207/120 A'Beckett Street,MELBOURNE,VIC,3000,-37.809307,144.95973,2.0,ApartmentUnitFlat,Apartment / Unit / Flat,False,0.0,False
17194497,elite,$640pw/ $2781pcm,False,Gradi Masudi,Nelson Alexander Flemington,19 Shepherd Street,FOOTSCRAY,VIC,3011,-37.7954,144.89308,1.0,House,House,False,0.0,False
17194943,elite,$1100 per week Furnished,False,"Suzie Inglis, Kim Davey",Melbourne Boutique Property,101/8 Bligh Place,MELBOURNE,VIC,3000,-37.817253,144.9639,2.0,ApartmentUnitFlat,Apartment / Unit / Flat,False,0.0,False
17194966,elite,$950,False,Nicola Michels,Longview Real Estate,334 Bay Street,PORT MELBOURNE,VIC,3207,-37.83656,144.94461,1.0,House,House,False,0.0,False
17195068,elite,$900 weekly,False,"Sabrina Choi, Jun Zeng",  Elite Real Estate,4106/285 La Trobe St,MELBOURNE,VIC,3000,-37.810734,144.96082,2.0,ApartmentUnitFlat,Apartment / Unit / Flat,False,0.0,False
17195375,elite,$880pw / $3824pcm,False,Ankita Chhabra,Nelson Alexander Essendon,13 Tennyson Street,KENSINGTON,VIC,3031,-37.798054,144.93025,1.0,House,House,False,0.0,False
17195418,elite,$470 per week,False,Duska Maric,Del Real Estate,1212/339 Swanston Street,MELBOURNE,VIC,3000,-37.810383,144.9638,1.0,House,House,False,0.0,False
12849645,elite,$520.00 per week,False,Danny Campos,LITTLE Real Estate Victoria,1508/200 Spencer Street,MELBOURNE,VIC,3000,-37.816227,144.95325,1.0,ApartmentUnitFlat,Apartment / Unit / Flat,False,0.0,False
13453938,elite,$750 per week Partly Furnished,False,Frank Du,CAN Estate Agents Pty Ltd,1701/228 A'beckett Street,MELBOURNE,VIC,3000,-37.810265,144.95663,2.0,ApartmentUnitFlat,Apartment / Unit / Flat,False,0.0,False
16566136,elite,$530,False,,Metro Real Estate Pty Ltd,1808/8 Hallenstein Street,FOOTSCRAY,VIC,3011,-37.80004,144.9082,1.0,ApartmentUnitFlat,Apartment / Unit / Flat,False,0.0,False
17164705,elite,$650 per week,False,"Mason Wong, Hayley Tran",Inner Real Estate NEXTRE,1809B/11 Rose Lane,MELBOURNE,VIC,3000,-37.815487,144.95422,1.0,ApartmentUnitFlat,Apartment / Unit / Flat,False,0.0,False
17164802,elite,$580 per week,True,"Mason Wong, Hayley Tran",Inner Real Estate NEXTRE,305/27 Victoria Street,FOOTSCRAY,VIC,3011,-37.800983,144.893,2.0,ApartmentUnitFlat,Apartment / Unit / Flat,False,0.0,False
17164806,elite,$620.00,False,Aryanaz Moradi,MICM Real Estate,1213/560 Lonsdale Street,MELBOURNE,VIC,3000,-37.813957,144.95566,1.0,ApartmentUnitFlat,Apartment / Unit / Flat,False,0.0,False
17164872,elite,$650.00,False,Miki Kawabuchi,MICM Real Estate,4111/601 Little Lonsdale Street,MELBOURNE,VIC,3000,-37.813744,144.95369,1.0,ApartmentUnitFlat,Apartment / Unit / Flat,False,0.0,False
17164874,elite,$550.00,False,Abie Riady,MICM Real Estate,G4/380 Queensberry Street,NORTH MELBOURNE,VIC,3051,-37.803402,144.9552,1.0,ApartmentUnitFlat,Apartment / Unit / Flat,False,0.0,False
17164875,elite,$470.00,True,Aryanaz Moradi,MICM Real Estate,2711/181 ABeckett Street,MELBOURNE,VIC,3000,-37.810158,144.95819,1.0,Studio,Studio,False,0.0,False
17164923,elite,"$1,504 per week",False,"Mason Wong, Maya Angela",Inner Real Estate NEXTRE,1501/35 Albert Road,MELBOURNE,VIC,3000,-37.834694,144.9721,2.0,ApartmentUnitFlat,Apartment / Unit / Flat,False,0.0,False
17165145,elite,$750.00,True,Aryanaz Moradi,MICM Real Estate,4203/618 Lonsdale Street,MELBOURNE,VIC,3000,-37.814415,144.9539,1.0,ApartmentUnitFlat,Apartment / Unit / Flat,False,0.0,False
17165158,elite,$530 per week,False,May Sun,ELITE REAL ESTATE (ON ELIZABETH STREET),1008/455 Elizabeth Street,MELBOURNE,VIC,3000,-37.808453,144.96013,1.0,ApartmentUnitFlat,Apartment / Unit / Flat,False,0.0,False
17165366,elite,$900 per week,False,"Asa Salimi, Marly  Mora",BRADY residential,2405/25-33 Wills Street,MELBOURNE,VIC,3000,-37.810776,144.95692,2.0,ApartmentUnitFlat,Apartment / Unit / Flat,False,0.0,False
17165741,elite,"$500 pw / $2,173 pcm",False,"Leo Maugeri, Alexandra Everitt",Nelson Alexander Reservoir,1605/80 Abeckett Street,MELBOURNE,VIC,3000,-37.809,144.96107,1.0,ApartmentUnitFlat,Apartment / Unit / Flat,False,0.0,False
17165753,elite,$850,False,"Jessica Chong, Xhenet  Smoqi",Yousales,8/SAINT MANGOS LANE,DOCKLANDS,VIC,3008,-37.81846,144.94324,1.0,ApartmentUnitFlat,Apartment / Unit / Flat,False,0.0,False
17166456,elite,$450.00 per week,False,Michelle Chiu,LITTLE Real Estate Victoria,202/46 Villiers Street,NORTH MELBOURNE,VIC,3051,-37.799534,144.9534,1.0,ApartmentUnitFlat,Apartment / Unit / Flat,False,0.0,False
17166791,elite,$650 Per Week,False,Lakely Shu,ELITE REAL ESTATE (ON ELIZABETH STREET),2901/11 Rose Lane,MELBOURNE,VIC,3000,-37.815487,144.95422,1.0,ApartmentUnitFlat,Apartment / Unit / Flat,False,0.0,False
17166859,elite,$780.00,True,Cameron Lowery,MICM Real Estate,2711/118-134 ABeckett Street,MELBOURNE,VIC,3000,-37.80865,144.95947,2.0,ApartmentUnitFlat,Apartment / Unit / Flat,False,0.0,False
17166862,elite,$450.00,True,Aryanaz Moradi,MICM Real Estate,202/181 ABeckett Street,MELBOURNE,VIC,3000,-37.810158,144.95819,1.0,Studio,Studio,False,0.0,False
17166975,elite,$730,False,Baron Zhao,Ray White Balwyn,1510S/883 Collins Street,DOCKLANDS,VIC,3008,-37.82109,144.94264,2.0,ApartmentUnitFlat,Apartment / Unit / Flat,False,0.0,False
9596535,elite,$450.00 per week,False,Danny Campos,LITTLE Real Estate Victoria,718/118 Franklin Street,MELBOURNE,VIC,3000,-37.808205,144.95891,1.0,ApartmentUnitFlat,Apartment / Unit / Flat,False,0.0,False
14837189,elite,$595 per week,False,RentBetter Team,RentBetter,1/2 Hawthorn Street,YARRAVILLE,VIC,3013,-37.81935,144.88861,1.0,House,House,False,0.0,False
16962167,elite,$450,False,"Terry Zhang, Tony Gao",MATRIX GLOBAL INVESTMENT GROUP MELBOURNE PTY LTD,1148/139 Lonsdale Street,MELBOURNE,VIC,3000,-37.810795,144.9683,1.0,ApartmentUnitFlat,Apartment / Unit / Flat,False,0.0,False
17072652,elite,$795.00 per week,False,Gordana Velevski,Hallmarc Asset Management,1303/14 Queens Road,MELBOURNE,VIC,3004,-37.83906,144.97441,1.0,ApartmentUnitFlat,Apartment / Unit / Flat,False,0.0,False
17161333,elite,$880.00,True,Aryanaz Moradi,MICM Real Estate,5106/560 Lonsdale Street,MELBOURNE,VIC,3000,-37.81397,144.95566,2.0,ApartmentUnitFlat,Apartment / Unit / Flat,False,0.0,False
17161416,elite,$400 Per Week,True,Robin Salh,Rendina Real Estate,REAR/512 Macaulay Road,KENSINGTON,VIC,3031,-37.79418,144.92914,1.0,ApartmentUnitFlat,Apartment / Unit / Flat,False,70.0,False
17161698,elite,$1750 per week,False,"Nikki Gervasi, Andrew D'Aprano, Paul Gervasi",NICOLE GERVASI PROPERTY GROUP,101/99 Spring Street,MELBOURNE,VIC,3000,-37.812527,144.97333,2.0,ApartmentUnitFlat,Apartment / Unit / Flat,False,0.0,False
17162434,elite,$750.00,False,William Chin,MICM Real Estate,53/416 St Kilda Road,MELBOURNE,VIC,3004,-37.83551,144.97461,2.0,ApartmentUnitFlat,Apartment / Unit / Flat,False,0.0,False
